Line_number,Fiducial,Easting,Northing,Height,Elevation,tx_pitch,tx_roll,tx_yaw,txrx_dx,txrx_dy,txrx_dz,rx_pitch,rx_roll,rx_yaw,S0Z_time_3.834e-04,S0Z_time_3.924e-04,S0Z_time_4.039e-04,S0Z_time_4.184e-04,S0Z_time_4.364e-04,S0Z_time_4.589e-04,S0Z_time_4.869e-04,S0Z_time_5.224e-04,S0Z_time_5.679e-04,S0Z_time_6.249e-04,S0Z_time_6.969e-04,S0Z_time_7.879e-04,S0Z_time_9.019e-04,S0Z_time_1.046e-03,S0Z_time_1.227e-03,S0Z_time_1.456e-03,S0Z_time_1.744e-03,S0Z_time_2.109e-03,S0Z_time_2.567e-03,S0Z_time_3.145e-03,S0Z_time_3.864e-03,S0Z_time_4.745e-03,S0Z_time_5.821e-03,S0Z_time_7.140e-03,S0Z_time_8.754e-03,S0Z_time_1.073e-02,S1Z_time_2.057e-05,S1Z_time_2.607e-05,S1Z_time_3.307e-05,S1Z_time_4.206e-05,S1Z_time_5.356e-05,S1Z_time_6.807e-05,S1Z_time_8.607e-05,S1Z_time_1.086e-04,S1Z_time_1.366e-04,S1Z_time_1.721e-04,S1Z_time_2.176e-04,S1Z_time_2.746e-04,S1Z_time_3.466e-04,S1Z_time_4.376e-04,S1Z_time_5.516e-04,S1Z_time_6.956e-04,S1Z_time_8.771e-04,S1Z_time_1.106e-03,S1Z_time_1.394e-03
0.0,0,0.0,0.0,30.0,0.0,0.0,0.0,0.0,-13.0,0.0,2.0,0.0,0.0,0.0,6.099171183813858e-11,5.004571066550564e-11,4.061997400991059e-11,3.317152932395189e-11,2.5018591480772745e-11,1.8798859725145838e-11,1.439206365744274e-11,1.0643930828370892e-11,8.058617461851226e-12,5.778809060429156e-12,3.8515026851324825e-12,2.6277955711238915e-12,1.5956430351722927e-12,1.094066841932549e-12,7.748996310039945e-13,4.734062247285485e-13,2.703721926209376e-13,1.5730419655034774e-13,9.948166424517445e-14,5.920080022009658e-14,3.255318364190109e-14,1.8256209610181844e-14,1.1132611097274292e-14,6.025582643944071e-15,4.11218875051916e-15,1.4739590586597772e-15,5.83947849254701e-09,3.41010795983038e-09,2.036548810983755e-09,1.240218628298874e-09,7.268869179106157e-10,4.031617848432602e-10,2.35188052721551e-10,1.33560904215041e-10,6.830449293620915e-11,4.169804045139009e-11,2.236547978888584e-11,1.2340169962344731e-11,6.7373193272042096e-12,3.817548883498182e-12,2.0563555144843144e-12,1.1172195493724725e-12,5.873114981159299e-13,3.2076965070333617e-13,1.5208755827268305e-13
0.0,1,1.0,0.0,30.0,0.0,0.0,0.0,0.0,-13.0,0.0,2.0,0.0,0.0,0.0,5.3637470766363846e-11,4.5940883476914786e-11,3.979958860273156e-11,3.115563283383066e-11,2.46333644721038e-11,1.9344950701871628e-11,1.3810895013072464e-11,1.0253061289831624e-11,7.2530323859191646e-12,5.4781018303533e-12,3.5924355413057754e-12,2.43001282400618e-12,1.6235670074573507e-12,1.1053343367161195e-12,6.958018787620741e-13,4.2626333633511467e-13,2.416378365903517e-13,1.6016690206209527e-13,9.521326951396745e-14,5.5247090692786335e-14,3.0261153292990674e-14,1.781370321742971e-14,8.251007062057093e-15,6.002381808459665e-15,2.3668544691555695e-15,1.2610731304265904e-15,5.736763122725341e-09,3.0839669780765716e-09,2.0647562869476585e-09,1.2219976948831914e-09,7.414140372435582e-10,4.206581508692724e-10,2.355963297385103e-10,1.3805379631669587e-10,7.257819329167152e-11,4.2081145505830205e-11,2.1795567917305858e-11,1.154698834065807e-11,6.664487262021593e-12,3.7090238458318204e-12,1.9785334672550983e-12,1.0597120223384308e-12,5.782492227007576e-13,2.9457614754923524e-13,1.4067860394984398e-13
0.0,2,2.0,0.0,30.0,0.0,0.0,0.0,0.0,-13.0,0.0,2.0,0.0,0.0,0.0,5.918900911890721e-11,4.657475154656179e-11,3.692318932180021e-11,2.972614924557148e-11,2.378202399227801e-11,1.808808367503397e-11,1.2918225708028834e-11,9.521870277229151e-12,6.778990154453105e-12,4.864530390797002e-12,3.20531923765177e-12,2.3828697740841986e-12,1.522722727643211e-12,1.0040224011885375e-12,6.336259508796502e-13,4.0313995957816923e-13,2.6272394943274613e-13,1.6244289827764848e-13,9.4836468130527e-14,5.63467377081774e-14,2.979920225255006e-14,1.636785471227874e-14,9.053412967445415e-15,6.303586189035927e-15,2.9009771668297776e-15,1.9520521743961947e-15,6.164129399799334e-09,3.3415638768232076e-09,2.2229428626336787e-09,1.2200147518308405e-09,7.322456164411714e-10,3.9912548585634596e-10,2.289842500133623e-10,1.3017527489096612e-10,6.844219350971343e-11,3.818950244877016e-11,1.963830706702013e-11,1.1670407169127902e-11,6.048723939093548e-12,3.251872325652891e-12,1.8801957241069252e-12,1.0101297967441452e-12,5.092065722001738e-13,3.0196949205260073e-13,1.4388294662650907e-13
0.0,3,3.0,0.0,30.0,0.0,0.0,0.0,0.0,-13.0,0.0,2.0,0.0,0.0,0.0,5.630722067553624e-11,4.693531090036469e-11,3.7170910426137894e-11,2.9512981432010926e-11,2.228067944091553e-11,1.6772100852143267e-11,1.2469596071121024e-11,9.242379408076416e-12,6.721857534348194e-12,4.6417177611339335e-12,3.1819652752899213e-12,2.212218255355868e-12,1.476263617216464e-12,9.320006222307104e-13,6.441743254761698e-13,3.8618939008128737e-13,2.3659082510554704e-13,1.467843426360901e-13,8.898478632037724e-14,5.0156032126891684e-14,3.0288635891957714e-14,1.822990132036932e-14,8.267118567327914e-15,4.955453780631946e-15,3.751668351348312e-15,1.6117929401657746e-15,6.130164706416025e-09,3.6516064270204652e-09,2.0808200317463112e-09,1.2875412770283303e-09,7.260590737383634e-10,4.202729247739619e-10,2.2777548020924287e-10,1.2212360706409937e-10,6.739661075356167e-11,3.59477836830662e-11,2.0297040136250846e-11,1.1042489391216879e-11,5.5650730673866636e-12,3.3100030454186626e-12,1.7496946438062308e-12,9.589788801854434e-13,5.286413045449983e-13,2.812474355420031e-13,1.492832593685949e-13
0.0,4,4.0,0.0,30.0,0.0,0.0,0.0,0.0,-13.0,0.0,2.0,0.0,0.0,0.0,5.4749835474898045e-11,4.6020592290155694e-11,3.506893969796589e-11,2.7980493752135783e-11,2.1990158666302382e-11,1.5244269433737194e-11,1.2394899085961513e-11,9.000708504720703e-12,6.515118921080526e-12,4.302961849333911e-12,3.137687667148521e-12,2.1039238467530923e-12,1.385813232590817e-12,9.466077804565028e-13,5.790541583355761e-13,3.8690824013387217e-13,2.336211782038637e-13,1.4071663949645939e-13,8.463007330504569e-14,5.266812740165736e-14,2.8086319587105314e-14,1.432314771889426e-14,1.0049202352340093e-14,6.303161938181833e-15,3.306644328362413e-15,2.860749092436639e-15,5.8585960316413955e-09,3.5065654955681967e-09,2.0396043063406454e-09,1.317114395357856e-09,7.411679795034869e-10,3.920999615980835e-10,2.2325708165380252e-10,1.2287320316581283e-10,7.05142769273647e-11,3.6325775453668295e-11,1.976281779689807e-11,1.0015052347229688e-11,6.046886440752668e-12,2.9643768732745903e-12,1.5572462631337206e-12,9.18651433598051e-13,4.789639147846332e-13,2.533561648975031e-13,1.4006151798011876e-13
0.0,5,5.0,0.0,30.0,0.0,0.0,0.0,0.0,-13.0,0.0,2.0,0.0,0.0,0.0,5.512523889221478e-11,4.5436472720588444e-11,3.4017085009225494e-11,2.6273136725377964e-11,2.1725809402094098e-11,1.5851466708833765e-11,1.1216209618079698e-11,8.575132691115806e-12,6.156742178311534e-12,4.327397094123151e-12,2.8997637602052345e-12,1.9786727503231304e-12,1.3077471219245571e-12,8.226968396512197e-13,5.594180900364315e-13,3.6396575719866205e-13,2.332010357201702e-13,1.3781728391177978e-13,8.526290577997316e-14,4.5569796284717483e-14,2.738730356578535e-14,1.5438944976842542e-14,9.948891814490261e-15,6.8557848179075625e-15,2.2000174220765595e-15,1.2516209401749073e-15,5.894141483605204e-09,3.4592882681964037e-09,2.161757923881018e-09,1.3979986643725945e-09,7.77839340412879e-10,4.0717060330489145e-10,2.2656012821578432e-10,1.2338492244093333e-10,6.885954089284615e-11,3.671425284291522e-11,1.883451314625514e-11,9.844263074915855e-12,5.4729347688851135e-12,2.8256059347107076e-12,1.563301380832323e-12,8.322442522113537e-13,4.73082250092404e-13,2.2092874280519645e-13,1.3887065619207567e-13
0.0,6,6.0,0.0,30.0,0.0,0.0,0.0,0.0,-13.0,0.0,2.0,0.0,0.0,0.0,5.427230684133367e-11,4.4539814862868556e-11,3.512429283985066e-11,2.6721924302538212e-11,1.968987987136036e-11,1.4687165258816992e-11,1.1325067162710227e-11,8.139662789566564e-12,5.437197363730169e-12,3.772177442853693e-12,2.585509377972375e-12,1.979622733389876e-12,1.3023356789809463e-12,8.284564672742526e-13,5.474702593374596e-13,3.4782096297764185e-13,2.0389947004418007e-13,1.3423801220710925e-13,7.471556548908248e-14,4.5891093388592017e-14,2.6575178890173014e-14,1.5630445515319433e-14,8.466232103720848e-15,4.6638725564046064e-15,3.747829774101629e-15,2.2731251006568506e-15,5.951595841216808e-09,3.5144187698013257e-09,2.065418654855303e-09,1.2439644040005146e-09,7.440834506244292e-10,3.9263358351169266e-10,2.277234384468637e-10,1.2248797504634412e-10,6.437525724368402e-11,3.30092224659793e-11,1.8223551733445783e-11,9.72915754361538e-12,5.154226607119468e-12,2.717779651180676e-12,1.5133640309848761e-12,7.593372044869794e-13,4.3250030100742253e-13,2.5219072167579384e-13,1.1474509856119472e-13
0.0,7,7.0,0.0,30.0,0.0,0.0,0.0,0.0,-13.0,0.0,2.0,0.0,0.0,0.0,5.253254045581699e-11,4.366331028041448e-11,3.5475669552069515e-11,2.648322639183111e-11,2.083299736859623e-11,1.4430483949508888e-11,1.0095168867938514e-11,7.599343521952534e-12,5.499068837059836e-12,3.957875762404528e-12,2.60973826655703e-12,1.8008925591721804e-12,1.1748671486626703e-12,8.101302493375123e-13,5.095806760536487e-13,3.4770868261069134e-13,2.0474240529583237e-13,1.2333636678207364e-13,7.831839543611787e-14,4.5403731161289584e-14,2.6617356781581944e-14,1.6129733761789393e-14,8.475098771850995e-15,3.2984164072885414e-15,4.0729899675166706e-15,1.7656823533500683e-15,6.189656401369709e-09,3.4620300585163934e-09,2.127587464825121e-09,1.217897487141977e-09,7.313792370561207e-10,4.091272058744667e-10,2.3017783901595781e-10,1.3095266593737925e-10,6.675021753012747e-11,3.3877960193256425e-11,1.657542130384717e-11,9.040814976110503e-12,4.737117998597979e-12,2.5885811566626875e-12,1.4616185944140134e-12,7.92153160774265e-13,3.795646162079325e-13,2.152977686603824e-13,1.1771844718298802e-13
0.0,8,8.0,0.0,30.0,0.0,0.0,0.0,0.0,-13.0,0.0,2.0,0.0,0.0,0.0,5.272246869969182e-11,4.431696070690104e-11,3.340122342059462e-11,2.5830455820144353e-11,2.0433029347167766e-11,1.426588539881267e-11,1.0470621974701412e-11,7.530194476293856e-12,5.157362571209594e-12,3.6993006738782334e-12,2.441352252655536e-12,1.5278550925039056e-12,1.1241586495055536e-12,7.548548077393529e-13,4.906545212496787e-13,3.0375962578423714e-13,2.060717420147768e-13,1.193001131731064e-13,7.721154686836909e-14,4.3534372238304587e-14,2.5578149208201407e-14,1.5117963256789652e-14,9.019782749860632e-15,4.215355818652315e-15,2.6242456945746383e-15,2.6278058168667095e-15,5.847179198497871e-09,3.4245363967775346e-09,2.1302358656717418e-09,1.2721127850743918e-09,7.243085802401676e-10,3.97523668224896e-10,2.3054587890450758e-10,1.1792658906605949e-10,6.243510370901979e-11,3.3479050903363467e-11,1.6492411835679217e-11,8.622913422611869e-12,4.644220913820909e-12,2.449631822129481e-12,1.3366435242415205e-12,6.766830159128434e-13,4.159873846188934e-13,1.7835046933253815e-13,1.1290663684083156e-13
0.0,9,9.0,0.0,30.0,0.0,0.0,0.0,0.0,-13.0,0.0,2.0,0.0,0.0,0.0,5.180234978936113e-11,4.173519218718454e-11,3.275066976565372e-11,2.5574239438817056e-11,1.873464274716954e-11,1.4206417725644572e-11,9.902931374662573e-12,7.134061244794594e-12,5.103097880225808e-12,3.4576709192771823e-12,2.443082142488547e-12,1.5935142675917553e-12,1.0523872234321477e-12,7.612794335820884e-13,4.729541591491518e-13,2.883967096400154e-13,1.9176517004827195e-13,1.185551041345249e-13,7.333813665505441e-14,4.47564727249386e-14,2.5638735488825567e-14,1.5207849712325672e-14,8.298386273158385e-15,5.024457356489279e-15,1.9101478884657362e-15,2.5445275831579845e-15,6.361912894659512e-09,3.645803204180882e-09,2.1899415140532904e-09,1.2748141226877423e-09,7.053091879511768e-10,4.280657763272696e-10,2.3172511889664483e-10,1.2033656262756457e-10,6.599455144786592e-11,3.1061955430490244e-11,1.6683217069209966e-11,8.811848294434893e-12,4.640345560410232e-12,2.4793644721856244e-12,1.3282963909970812e-12,6.823292544453331e-13,3.9582243513804535e-13,1.992140000472407e-13,1.0130088572522878e-13
0.0,10,10.0,0.0,30.0,0.0,0.0,0.0,0.0,-13.0,0.0,2.0,0.0,0.0,0.0,4.96097444214362e-11,4.3206342296895285e-11,3.252336429066873e-11,2.493508736101358e-11,1.8663624739173085e-11,1.4044380213791275e-11,8.77202974862319e-12,6.924446181977061e-12,4.757141364972852e-12,3.3248115668686126e-12,2.2965942876279744e-12,1.5347116206619823e-12,1.0192071790423626e-12,6.943385673951027e-13,4.685685279782257e-13,2.762520504553254e-13,1.9546405328991055e-13,1.1677309911650617e-13,7.040187247817788e-14,3.914761221598822e-14,2.3020552556643376e-14,1.2141811886716762e-14,7.47798855274815e-15,4.101508246033643e-15,2.241715047911479e-15,3.0980829040933136e-15,6.296276133831498e-09,3.428757556207062e-09,2.110477937527354e-09,1.2505991232430567e-09,7.219309376120712e-10,3.993947567426856e-10,2.344470368372001e-10,1.168757806763976e-10,6.136167425626289e-11,3.233906581830362e-11,1.6448042724761367e-11,8.91323036652386e-12,4.374208944215974e-12,2.3025550269386292e-12,1.1817934612396396e-12,6.480421189505202e-13,3.663466256565304e-13,2.0636305286220376e-13,1.0038444976770095e-13
0.0,11,11.0,0.0,30.0,0.0,0.0,0.0,0.0,-13.0,0.0,2.0,0.0,0.0,0.0,5.0655508836100974e-11,4.356809975916706e-11,3.190633173856603e-11,2.4178780569886042e-11,1.7992703112404314e-11,1.4042884072315924e-11,8.917833905562798e-12,6.199494969666682e-12,4.486744832165554e-12,3.2183522332607446e-12,2.1253433960602363e-12,1.3882389702772508e-12,9.304545537418035e-13,6.594416937565802e-13,4.4087389367614555e-13,2.7437683835709374e-13,1.7658717561005195e-13,1.0424323705453714e-13,6.884048084928293e-14,3.757833052916611e-14,2.523750105586141e-14,1.3094006600250147e-14,9.975387960197642e-15,4.8624189686410514e-15,9.91960703880557e-17,3.328178373036002e-15,6.035931596600544e-09,3.577101822619092e-09,2.109745003502091e-09,1.3236926358953662e-09,7.533503545750726e-10,4.1184741244707004e-10,2.1956938374403726e-10,1.2558210585739792e-10,6.665047858976296e-11,3.2477514289368794e-11,1.6526438608736484e-11,7.878542922038581e-12,4.269946305544278e-12,2.144472415890504e-12,1.1547651476381618e-12,6.247181446565426e-13,3.2850162484578634e-13,1.7788864429181303e-13,1.0835843412311468e-13
0.0,12,12.0,0.0,30.0,0.0,0.0,0.0,0.0,-13.0,0.0,2.0,0.0,0.0,0.0,5.051452167767765e-11,4.187879608306381e-11,3.291026809104272e-11,2.3646478506163672e-11,1.889752926865468e-11,1.2523275487963651e-11,9.099815167526306e-12,6.282252005058854e-12,4.439486316389134e-12,2.9215691744957122e-12,1.9508835167051502e-12,1.4166999366670574e-12,9.065369516693721e-13,6.598776736676749e-13,4.169003594337753e-13,2.6924640013213557e-13,1.6660069712660365e-13,1.0521837016721971e-13,6.370673472644293e-14,4.0335814608759774e-14,2.2248875655089458e-14,1.3561802162396681e-14,6.560078429917273e-15,5.454724168671093e-15,3.765843456066687e-15,6.777957037336036e-16,6.065415524500881e-09,3.592300625003471e-09,2.1698449083976624e-09,1.2449052537786557e-09,7.235033786700752e-10,3.89671421939001e-10,2.212023272300783e-10,1.18298715243697e-10,6.02517038049292e-11,2.7418108467491318e-11,1.613116201911437e-11,7.708396490865569e-12,3.840443224873688e-12,2.1676090803354912e-12,1.1181312246649439e-12,5.877244103684722e-13,3.0427695703315263e-13,1.7208294964256174e-13,8.988120277627796e-14
0.0,13,13.0,0.0,30.0,0.0,0.0,0.0,0.0,-13.0,0.0,2.0,0.0,0.0,0.0,4.982465913148051e-11,4.0791272025736813e-11,2.8656920460488526e-11,2.3269848533367106e-11,1.7624985530526227e-11,1.2143755015679406e-11,8.646763951026932e-12,5.846599784160984e-12,4.272609823370484e-12,2.8908886066531312e-12,2.032881752273682e-12,1.307952924077759e-12,9.149222613410083e-13,5.918658800893739e-13,3.9567991538979075e-13,2.626189707615547e-13,1.6515488417280074e-13,1.0432477797686107e-13,6.468491264347583e-14,3.54972678847424e-14,2.2144593729826143e-14,1.0856243759327706e-14,7.017471537161795e-15,4.181482861848985e-15,3.593269932876949e-15,1.0425080183316957e-15,6.22820275211516e-09,3.539872194013212e-09,2.1809025608302482e-09,1.353571543093255e-09,7.401152245862231e-10,3.9937301514397376e-10,2.1805938281762113e-10,1.1781336123782727e-10,5.938053613061895e-11,2.9055359514383576e-11,1.504226569117617e-11,7.420546341845197e-12,3.924912890527281e-12,1.9479090077680493e-12,1.013602850845028e-12,5.674555492811735e-13,3.1199411009456783e-13,1.80057202547068e-13,7.861949865739355e-14
0.0,14,14.0,0.0,30.0,0.0,0.0,0.0,0.0,-13.0,0.0,2.0,0.0,0.0,0.0,4.8892759505628536e-11,3.9010531554779496e-11,2.952835182133098e-11,2.240735565578736e-11,1.6405158635906736e-11,1.234163449913394e-11,9.021351962433042e-12,5.885012555793133e-12,3.952518739701529e-12,2.6858466193540044e-12,1.8504154442473146e-12,1.2295572121738072e-12,8.64076979515071e-13,5.793709153485366e-13,3.732530402386667e-13,2.2588035635669183e-13,1.5974813232065127e-13,9.902442225395767e-14,5.887745313935095e-14,3.4502578474601535e-14,2.1558926378533024e-14,1.1365420670050398e-14,5.759080948364791e-15,3.112725528227642e-15,3.407649427724195e-15,2.4940954550110773e-15,6.209795699635866e-09,3.5248751118963863e-09,2.1831498451109827e-09,1.2498101539656373e-09,7.338314742702728e-10,3.860427103587652e-10,2.2053516499432483e-10,1.1474537568926464e-10,6.099732399254111e-11,2.8833056489561038e-11,1.4431042313184564e-11,6.9405887889060674e-12,3.5666250608682474e-12,1.9115198203541864e-12,9.82034643651769e-13,5.522163750676462e-13,2.8214425701433244e-13,1.5356308002942171e-13,8.220135270259774e-14
0.0,15,15.0,0.0,30.0,0.0,0.0,0.0,0.0,-13.0,0.0,2.0,0.0,0.0,0.0,4.7575577730426277e-11,3.9155140247541524e-11,3.0164030306870316e-11,2.3397208519311962e-11,1.6449296899611645e-11,1.1439619099452883e-11,8.074704416238519e-12,5.9383399714978715e-12,3.91504312222316e-12,2.69476762807019e-12,1.7670151207257723e-12,1.1676316985548942e-12,8.561210266063319e-13,5.342612155038927e-13,3.514848442358954e-13,2.35799708417101e-13,1.5237732204428144e-13,9.818011068229628e-14,6.078388961858424e-14,3.5044244669920826e-14,1.9013286543479234e-14,1.2895293187206382e-14,7.979630383801295e-15,4.3445066958425625e-15,2.5934525193177977e-15,8.358138696505041e-16,6.020183430421483e-09,3.7912590657912e-09,2.218595020394875e-09,1.3059423823960846e-09,7.158749503040363e-10,4.0364669758346e-10,2.1791970102206583e-10,1.1534910307622056e-10,5.642898080192746e-11,2.933018647979013e-11,1.3995615829327101e-11,7.281854262055106e-12,3.576339317408904e-12,1.7902415937052048e-12,9.670833280085499e-13,5.116370667934647e-13,2.563859728073509e-13,1.6969553766898627e-13,9.147975575370149e-14
0.0,16,16.0,0.0,30.0,0.0,0.0,0.0,0.0,-13.0,0.0,2.0,0.0,0.0,0.0,4.7661994997357735e-11,3.629889979335551e-11,3.078140272674233e-11,2.232789920982994e-11,1.571596022113986e-11,1.157459789930264e-11,8.315675912756166e-12,5.450677519244302e-12,3.740322586568759e-12,2.54005122384837e-12,1.752759528878613e-12,1.1364138382799334e-12,7.752266267563885e-13,5.350202358475246e-13,3.4880251757687384e-13,2.3234540979452107e-13,1.4323975193036489e-13,9.23977083813063e-14,5.743611565752047e-14,3.638030847499175e-14,1.835764121484218e-14,1.2594949619121129e-14,6.1734169605697696e-15,4.466730758177995e-15,2.29198790125821e-15,1.3387254763748552e-16,6.2771895223783124e-09,3.5743411487796867e-09,2.171979404288682e-09,1.261033018231372e-09,7.265137969850594e-10,3.988318282354392e-10,2.1312766915199163e-10,1.1236815072583382e-10,5.754235634536179e-11,2.8323536133596275e-11,1.4658117475187593e-11,7.08098990151928e-12,3.4030172048575787e-12,1.7322701584932825e-12,8.743038168750793e-13,4.620371161940218e-13,2.825442481440492e-13,1.3034317626276274e-13,9.315255470986674e-14
0.0,17,17.0,0.0,30.0,0.0,0.0,0.0,0.0,-13.0,0.0,2.0,0.0,0.0,0.0,4.856848799053085e-11,3.687989324987289e-11,3.058823756552501e-11,2.0433582378576653e-11,1.5646441098455676e-11,1.1068864847469586e-11,7.929050893961475e-12,5.714413930065998e-12,3.494048257780896e-12,2.443734202603159e-12,1.6228700060674545e-12,1.1233315429661362e-12,7.411344461950994e-13,5.02258400635546e-13,3.312040387398392e-13,2.1056624423259078e-13,1.3415512164922477e-13,8.840490001793743e-14,5.082016167126692e-14,3.594946225189212e-14,2.109913983992891e-14,1.1220752999584042e-14,7.454658125500399e-15,3.1484330353653972e-15,2.203738061848458e-15,8.488042998806217e-16,6.205676686008068e-09,3.6371260364931632e-09,2.233206684534155e-09,1.2485544912570026e-09,7.564771805952726e-10,3.776384603073513e-10,2.1405553636992242e-10,1.0884245069953765e-10,5.8972685929212e-11,3.076446078150381e-11,1.3215749760242489e-11,6.7836647338487005e-12,3.517262367718638e-12,1.7343746069291365e-12,8.62658310367264e-13,4.724870244131591e-13,2.375104326450387e-13,1.38812063515936e-13,5.405858062922867e-14
0.0,18,18.0,0.0,30.0,0.0,0.0,0.0,0.0,-13.0,0.0,2.0,0.0,0.0,0.0,4.6677660545226013e-11,3.455701207394746e-11,2.947823797692672e-11,2.1247342750753975e-11,1.6457191533459438e-11,1.1103083007636963e-11,7.922846574330859e-12,5.092720833483338e-12,3.3986939290512436e-12,2.3713368208861296e-12,1.542716078627145e-12,1.0652199072253763e-12,7.156692130343887e-13,4.774895661402258e-13,3.049256460590614e-13,2.117996875148172e-13,1.35537018007026e-13,9.19206307491779e-14,5.1589082807284675e-14,3.192047555054788e-14,1.6789548688358224e-14,1.2445613042520707e-14,3.5996709148790394e-15,3.478468857861072e-15,2.867805870548285e-15,1.703504481658975e-15,6.264081207341622e-09,3.839653622635049e-09,2.1424767177683044e-09,1.2602441537840437e-09,7.139483492837419e-10,4.1456949845436044e-10,2.1884344911175002e-10,1.1055914361977758e-10,5.6424274989703194e-11,2.816475731935402e-11,1.3228101716261418e-11,6.892566647849639e-12,3.0746316339641288e-12,1.6621076905404113e-12,8.78531874593425e-13,4.2660403943984873e-13,2.251953574330401e-13,1.1608689916336686e-13,5.15179744155986e-14
0.0,19,19.0,0.0,30.0,0.0,0.0,0.0,0.0,-13.0,0.0,2.0,0.0,0.0,0.0,4.696714411477229e-11,3.625745447237929e-11,2.672897452090794e-11,2.0589436153029535e-11,1.516748225620771e-11,1.1141861909789035e-11,7.40579147074861e-12,5.16931630624706e-12,3.485610215234475e-12,2.298752180111029e-12,1.4890337236454577e-12,1.11283974524512e-12,7.16938662235633e-13,4.720257929616582e-13,3.0661908571924e-13,1.9749576409460184e-13,1.3358522174094588e-13,8.149169806753673e-14,4.960912045897859e-14,3.3532934964592816e-14,1.6152928432469744e-14,1.0504969358098396e-14,6.182272995559011e-15,3.263095116072748e-15,1.8680754276520003e-15,1.4074828857755586e-15,6.236389886721005e-09,3.75203099682687e-09,2.2564837285974126e-09,1.2945426195105827e-09,7.562033908633565e-10,3.7120233719429425e-10,2.2029775394351345e-10,1.1588505977146113e-10,5.4203981785394636e-11,2.5859935043717668e-11,1.3170545366657629e-11,6.7216151063891986e-12,3.156068410202546e-12,1.5419191209698008e-12,7.976814294568551e-13,4.146743515405451e-13,2.493258111262351e-13,9.825204531425756e-14,6.537662997791141e-14
0.0,20,20.0,0.0,30.0,0.0,0.0,0.0,0.0,-13.0,0.0,2.0,0.0,0.0,0.0,4.454883174971997e-11,3.5243655197464364e-11,2.8638632364697825e-11,2.069585150523095e-11,1.5513292403385502e-11,1.1018688230926247e-11,6.5177518391647386e-12,4.69170332270674e-12,3.2379579330961143e-12,2.2468469803168934e-12,1.3990543632425564e-12,9.683541720417188e-13,6.984378517036605e-13,4.4930657341292977e-13,3.02342163934058e-13,1.9627251712569836e-13,1.2949559795355785e-13,8.29906369116405e-14,5.039323986096819e-14,3.003807592629174e-14,1.758427365680004e-14,9.224789340839823e-15,5.403283547878513e-15,2.9863220318213615e-15,2.7823523578400558e-15,-3.387950259511083e-16,5.833038228829163e-09,3.683351790500209e-09,2.182243086169134e-09,1.276122871392648e-09,7.228487508333511e-10,3.9161685471740955e-10,2.0289467981743307e-10,1.1121544782685833e-10,5.25607122989107e-11,2.6721783452135887e-11,1.3023552927982786e-11,6.290075894855665e-12,3.0206813165546685e-12,1.4436293262369745e-12,7.455261750025403e-13,4.1097655032993183e-13,2.137149015519101e-13,1.107099431661089e-13,7.618826475145604e-14
0.0,21,21.0,0.0,30.0,0.0,0.0,0.0,0.0,-13.0,0.0,2.0,0.0,0.0,0.0,4.5662735090096146e-11,3.5325563101463706e-11,2.608285057072734e-11,2.1080359454798884e-11,1.44814834858918e-11,1.0424108787887045e-11,7.147017976171801e-12,4.741301600890414e-12,3.2223770309698996e-12,2.161794423753368e-12,1.3997936599856914e-12,9.442298914417237e-13,6.325543705907843e-13,4.422650680734417e-13,2.7949891614108477e-13,1.8490838716263185e-13,1.1787789569580746e-13,7.395582669268292e-14,4.475147169027406e-14,3.002244074924294e-14,1.813070590307513e-14,1.0988981237843165e-14,6.9943364128081214e-15,4.112691003182168e-15,1.4542872245224815e-15,8.241216112783725e-16,6.618188465730305e-09,3.5681899504589056e-09,2.112128504398929e-09,1.236284558680175e-09,7.443893882900365e-10,3.881470533496452e-10,2.1003915451108615e-10,1.0594261623406305e-10,5.3145647856414526e-11,2.712482691594329e-11,1.2241370953962621e-11,6.028554275710023e-12,2.8841687326114485e-12,1.4112747423943136e-12,7.791646064660352e-13,4.04933859802276e-13,2.1881729354285767e-13,1.1975473645813767e-13,6.547507289296451e-14
0.0,22,22.0,0.0,30.0,0.0,0.0,0.0,0.0,-13.0,0.0,2.0,0.0,0.0,0.0,4.3551195911828376e-11,3.4531044475494375e-11,2.5914194671945567e-11,1.928322331520048e-11,1.4716263923945083e-11,1.0411451296637702e-11,7.050982199157627e-12,4.601457180629762e-12,3.0765688903841407e-12,2.0956920932343924e-12,1.3936935374039046e-12,8.946829123266696e-13,6.011845011991912e-13,3.928302677149868e-13,2.7271724850980833e-13,1.7411480343218042e-13,1.1213332618450859e-13,7.239998629735164e-14,4.692607275884017e-14,3.078190254784324e-14,1.7706088178486645e-14,1.0076305695584532e-14,7.12040756130748e-15,3.540440510873066e-15,2.6424104906597963e-15,1.7193485894016187e-15,6.124610751711172e-09,3.616478460392383e-09,2.15544241282704e-09,1.2951363524204144e-09,6.314367974079414e-10,3.736395439394164e-10,2.013964646374928e-10,1.0501906466227428e-10,5.482952492681094e-11,2.6296456196482924e-11,1.2555610331378309e-11,6.1244303547354884e-12,2.7257457981726625e-12,1.4135628122192718e-12,7.145285909550288e-13,3.70841455605963e-13,1.881153048144785e-13,9.584693850169933e-14,6.974014836849938e-14
0.0,23,23.0,0.0,30.0,0.0,0.0,0.0,0.0,-13.0,0.0,2.0,0.0,0.0,0.0,4.243020584554763e-11,3.201895553505995e-11,2.6365279832473344e-11,1.896312362406069e-11,1.3501371690381026e-11,9.670881508315274e-12,6.801024239551141e-12,4.329593157381195e-12,3.047973545223841e-12,1.927921358976291e-12,1.298976842188982e-12,8.140050231075128e-13,5.98478672006484e-13,3.8327444228390015e-13,2.687069946913719e-13,1.7007733654510295e-13,1.102272861863062e-13,7.066209903402926e-14,4.294473475379433e-14,2.8869648846593635e-14,1.7110727353671522e-14,1.1251855770513447e-14,6.285001428878311e-15,4.083784219207727e-15,2.5587324612128516e-15,1.1019797287926916e-15,6.565672343424857e-09,3.6854349725080325e-09,2.211507682115005e-09,1.2659184119882273e-09,7.195886473151052e-10,3.764332779934587e-10,2.0531818757412654e-10,1.0218351724050003e-10,5.3392469725403954e-11,2.4269364501331252e-11,1.12366536703892e-11,5.8068402910410456e-12,2.7982939722188234e-12,1.3633278170834116e-12,6.609814339065492e-13,3.642255760487109e-13,1.7898588777841166e-13,1.1088986520873303e-13,4.7416785062855073e-14
0.0,24,24.0,0.0,30.0,0.0,0.0,0.0,0.0,-13.0,0.0,2.0,0.0,0.0,0.0,4.208704625862635e-11,3.25632110346816e-11,2.559588534490107e-11,1.8043563780923233e-11,1.277491412493148e-11,9.748386497605667e-12,6.5966776645756486e-12,4.536061631467476e-12,2.988278182425283e-12,1.8704023411524813e-12,1.2548529310531027e-12,8.360385038685973e-13,5.340452815608773e-13,3.637925631170738e-13,2.4790092706410286e-13,1.6812035345899845e-13,1.0852532796373388e-13,6.894311808181889e-14,4.315719128222055e-14,2.711884143542544e-14,1.643632617082567e-14,1.0178331975150103e-14,6.01760718467531e-15,3.693540559264185e-15,9.951786769603653e-16,3.3039602749862317e-16,6.546525774022977e-09,3.7389567200379986e-09,2.1920336725758143e-09,1.2520129734134267e-09,6.953135096014131e-10,3.960561538461535e-10,1.9867749175968842e-10,1.04278180943695e-10,5.092283318230961e-11,2.3726461254445588e-11,1.1657437647376822e-11,5.578572915114033e-12,2.644644969275693e-12,1.324992375017339e-12,6.63763061194853e-13,3.3882270751368425e-13,1.7777619913518886e-13,1.0142564673370632e-13,4.913552515677832e-14
0.0,25,25.0,0.0,30.0,0.0,0.0,0.0,0.0,-13.0,0.0,2.0,0.0,0.0,0.0,4.157114608828523e-11,3.5318843544465025e-11,2.5469938697025016e-11,1.847936667613131e-11,1.3514258262796085e-11,9.223729153734392e-12,6.394450144286516e-12,3.9864041238770474e-12,2.9113349138330378e-12,1.8965795583610565e-12,1.191778125753002e-12,7.936928638854535e-13,5.415768649623605e-13,3.5688031117001734e-13,2.3212298920072765e-13,1.5018003053241755e-13,1.0224502790771213e-13,6.754381822753812e-14,4.32507308112078e-14,2.6188097244408425e-14,1.5064894599571857e-14,8.030232740058665e-15,5.425752095093813e-15,3.2695086928800404e-15,2.3265042149349334e-15,3.65470276411432e-15,6.391632378898695e-09,3.9010465020175345e-09,2.1654472116735535e-09,1.2895692765163547e-09,6.93178284501623e-10,3.6377562608981264e-10,2.1192692238722913e-10,9.421782519435136e-11,4.751216677767247e-11,2.505919317155036e-11,1.1426398553754941e-11,5.4768266113081425e-12,2.66782484443946e-12,1.2357305229225213e-12,6.12215532169378e-13,3.2264479339110763e-13,1.770917612141975e-13,8.811894345408683e-14,5.674582382734588e-14
0.0,26,26.0,0.0,30.0,0.0,0.0,0.0,0.0,-13.0,0.0,2.0,0.0,0.0,0.0,4.0309867968140314e-11,3.1522655318931924e-11,2.3309678841636828e-11,1.9041906275511898e-11,1.2209719256812345e-11,8.88651634831491e-12,6.210137521483717e-12,4.05610937939006e-12,2.8074783726296444e-12,1.862442050629126e-12,1.1541734477324963e-12,7.738078005294742e-13,5.12091013780824e-13,3.5912983964553795e-13,2.2210710049448042e-13,1.593038620600979e-13,9.738183747928767e-14,6.491607299282675e-14,3.931420823991378e-14,2.6941561282785515e-14,1.5106070875706283e-14,1.0611979733715516e-14,4.325874748668083e-15,4.96428277896952e-15,-1.3161881184298636e-15,4.2103439226915944e-16,6.738313134955234e-09,3.715020410912442e-09,2.1184285199445385e-09,1.2644409970106192e-09,6.627150189032531e-10,3.4824024732866437e-10,1.9017947195609198e-10,1.008134261015757e-10,4.908586582641722e-11,2.4135897614159397e-11,1.1218708816977196e-11,5.073715429026263e-12,2.5301459285483723e-12,1.1852549284354978e-12,6.14645077075389e-13,3.2333084378790206e-13,1.670204354049904e-13,9.038411122811033e-14,6.137483585166986e-14
0.0,27,27.0,0.0,30.0,0.0,0.0,0.0,0.0,-13.0,0.0,2.0,0.0,0.0,0.0,3.8319731031332163e-11,3.10675662645965e-11,2.3347746478153727e-11,1.7036386251163607e-11,1.2914455132724441e-11,8.829610601792051e-12,6.230618420953658e-12,4.013623448866898e-12,2.5827669324829224e-12,1.6685976448269017e-12,1.1844423864121704e-12,7.591940387067663e-13,4.956028327704192e-13,3.474603815501038e-13,2.1884919316647175e-13,1.496556776671618e-13,9.173788501084808e-14,6.315116012800448e-14,4.0009477900895516e-14,2.8411431832714355e-14,1.426353971116145e-14,9.803082629876463e-15,5.48122836300178e-15,3.777761472942999e-15,5.976204914583841e-16,1.6567308574216338e-15,6.584726051827012e-09,3.6193674743718044e-09,2.1729557712790027e-09,1.296001341959765e-09,6.620116044365938e-10,3.4565267567546903e-10,1.95706525387213e-10,9.734140113734879e-11,5.0522524681134095e-11,2.360630302352273e-11,1.111270959514274e-11,5.40982027066251e-12,2.4781514595335437e-12,1.1786471324404155e-12,5.912392771997245e-13,3.2895558251565244e-13,1.61216674195128e-13,8.889335865069076e-14,5.7859438866937e-14
0.0,28,28.0,0.0,30.0,0.0,0.0,0.0,0.0,-13.0,0.0,2.0,0.0,0.0,0.0,3.814256396698021e-11,3.2136717040005185e-11,2.326112617208556e-11,1.7221661920407162e-11,1.2584242644225942e-11,8.680264623745307e-12,5.4895411737375555e-12,3.972237929261101e-12,2.667880545101377e-12,1.6219159704917997e-12,1.0624915562992131e-12,7.015963739917271e-13,4.626573598686207e-13,3.144834109958594e-13,2.282380304321955e-13,1.4050425573441524e-13,9.3342859790791e-14,6.462609008560035e-14,3.903845737944472e-14,2.5564954083725397e-14,1.3437505991243765e-14,1.0690081701540342e-14,4.0226772851205646e-15,3.120213706117369e-15,8.344381104950522e-17,7.057359050490991e-16,6.353558206437226e-09,3.777557220342394e-09,2.2012426056936555e-09,1.273180144704639e-09,6.565247174538669e-10,3.775921591705823e-10,1.7973628467462575e-10,9.494816639524314e-11,4.748796914218448e-11,2.386353220548873e-11,1.1306388400794536e-11,5.083955937325085e-12,2.375443053495518e-12,1.13600780833067e-12,5.538430026271362e-13,3.04870354450446e-13,1.3325173390897352e-13,7.893081979137406e-14,4.38867280250476e-14
0.0,29,29.0,0.0,30.0,0.0,0.0,0.0,0.0,-13.0,0.0,2.0,0.0,0.0,0.0,3.7625503796294695e-11,3.026513848347812e-11,2.1996396144187e-11,1.6914317100723066e-11,1.2752124513032069e-11,8.384131666559377e-12,5.635090587070105e-12,3.875115293676184e-12,2.45415488745791e-12,1.5054037838467994e-12,1.0651142269107465e-12,6.757511254544556e-13,4.631808515327699e-13,3.048531196134148e-13,2.0355488772551743e-13,1.3056171148668732e-13,8.923707943549263e-14,6.036484488732691e-14,3.718736671568022e-14,2.4933754231428888e-14,1.2699200561716458e-14,8.792198536897273e-15,5.695310839512222e-15,2.0590833372233687e-15,-1.060012163443684e-16,5.66769172921692e-17,6.629611365602421e-09,3.8259757893310315e-09,2.195708003304942e-09,1.200929636126321e-09,6.693463719271335e-10,3.336129378368703e-10,1.8153241880594108e-10,9.325324737188435e-11,4.338376482953595e-11,2.2670107973313242e-11,1.0333309557446447e-11,4.753385014232106e-12,2.156414094724264e-12,1.132495204381261e-12,5.575450965901165e-13,2.790750530976614e-13,1.5442742464846804e-13,1.0439040465165545e-13,5.12526433242874e-14
0.0,30,30.0,0.0,30.0,0.0,0.0,0.0,0.0,-13.0,0.0,2.0,0.0,0.0,0.0,3.7189867802323593e-11,2.904748535447036e-11,2.2512999379616293e-11,1.6150769349409778e-11,1.1814538084648376e-11,8.330969670358801e-12,5.73513780481693e-12,3.662752460625565e-12,2.2315855617897847e-12,1.525883515020754e-12,9.863100137079467e-13,6.380291746235687e-13,4.448899603770761e-13,3.0284019005231133e-13,2.0250426028888572e-13,1.2896457742943146e-13,8.236137045861346e-14,5.992487898515257e-14,3.771422978410568e-14,2.4304389911365087e-14,1.3771955491617446e-14,9.897143032464685e-15,3.7865113867393135e-15,2.683282788836135e-15,2.0900659751404113e-15,5.364719444622899e-16,6.608513761410494e-09,3.6228988063720183e-09,2.1690804092455282e-09,1.2558243643250984e-09,6.452014159927167e-10,3.433667343499029e-10,1.746973939751055e-10,8.790030068461715e-11,4.5121816518995776e-11,2.239002974785747e-11,1.039845727030583e-11,4.922289091110539e-12,2.263390038441789e-12,1.0742228120765745e-12,5.090422503021776e-13,2.753076056840049e-13,1.499766641362693e-13,8.85158738417951e-14,4.500432212288424e-14
0.0,31,31.0,0.0,30.0,0.0,0.0,0.0,0.0,-13.0,0.0,2.0,0.0,0.0,0.0,3.667117337368123e-11,2.8174245870980985e-11,2.09393976651324e-11,1.675896026948705e-11,1.161509981619226e-11,7.55101232943788e-12,5.7399583164837616e-12,3.5243187641217617e-12,2.3718647643982792e-12,1.5186419553633296e-12,9.75387767446234e-13,6.424407170585046e-13,4.116141837406274e-13,2.933512753669726e-13,1.8024997309711268e-13,1.2478998857003921e-13,8.408174067790894e-14,5.719666231891222e-14,3.4143518068943027e-14,2.2047157909423182e-14,1.633383690265368e-14,8.122996052906696e-15,4.456620516584726e-15,1.8588741538596513e-15,4.90466943915448e-16,-1.4093446096899502e-16,6.643931010444457e-09,3.8741499880244665e-09,2.2325352621898054e-09,1.1589306005001844e-09,6.4634047387615e-10,3.259089414958237e-10,1.7045187966068952e-10,9.02774334422315e-11,4.501791688988455e-11,2.0132254494728176e-11,9.0986677833826e-12,4.291322101369708e-12,2.2207485520543113e-12,9.76628272618742e-13,5.096549321336576e-13,2.570170988701876e-13,1.4595896335333997e-13,6.60304672263947e-14,5.0427235501310375e-14
0.0,32,32.0,0.0,30.0,0.0,0.0,0.0,0.0,-13.0,0.0,2.0,0.0,0.0,0.0,3.5187260280744995e-11,2.951723080434059e-11,2.1933272955908493e-11,1.5653409028107325e-11,1.1048564676840434e-11,7.886519748817488e-12,5.1123734600214595e-12,3.4701966267852137e-12,2.198668331545959e-12,1.425129584472988e-12,9.500306455683628e-13,6.140116928192063e-13,4.069839327446358e-13,2.7234301132650496e-13,1.8520713494145157e-13,1.261766258739806e-13,8.032770648472983e-14,5.166906707673905e-14,3.534518548220998e-14,2.1178763736829495e-14,1.2114018953333247e-14,9.712018560945767e-15,5.018580026847911e-15,7.831286767665345e-16,2.91457790723661e-15,1.5569083611124741e-15,6.708065668561874e-09,3.7907019726651946e-09,2.1986902786089796e-09,1.1809429104587475e-09,6.127633415915958e-10,3.4404141296414274e-10,1.746980332706131e-10,9.258780333893257e-11,4.285109740753366e-11,1.9609006948063578e-11,9.690360533825132e-12,4.026179515037119e-12,2.0553533408143152e-12,9.98789484904632e-13,4.964142734687969e-13,2.4070541244230134e-13,1.3929395364244367e-13,8.003591181354018e-14,3.058982820015731e-14
0.0,33,33.0,0.0,30.0,0.0,0.0,0.0,0.0,-13.0,0.0,2.0,0.0,0.0,0.0,3.616926113214799e-11,2.8224665791647892e-11,1.984841718534736e-11,1.59474578785854e-11,1.0861722046045583e-11,7.499340951323957e-12,5.070544460449559e-12,3.3362010530777695e-12,2.1360786418588714e-12,1.2944190229534066e-12,9.022097448391677e-13,6.031238913204775e-13,3.737507007185967e-13,2.552682012499822e-13,1.7357190445605435e-13,1.1813131416951508e-13,7.951601455975497e-14,5.190405647684252e-14,3.468814558580323e-14,1.9973586758476868e-14,1.3519250124850142e-14,7.887381536732112e-15,2.5651148185646316e-15,3.2485196577983352e-15,-4.141340675985277e-16,2.8243104914301487e-15,6.57765936018431e-09,3.89520298321853e-09,2.1683451687995695e-09,1.2365422942391594e-09,6.549790039285899e-10,3.3294445812252035e-10,1.7772138122474556e-10,8.432157875111503e-11,4.278114998822187e-11,2.0091887748303063e-11,9.551922075842454e-12,4.474139664346008e-12,1.9955010279695557e-12,9.549416203627103e-13,4.696993216548972e-13,2.3242240464829385e-13,1.1520146005581848e-13,8.192759152448822e-14,2.0483380443756772e-14
0.0,34,34.0,0.0,30.0,0.0,0.0,0.0,0.0,-13.0,0.0,2.0,0.0,0.0,0.0,3.452160349590022e-11,2.699685050370269e-11,1.9896918641846814e-11,1.388864127530384e-11,1.1166835171080133e-11,7.189019097486583e-12,4.881885943960946e-12,3.3536636280539267e-12,2.210705924695682e-12,1.3406935174529707e-12,8.651838015045205e-13,5.447972581631122e-13,3.6120476740230447e-13,2.5206839020167036e-13,1.7263242796697862e-13,1.1734090593448994e-13,7.687062897060837e-14,4.9332958571108815e-14,2.993184594640753e-14,2.123013902674078e-14,1.397404911252711e-14,7.280449041090903e-15,7.31239451860248e-15,2.9265679380197924e-15,1.1917842928315764e-15,1.1775364232623379e-15,6.584887299456818e-09,3.750974368359026e-09,2.1182178756110585e-09,1.1780947099368244e-09,6.123851554066803e-10,3.2031376285119743e-10,1.6593591577687937e-10,8.308792319450107e-11,4.122876105529168e-11,2.0545171458851122e-11,9.388399675380316e-12,4.00708659293987e-12,1.918693126746145e-12,9.129662313655857e-13,4.552630037537711e-13,2.2648886439563152e-13,1.3184141433121637e-13,6.987992723272299e-14,3.7433763263400734e-14
0.0,35,35.0,0.0,30.0,0.0,0.0,0.0,0.0,-13.0,0.0,2.0,0.0,0.0,0.0,3.319757953252174e-11,2.5867245772690264e-11,1.9310703243217577e-11,1.4766958861758406e-11,9.940502429187129e-12,6.686363217696394e-12,4.786626293590319e-12,3.1425019347009104e-12,1.9219764482782993e-12,1.2386462180827078e-12,8.344668866060643e-13,5.728866754600065e-13,3.846268995034081e-13,2.541757725327201e-13,1.566655849569357e-13,1.1144831812453166e-13,7.334545622983549e-14,4.970044835785536e-14,3.243889900443429e-14,1.7916554536039404e-14,1.2765565735852515e-14,7.362049386987122e-15,3.4934729738698303e-15,2.432507183026895e-15,-3.737897579249747e-16,3.536719884967597e-16,6.8783238571833716e-09,3.5674564757456062e-09,2.163334087494736e-09,1.1375361667079683e-09,6.258453360184562e-10,3.0967702473528405e-10,1.571421079370724e-10,7.898657750764601e-11,4.039600121532337e-11,1.9457982247744476e-11,9.200211835652175e-12,4.336249622175867e-12,1.9761397759736634e-12,8.466728942153528e-13,3.913667386110523e-13,2.3039812219368055e-13,1.3721957328588856e-13,7.54942428256168e-14,1.4538674698155052e-14
0.0,36,36.0,0.0,30.0,0.0,0.0,0.0,0.0,-13.0,0.0,2.0,0.0,0.0,0.0,3.3016562891566243e-11,2.5702026293273008e-11,1.9567931450712535e-11,1.3909502519831142e-11,9.904080238508178e-12,7.031092391134067e-12,4.606282841603151e-12,2.940526886471047e-12,2.0349892727921964e-12,1.2233007433792669e-12,8.107568467932123e-13,5.163314043446702e-13,3.4193358657961525e-13,2.2603049685854353e-13,1.5290341482836273e-13,1.1041966105552247e-13,7.162492548041411e-14,4.6043607560588224e-14,3.156242592971054e-14,2.075120116798827e-14,1.1253916020723606e-14,7.276980639338094e-15,2.6743094047041692e-15,2.4476930854952275e-15,8.268137720298121e-16,1.9935631537320874e-16,6.986398294091522e-09,3.8062139934951764e-09,2.2182451376558067e-09,1.1477241114728254e-09,6.265322788420458e-10,3.1901916806101045e-10,1.5601024611411635e-10,7.493786643257802e-11,3.7651049648171896e-11,1.8658092561197608e-11,8.577030128515228e-12,3.971078068946358e-12,1.7968956201613909e-12,8.519113862574203e-13,4.118420003923019e-13,2.230184051030368e-13,1.1168953597186056e-13,4.527152721502078e-14,2.7919674649319544e-14
0.0,37,37.0,0.0,30.0,0.0,0.0,0.0,0.0,-13.0,0.0,2.0,0.0,0.0,0.0,3.265886287926497e-11,2.5329528454856997e-11,1.8738708872978083e-11,1.3378921413286412e-11,9.631979734045532e-12,6.549059012937292e-12,4.260996665716692e-12,2.8730835826446127e-12,1.9017237351482704e-12,1.171257755041819e-12,7.567152013898815e-13,5.077881876792901e-13,3.229114920038989e-13,2.2186616754136483e-13,1.412019427411597e-13,1.0658911528832214e-13,7.127262675191086e-14,4.79896872144535e-14,3.007648043453176e-14,1.9103418157584993e-14,1.0515458369006088e-14,6.568101190940179e-15,4.4537331269055015e-15,3.69720392057402e-15,2.370540671265156e-15,2.7757039463402626e-15,7.2329020344087245e-09,4.1201345098084774e-09,2.1216907365217857e-09,1.187024494949838e-09,6.156625280956126e-10,3.1230797704690605e-10,1.5420239778326074e-10,7.84331602319455e-11,3.88760923622199e-11,1.7327206752480874e-11,7.645752968352898e-12,3.800136078260442e-12,1.7573672246803963e-12,8.462977104458461e-13,4.0355022174646783e-13,2.1693282831426288e-13,1.0514245640645023e-13,6.613777222380515e-14,1.742149945715915e-14
0.0,38,38.0,0.0,30.0,0.0,0.0,0.0,0.0,-13.0,0.0,2.0,0.0,0.0,0.0,3.0769601854970304e-11,2.4843926481477394e-11,1.843286799938631e-11,1.3154766851107249e-11,9.531684620979683e-12,6.2792770607904445e-12,4.309090408379174e-12,2.8808113152282986e-12,1.7553760321334308e-12,1.2021540242855013e-12,7.758263090384997e-13,4.625599397271323e-13,3.174453626438243e-13,2.285595687108704e-13,1.5280779569150518e-13,1.0000188401725001e-13,6.377998080933106e-14,4.638884894857912e-14,2.8029420322084784e-14,1.8450397827975413e-14,1.120546625391841e-14,7.154415899647755e-15,4.145098907155506e-15,2.5998642353608286e-15,1.8725236618947733e-15,-2.833659707309132e-16,6.602903500283663e-09,3.636936609925424e-09,2.1399406974327608e-09,1.0559335696295505e-09,5.882161125470924e-10,3.069415403555344e-10,1.4890410281731305e-10,7.282417747126781e-11,3.511517911500913e-11,1.7439929478404623e-11,8.259062906100826e-12,3.819746349599205e-12,1.7383246493605075e-12,8.086580050705765e-13,3.8006817770851327e-13,1.8993628823183333e-13,1.0059898066101022e-13,6.872779685435596e-14,3.558281936963351e-14
0.0,39,39.0,0.0,30.0,0.0,0.0,0.0,0.0,-13.0,0.0,2.0,0.0,0.0,0.0,3.060186907880675e-11,2.312580435988097e-11,1.883680115284804e-11,1.2787913455187798e-11,9.336741327100729e-12,6.458885918106867e-12,4.063450861814479e-12,2.5877036341585765e-12,1.8140944698641264e-12,1.1203011186060684e-12,7.134221076796225e-13,4.431850147013682e-13,2.8796085290413384e-13,2.1246144841629813e-13,1.3988470712027892e-13,9.682813646415155e-14,6.393840430675706e-14,4.129142486004348e-14,2.8404030078742437e-14,1.65741808172883e-14,1.0806715663598312e-14,8.31669289514343e-15,2.6019394540089437e-15,3.609986607205483e-15,1.7688262803859694e-15,3.0724246095245917e-15,6.800066546570317e-09,3.8043157157327075e-09,1.924376611783979e-09,1.1127269948175652e-09,5.82454161618023e-10,2.8593886770881313e-10,1.4167202420442003e-10,7.499103050415176e-11,3.467208274650219e-11,1.7228294586795347e-11,7.99042875509276e-12,3.70124445819882e-12,1.6757326716534321e-12,7.545460555353435e-13,3.822099353753126e-13,1.8949074054462745e-13,1.1172988222156725e-13,5.874944113190256e-14,3.914787214174631e-14
0.0,40,40.0,0.0,30.0,0.0,0.0,0.0,0.0,-13.0,0.0,2.0,0.0,0.0,0.0,2.7980353842808307e-11,2.2514383043616017e-11,1.7364170866374907e-11,1.2091880597176235e-11,8.538316603100098e-12,6.025704113601532e-12,4.118065823860137e-12,2.6476727558963192e-12,1.7069227590515185e-12,1.077638386561456e-12,7.179379755614901e-13,4.5269601387082543e-13,3.022856979035081e-13,2.0720813320206273e-13,1.3456089541966048e-13,9.59911760147469e-14,6.500496341193131e-14,4.031032055987037e-14,2.6796465661235885e-14,1.838250054338693e-14,1.0487395194956205e-14,6.939799813959992e-15,3.969238298003807e-15,2.2941058901087686e-15,-3.122998505491945e-16,-6.724617959808225e-16,6.5072717938678386e-09,3.7689145406819235e-09,1.963459537163041e-09,1.0923457997549578e-09,5.350192828847782e-10,2.9031079936358497e-10,1.3476686685104943e-10,7.240888479080996e-11,3.299651536256187e-11,1.618106342888664e-11,8.072962780188039e-12,3.301081736606808e-12,1.5374423767771288e-12,7.603655695623987e-13,3.5104796108320964e-13,1.9197849663696774e-13,9.932994134735378e-14,4.494989848946875e-14,2.8313436592113604e-14
0.0,41,41.0,0.0,30.0,0.0,0.0,0.0,0.0,-13.0,0.0,2.0,0.0,0.0,0.0,2.909966614919206e-11,2.1980926934181827e-11,1.6192702032523643e-11,1.1923020189971645e-11,8.32204474602833e-12,5.759901832789577e-12,3.821585997448185e-12,2.6212353118774848e-12,1.6892483544645934e-12,1.065193778765662e-12,6.599436994079851e-13,4.3624955948245657e-13,2.8723266333463246e-13,1.9528490609717195e-13,1.357862229975922e-13,9.002242636435525e-14,5.919513345613517e-14,4.0723123637129135e-14,2.4572450788999698e-14,1.4972726469656455e-14,9.71759945037053e-15,5.351849652632899e-15,2.959570847377152e-15,2.4202907570575358e-15,3.112496341715142e-15,7.597576133179653e-16,6.817419748899736e-09,3.7038358531837646e-09,2.0179505395763644e-09,1.076903173753974e-09,5.347821211001092e-10,2.883211381042986e-10,1.3931657868040873e-10,6.711119168315183e-11,3.322717536782066e-11,1.5583366169144455e-11,7.582114135242819e-12,3.572999194075804e-12,1.5774163860457354e-12,6.995828502586021e-13,3.627404936255224e-13,1.7789316028913168e-13,8.38732248458026e-14,5.458320259901955e-14,3.093184280068844e-14
0.0,42,42.0,0.0,30.0,0.0,0.0,0.0,0.0,-13.0,0.0,2.0,0.0,0.0,0.0,2.8638749688029623e-11,2.0928801718055112e-11,1.6457641114699878e-11,1.1933785925383031e-11,8.250156695083223e-12,5.684248955792132e-12,3.708647849912911e-12,2.6101285667773795e-12,1.6040005465809662e-12,1.0245187111985771e-12,6.383448200243333e-13,4.284416935221493e-13,2.723198390302701e-13,1.9551848905374265e-13,1.347140914980125e-13,9.157200697301853e-14,5.747200253188747e-14,3.594997089747301e-14,2.6429880748388065e-14,1.7345273478886424e-14,1.0860709588027749e-14,6.921410916170806e-15,4.695804386378659e-15,2.5932182975550237e-15,3.408597295540185e-15,1.6387665072245722e-15,6.882121773645221e-09,3.616438537781013e-09,2.1057432264067985e-09,1.088589512080546e-09,5.599492998263768e-10,2.75592714804978e-10,1.353667328519111e-10,6.392951370816536e-11,3.339607970899723e-11,1.5285034535135478e-11,7.104749672437117e-12,3.3547375785254782e-12,1.5159036799597793e-12,6.775769689136935e-13,3.361341811380293e-13,1.7741365392702182e-13,8.780462835293314e-14,3.9769868198395383e-14,3.429599310110312e-14
0.0,43,43.0,0.0,30.0,0.0,0.0,0.0,0.0,-13.0,0.0,2.0,0.0,0.0,0.0,2.6013332870509865e-11,2.1461898048902097e-11,1.539219872483538e-11,1.132026557124772e-11,8.053556813613632e-12,5.70575064284185e-12,3.46686429400565e-12,2.5758472657789223e-12,1.5733377122086399e-12,9.149769966658626e-13,5.94522022955074e-13,4.021036998943115e-13,2.657238687141589e-13,1.8734882529061705e-13,1.2168966657242939e-13,8.03743596659075e-14,5.873654816355694e-14,3.9731665446185706e-14,2.31954818093168e-14,1.6644930207093022e-14,1.0020501985445807e-14,6.147198392246796e-15,3.713803217251801e-15,1.4686697798962765e-15,-5.03924619536011e-16,1.6876937673295655e-15,6.701029271136736e-09,3.609869735806109e-09,1.867805325727413e-09,9.828325554570263e-10,5.475927527807375e-10,2.6616712292713903e-10,1.248839464606796e-10,6.457323296386393e-11,3.0584574777969586e-11,1.4581671598461562e-11,6.68054499823132e-12,3.2170410241051913e-12,1.426179835084437e-12,6.60575630686103e-13,3.1661199628606436e-13,1.6454536580376854e-13,9.718165451840184e-14,6.000553848581024e-14,3.333569908612904e-14
0.0,44,44.0,0.0,30.0,0.0,0.0,0.0,0.0,-13.0,0.0,2.0,0.0,0.0,0.0,2.4991584086087752e-11,1.968641256986764e-11,1.5313118957971736e-11,1.0962701031487021e-11,8.011362466311875e-12,5.519133868226842e-12,3.5337920855359586e-12,2.317085735312377e-12,1.4542688124220628e-12,9.3997010119172e-13,5.837443933496232e-13,3.857805253413163e-13,2.6564803403695925e-13,1.7459091630796113e-13,1.1904214818360732e-13,8.579014353070846e-14,5.5699062866265916e-14,3.9356943067215635e-14,2.331209749302379e-14,1.634757359532144e-14,8.72937988458432e-15,6.224798318111301e-15,3.7400550072353024e-15,1.0887803513769108e-15,2.5704170439049705e-15,5.601483674280942e-16,7.047388248452201e-09,3.6378761527477665e-09,2.0611205912902743e-09,9.617382994417649e-10,5.291127393982569e-10,2.4990657143380276e-10,1.26646787075936e-10,6.136356111039872e-11,3.020800957357393e-11,1.3780494320488504e-11,6.209502026668189e-12,3.187072271830182e-12,1.4488995921888832e-12,6.570724790720829e-13,3.1450398156525527e-13,1.5359270864271906e-13,7.15586599056624e-14,5.206467250174191e-14,3.4785978856333946e-14
0.0,45,45.0,0.0,30.0,0.0,0.0,0.0,0.0,-13.0,0.0,2.0,0.0,0.0,0.0,2.430276623157472e-11,1.9157968596832133e-11,1.4374865207220287e-11,9.948319600652504e-12,7.352052383666928e-12,5.040317139103058e-12,3.3913643117374488e-12,2.4295278309555142e-12,1.3779407986579053e-12,9.265480898159072e-13,5.445998064963135e-13,3.863078785150323e-13,2.478529303551287e-13,1.7716656265316274e-13,1.1513404059483542e-13,8.031832520658766e-14,5.250401277404859e-14,3.834476238879161e-14,2.154648464502501e-14,1.528002886102752e-14,1.0726427686387348e-14,4.767933822815928e-15,3.1946927003671577e-15,2.3979585637084023e-15,2.443422644952089e-15,1.0971858427908668e-15,6.8337855139621086e-09,3.775005647204785e-09,1.908777600256011e-09,1.0013751610907936e-09,4.944144385143842e-10,2.510756470429568e-10,1.1845103247705402e-10,5.868135545957869e-11,2.875670112736997e-11,1.407071840731599e-11,7.0073056464947776e-12,2.836890405192114e-12,1.3658497621055366e-12,6.320802563169119e-13,2.841067742376529e-13,1.5980753649965732e-13,8.400690507445309e-14,4.499912653968893e-14,5.51246815411513e-15
0.0,46,46.0,0.0,30.0,0.0,0.0,0.0,0.0,-13.0,0.0,2.0,0.0,0.0,0.0,2.4228871600431844e-11,1.8035219958416913e-11,1.4052946518907283e-11,1.044448373478405e-11,7.444419383449072e-12,4.887606271803915e-12,3.166570391720779e-12,2.0703928151757985e-12,1.4378448342979514e-12,8.222766483595585e-13,5.428612053990939e-13,3.764940174974635e-13,2.4042653842678306e-13,1.6617004784633876e-13,1.060758534593275e-13,7.75945402434543e-14,5.322501253795556e-14,3.401704044421721e-14,2.5172566322703553e-14,1.4687937376143777e-14,9.15746706892743e-15,5.391828956604144e-15,3.873014720716805e-15,3.3605878640458203e-15,7.662023531867927e-16,-8.197418280603869e-16,6.809867133925222e-09,3.677419040463633e-09,1.8180348532802216e-09,9.540267934794377e-10,4.79414423825333e-10,2.395931449982578e-10,1.2332868612567904e-10,5.753419120284575e-11,2.775899469853477e-11,1.2902232467611375e-11,6.207904655128325e-12,2.845997815399411e-12,1.323640966838337e-12,5.302995017292249e-13,2.7958253705259945e-13,1.632946224883153e-13,7.456346141895618e-14,4.472338673803492e-14,2.6614983188474577e-14
0.0,47,47.0,0.0,30.0,0.0,0.0,0.0,0.0,-13.0,0.0,2.0,0.0,0.0,0.0,2.2693427466454003e-11,1.8656691740010784e-11,1.3303746173413103e-11,9.931988949152298e-12,6.914749811964915e-12,4.617645843329519e-12,3.0596676400848415e-12,2.0796660303675454e-12,1.3091113773894809e-12,8.265223104713456e-13,5.289062924889033e-13,3.4557226050860524e-13,2.3979555199272263e-13,1.5570079228015156e-13,1.0236785322570574e-13,7.539429395970154e-14,5.084719892655298e-14,3.3328912701986117e-14,2.0336346943160072e-14,1.4621426699410687e-14,9.67155991971078e-15,5.861828091323988e-15,4.025955550659642e-15,3.5266704999279455e-17,1.3330145238840256e-16,1.202444916226463e-15,6.877067979877625e-09,3.4883889572456748e-09,1.8966866015731252e-09,9.255555341034991e-10,4.757226231922421e-10,2.3604121909622913e-10,1.1288881492817612e-10,5.666006699989959e-11,2.7673373901398432e-11,1.2966356365244863e-11,5.9994642213812266e-12,2.75689477532438e-12,1.2655950395858189e-12,5.925383053955836e-13,2.6968869154804434e-13,1.422261076378748e-13,6.591702961144583e-14,4.3071247028085016e-14,1.512782339885636e-14
0.0,48,48.0,0.0,30.0,0.0,0.0,0.0,0.0,-13.0,0.0,2.0,0.0,0.0,0.0,2.2832101587553354e-11,1.6954578064162193e-11,1.2895787523746808e-11,9.431227622553683e-12,6.663446905531563e-12,4.595372067764277e-12,3.116024172321453e-12,1.9689498954411014e-12,1.2624091833777345e-12,7.746937366336602e-13,5.122976698535682e-13,3.435821157319178e-13,2.2894629464179656e-13,1.576497573967161e-13,1.0034481567669069e-13,7.361290479231803e-14,4.7086928636723143e-14,3.27438734315502e-14,2.2153058473428073e-14,1.646438439216836e-14,8.938098647420681e-15,7.278122893589737e-15,3.3636202098409136e-15,1.96013810564956e-15,2.025376669431602e-15,1.184818357305691e-15,6.7239175518527205e-09,3.647520041571747e-09,1.8417645049391914e-09,9.23999707619119e-10,4.577234921707853e-10,2.2820383996652593e-10,1.0897624517207455e-10,5.5149327219508206e-11,2.5185440992448268e-11,1.2220218648645913e-11,5.747200561708488e-12,2.5465379417737795e-12,1.2270797886054166e-12,5.474941216173855e-13,2.658490572259108e-13,1.340977899656157e-13,6.879333613225139e-14,4.414858308526471e-14,2.3133045535368808e-14
0.0,49,49.0,0.0,30.0,0.0,0.0,0.0,0.0,-13.0,0.0,2.0,0.0,0.0,0.0,2.1552509412273002e-11,1.653486044145395e-11,1.2408206246546381e-11,9.207364687521417e-12,6.761183116274922e-12,4.238934720862085e-12,2.8970847584420195e-12,1.8523596266998693e-12,1.1897590220919329e-12,7.966866128294341e-13,5.008524772373689e-13,3.219460289086582e-13,2.0630864890021633e-13,1.4536724182993408e-13,9.527183046292752e-14,6.831792419646087e-14,4.4592570993711176e-14,3.193822354942324e-14,2.1107509910032024e-14,1.1859637909919192e-14,7.763840562394107e-15,6.1486136979607374e-15,1.102564989652806e-15,2.8522848659655486e-16,-2.25842997482294e-17,4.36123822493052e-16,6.922047863600439e-09,3.314637727925154e-09,1.7986304347689168e-09,8.998452051794612e-10,4.23457682850213e-10,2.1719700448501543e-10,1.08105658371769e-10,5.415633780401796e-11,2.566530756716224e-11,1.1989726192585535e-11,5.667167352474606e-12,2.4941641495827358e-12,1.1419149390252857e-12,5.322045722065777e-13,2.6847752517794806e-13,1.354022228756102e-13,7.709182314451107e-14,2.307238454742905e-14,2.585751670948458e-14
0.0,50,50.0,0.0,30.0,0.0,0.0,0.0,0.0,-13.0,0.0,2.0,0.0,0.0,0.0,2.0074731192212055e-11,1.557804011484809e-11,1.1948870684618794e-11,8.629281275579042e-12,6.59967832944093e-12,4.330110684947027e-12,2.863867629495945e-12,1.853026693819948e-12,1.221523268275454e-12,7.622537052737923e-13,5.140397431274267e-13,3.095286171858715e-13,2.1928108895902874e-13,1.480975181105541e-13,9.584896010396561e-14,6.367046682286831e-14,4.848316999672339e-14,3.347069547539619e-14,2.0920536452409014e-14,1.1648754540768196e-14,6.740682968659603e-15,5.166421477915281e-15,4.389680964936688e-15,2.623720132233056e-15,1.259473521466102e-15,1.157856617881298e-15,6.793597744170685e-09,3.574388262404976e-09,1.726059120856693e-09,8.365588491406566e-10,4.553601217286507e-10,2.080153131288077e-10,9.762902065177597e-11,5.0591203390199086e-11,2.3292482454292096e-11,1.1636766187918674e-11,5.2758151739267296e-12,2.2481597065780506e-12,1.1388392971448912e-12,5.393700226370255e-13,2.3692132688963945e-13,1.1998861700742382e-13,7.263375070254987e-14,4.421739001515537e-14,3.180694128736305e-14
0.0,51,51.0,0.0,30.0,0.0,0.0,0.0,0.0,-13.0,0.0,2.0,0.0,0.0,0.0,2.000584731286077e-11,1.5235330055953924e-11,1.1462954503940518e-11,8.478947195161501e-12,5.832676187468002e-12,4.202022597909525e-12,2.6737749870814174e-12,1.854292982480935e-12,1.1544541210360006e-12,7.245873593283385e-13,4.630490260542679e-13,3.0291963777718066e-13,2.0901227217145896e-13,1.426756898280013e-13,8.708039172907491e-14,6.548358824576742e-14,4.050416949029193e-14,2.978257962909225e-14,1.861759358727357e-14,1.1161692512630027e-14,6.857284553874326e-15,5.666065038226396e-15,5.07081703050768e-15,1.284405328279705e-15,1.589653261800238e-15,2.087457605441985e-15,6.792183009975112e-09,3.605910371059282e-09,1.6773769139997187e-09,8.200552205689229e-10,4.003572069240775e-10,2.031227043725203e-10,9.767441818739715e-11,4.817798594541027e-11,2.265204858312084e-11,1.0550738656528738e-11,5.0462305865245145e-12,2.4022605090768538e-12,1.0845336779656034e-12,4.880025328980568e-13,2.5360814311678027e-13,1.1686127397224227e-13,6.992251024098899e-14,2.6971764395926564e-14,2.8503548163747995e-14
0.0,52,52.0,0.0,30.0,0.0,0.0,0.0,0.0,-13.0,0.0,2.0,0.0,0.0,0.0,1.9256777703625918e-11,1.537643062694976e-11,1.0852113776045855e-11,8.140484683194119e-12,5.770894904614947e-12,4.014454698574587e-12,2.6664781378501465e-12,1.6356674723497915e-12,1.0905695213788967e-12,7.20351213021022e-13,4.661779714755384e-13,2.88592282975575e-13,2.0100156776538676e-13,1.353844273256085e-13,9.441786581312015e-14,5.978939920261496e-14,4.310636571468678e-14,2.7351394403656446e-14,1.841423277992834e-14,1.1214434322653195e-14,8.653676137271141e-15,3.6956249010330305e-15,3.9448718840466665e-15,2.321960729588203e-15,1.210756741985258e-15,-4.847823257720688e-19,6.5152670767334276e-09,3.2643794416903997e-09,1.6714601615510392e-09,8.662287042716645e-10,3.8528720587936276e-10,1.9451316137902578e-10,9.697027215543383e-11,4.6892300876064966e-11,2.117695495876166e-11,1.0150114868868911e-11,5.089649331873087e-12,2.318524363020095e-12,1.0684537335769573e-12,4.982936302996104e-13,2.1146999524646008e-13,1.1060329239870459e-13,5.985339373255451e-14,1.311955776583179e-14,1.4635192687795614e-14
0.0,53,53.0,0.0,30.0,0.0,0.0,0.0,0.0,-13.0,0.0,2.0,0.0,0.0,0.0,1.7426229369374332e-11,1.3938659652327059e-11,1.0541728806040901e-11,7.523205817685972e-12,5.610939032568952e-12,3.7358773281317645e-12,2.496201811085062e-12,1.5817494807391593e-12,1.0926196414184639e-12,7.143980138577863e-13,4.498592923180371e-13,2.883205825050544e-13,1.849269967491288e-13,1.28911460646722e-13,8.682955056009311e-14,5.71304215966155e-14,3.962604423096056e-14,2.762315831834318e-14,1.950234231751198e-14,1.1462734586530475e-14,8.010291512766783e-15,3.3348285628390434e-15,2.2026884641704763e-15,1.0123077927448432e-15,1.023732378338753e-15,1.417150369423504e-15,6.35369885941851e-09,3.3625698654422844e-09,1.568074811860092e-09,7.822646772796813e-10,3.8967973005576415e-10,1.830751109327898e-10,9.278342799958149e-11,4.5662219722202354e-11,2.11272950863141e-11,1.0378183736946776e-11,4.726648247963475e-12,2.1815402341981706e-12,9.740133626770127e-13,4.630990108725151e-13,2.1671807001156886e-13,1.0746129488152877e-13,7.745564472284469e-14,4.2834516911072953e-14,5.365189854255471e-15
0.0,54,54.0,0.0,30.0,0.0,0.0,0.0,0.0,-13.0,0.0,2.0,0.0,0.0,0.0,1.7426347657959505e-11,1.4008502757976606e-11,1.0187686022770047e-11,7.27440760396174e-12,5.264005663945925e-12,3.5819392246167706e-12,2.4656700505079684e-12,1.6725491983034194e-12,1.0615456873048974e-12,6.771879369519836e-13,4.370096177903728e-13,2.6144681379168265e-13,1.8601219007898285e-13,1.2906424448416077e-13,8.272157926765254e-14,5.616232351619258e-14,3.8440857952871356e-14,2.896079401328808e-14,1.4780053843666437e-14,1.1878250618069353e-14,5.975775845077583e-15,6.001350846185219e-15,4.399949706467875e-15,1.7580408430167565e-15,1.1160976417644382e-15,1.9015435851270023e-16,6.787544393825441e-09,3.2302058099265777e-09,1.5624269763668413e-09,7.562689047863714e-10,3.6048215970686946e-10,1.8335933286227856e-10,8.62149197726425e-11,3.877111258783567e-11,2.040990852888577e-11,9.453282711729142e-12,4.668897427959597e-12,2.207059042618896e-12,9.835247330320796e-13,4.520837137323964e-13,2.2615151981095162e-13,1.2163804261842937e-13,5.306922219865558e-14,3.538212502569851e-14,2.1436588091100734e-14
