Line_number,Fiducial,Easting,Northing,Height,Elevation,tx_pitch,tx_roll,tx_yaw,txrx_dx,txrx_dy,txrx_dz,rx_pitch,rx_roll,rx_yaw,S0Z_time_3.834e-04,S0Z_time_3.924e-04,S0Z_time_4.039e-04,S0Z_time_4.184e-04,S0Z_time_4.364e-04,S0Z_time_4.589e-04,S0Z_time_4.869e-04,S0Z_time_5.224e-04,S0Z_time_5.679e-04,S0Z_time_6.249e-04,S0Z_time_6.969e-04,S0Z_time_7.879e-04,S0Z_time_9.019e-04,S0Z_time_1.046e-03,S0Z_time_1.227e-03,S0Z_time_1.456e-03,S0Z_time_1.744e-03,S0Z_time_2.109e-03,S0Z_time_2.567e-03,S0Z_time_3.145e-03,S0Z_time_3.864e-03,S0Z_time_4.745e-03,S0Z_time_5.821e-03,S0Z_time_7.140e-03,S0Z_time_8.754e-03,S0Z_time_1.073e-02,S1Z_time_2.057e-05,S1Z_time_2.607e-05,S1Z_time_3.307e-05,S1Z_time_4.206e-05,S1Z_time_5.356e-05,S1Z_time_6.807e-05,S1Z_time_8.607e-05,S1Z_time_1.086e-04,S1Z_time_1.366e-04,S1Z_time_1.721e-04,S1Z_time_2.176e-04,S1Z_time_2.746e-04,S1Z_time_3.466e-04,S1Z_time_4.376e-04,S1Z_time_5.516e-04,S1Z_time_6.956e-04,S1Z_time_8.771e-04,S1Z_time_1.106e-03,S1Z_time_1.394e-03
0.0,0,0.0,0.0,30.0,0.0,0.0,0.0,0.0,-13.0,0.0,2.0,0.0,0.0,0.0,6.950180214206653e-10,6.24516204833454e-10,5.871428954385073e-10,5.552506306166288e-10,4.936978894752839e-10,4.022576753857402e-10,3.7228110342239e-10,3.082280144469423e-10,2.581124328519568e-10,2.150116623037464e-10,1.7128144519178653e-10,1.3985546487481408e-10,1.0587192610732805e-10,7.876684722801652e-11,5.911171274549835e-11,4.280735159095402e-11,3.132976123930652e-11,2.0370870860871228e-11,1.3580503961439116e-11,8.234827084945112e-12,4.7047197862612155e-12,3.0277646020656782e-12,1.717520240630344e-12,8.897715486859654e-13,5.15154923254028e-13,2.3510148758910753e-13,5.452688747419151e-09,4.222718951620451e-09,3.4721818753759206e-09,2.713737436099039e-09,2.033080635905878e-09,1.5854689260343335e-09,1.1770619934148946e-09,8.68993506456898e-10,6.90044568131354e-10,5.192774141965921e-10,3.873130974381525e-10,2.7428270092882957e-10,1.8079957135578036e-10,1.2178942269437626e-10,7.813774578426847e-11,4.951957077323333e-11,3.09541589067468e-11,2.155661753039914e-11,1.2327027020711698e-11
0.0,1,1.0,0.0,30.0,0.0,0.0,0.0,0.0,-13.0,0.0,2.0,0.0,0.0,0.0,6.514473397770613e-10,5.939516958339692e-10,5.837398556872532e-10,4.951239096893754e-10,4.6456598296001543e-10,4.033231029925537e-10,3.662231832080365e-10,3.0495693520002235e-10,2.4982888250262515e-10,2.1233395294248503e-10,1.7289850124356793e-10,1.3448660415482138e-10,1.0470163794527321e-10,7.724870163027621e-11,5.794209039874964e-11,4.1713066315423597e-11,2.977946192545314e-11,2.005012354352321e-11,1.2766775761818957e-11,8.482781831660552e-12,5.012803405336924e-12,2.8053698416191007e-12,1.6813247173978475e-12,8.745098559267163e-13,4.758279606212317e-13,2.472868015946846e-13,5.4661701691775915e-09,4.391603008424953e-09,3.196454328751876e-09,2.6304161880850693e-09,1.981978902670477e-09,1.526606875592854e-09,1.1881409005497677e-09,9.151235170704872e-10,6.983527080422428e-10,4.98639272193449e-10,3.8345252767674176e-10,2.6825171007537083e-10,1.7432468318579657e-10,1.2824113520896627e-10,8.519004504896149e-11,5.357092859029126e-11,3.252924927940967e-11,1.9806506980738945e-11,1.2997868509711e-11
0.0,2,2.0,0.0,30.0,0.0,0.0,0.0,0.0,-13.0,0.0,2.0,0.0,0.0,0.0,6.521772662699834e-10,6.398211370152201e-10,5.740410695564318e-10,5.356064828320992e-10,4.725970707918647e-10,4.2329706970168703e-10,3.6219715331370505e-10,3.2637491352663536e-10,2.6008588789184793e-10,2.152075955139317e-10,1.8053310089223067e-10,1.2900781767296465e-10,1.0006020932908042e-10,8.132141534859573e-11,5.675717355811109e-11,4.525221953529758e-11,2.984325680142573e-11,2.0139198652732545e-11,1.4247359726661274e-11,8.796096539535894e-12,5.334751227332582e-12,3.0087566479222773e-12,1.5998114479559455e-12,9.38807364887972e-13,4.641559877465039e-13,2.4377091319930987e-13,5.599712923123935e-09,4.226581941925492e-09,3.3804468699100492e-09,2.670820625257879e-09,2.046271467884126e-09,1.5157270260966837e-09,1.2198164247702923e-09,9.603639155172924e-10,6.825011054500266e-10,5.142203471206189e-10,3.6831769336797384e-10,2.7903690752666404e-10,1.8624646299425405e-10,1.2411768972731288e-10,7.868456764902199e-11,5.260944759839999e-11,3.213423018009634e-11,2.0588428961701636e-11,1.2439534273837496e-11
0.0,3,3.0,0.0,30.0,0.0,0.0,0.0,0.0,-13.0,0.0,2.0,0.0,0.0,0.0,6.73601091477937e-10,6.279062481875462e-10,5.669560585302023e-10,5.265903614249395e-10,4.5231462564316507e-10,3.960218712918686e-10,3.669245855526189e-10,3.1141041454276863e-10,2.6414439157963253e-10,2.2799861791773035e-10,1.7591655321982647e-10,1.3099717961578982e-10,1.0780027420596908e-10,7.617842925219399e-11,5.826115513655439e-11,4.2856582505536174e-11,3.1886664704325046e-11,2.0184685946265623e-11,1.313862004631981e-11,8.37887822697626e-12,4.927991142967112e-12,3.0062333479704757e-12,1.5732116072659642e-12,8.465020355267687e-13,4.546795244005536e-13,2.305099980756067e-13,5.760031715065978e-09,4.367141292664187e-09,3.3278831275559087e-09,2.5032441806191548e-09,2.0745346165916496e-09,1.5202528721733432e-09,1.152829651551883e-09,9.563701520728444e-10,7.034889173650823e-10,5.306336921619486e-10,3.765734533071387e-10,2.709660901771512e-10,1.788150111384592e-10,1.1868036582152561e-10,8.214121278613898e-11,5.056738506740877e-11,3.2220140666480115e-11,2.0396840745120567e-11,1.2772399237658075e-11
0.0,4,4.0,0.0,30.0,0.0,0.0,0.0,0.0,-13.0,0.0,2.0,0.0,0.0,0.0,6.532358835545974e-10,5.918134612007404e-10,5.595521836931731e-10,4.857432602406454e-10,4.7647860329812e-10,3.947043052316552e-10,3.5022417828730327e-10,3.1043762190392907e-10,2.535708842091194e-10,2.227998563292762e-10,1.646337419634858e-10,1.3602668592992034e-10,1.0447763592802421e-10,7.681647131644227e-11,6.026640885814458e-11,4.290641695593758e-11,3.1137447557179175e-11,2.119683309515612e-11,1.4345270712805862e-11,8.718883413556466e-12,4.9475303291496135e-12,2.8652555904408607e-12,1.6622914440330123e-12,8.82422683348336e-13,4.622623374971708e-13,2.18825865344063e-13,5.440740187005534e-09,4.152047434243231e-09,3.346896062396052e-09,2.590987422973524e-09,2.0783777284829673e-09,1.5820431588307677e-09,1.2372070092510717e-09,9.103734091244435e-10,6.769511653117292e-10,5.098379203324201e-10,3.726230052292394e-10,2.669736700511609e-10,1.9453342631215783e-10,1.2219143646330404e-10,7.815013371115121e-11,5.133698277172163e-11,3.2556217485496615e-11,2.1096682587581868e-11,1.2257525071242678e-11
0.0,5,5.0,0.0,30.0,0.0,0.0,0.0,0.0,-13.0,0.0,2.0,0.0,0.0,0.0,6.615477690132781e-10,6.202225226523931e-10,5.74595232962883e-10,5.11187098639273e-10,4.6442840756034164e-10,3.969851904850395e-10,3.5694545164400667e-10,3.050045133953432e-10,2.6269397272686505e-10,2.0572388178058605e-10,1.7552273375516813e-10,1.4128822739683918e-10,9.839880172355616e-11,8.093588115993019e-11,6.080483727045061e-11,4.248221440092543e-11,3.0169154020010495e-11,2.063783757271036e-11,1.3345015371368356e-11,8.281629070181118e-12,4.726021161269036e-12,2.962184420521484e-12,1.643673521630157e-12,8.331012146403462e-13,4.265758659446265e-13,2.297381309981928e-13,5.350518674572347e-09,4.2639914691521684e-09,3.287077952139821e-09,2.6523932608903865e-09,2.0651410412785626e-09,1.5328574676047074e-09,1.1583709146738258e-09,8.792799251613917e-10,7.092616400634044e-10,4.975923405362689e-10,3.669429400997211e-10,2.59038160129581e-10,1.8170188539005668e-10,1.151182969553642e-10,8.088884074480953e-11,5.27668699830761e-11,3.323010305410362e-11,2.0724088848517502e-11,1.2977594047535018e-11
0.0,6,6.0,0.0,30.0,0.0,0.0,0.0,0.0,-13.0,0.0,2.0,0.0,0.0,0.0,6.682504330668842e-10,5.660248215406544e-10,6.041623571697876e-10,5.266671644436923e-10,4.586778607594942e-10,4.0991423497804495e-10,3.677665274203495e-10,3.090864106062545e-10,2.4378613178846945e-10,2.2651838905253316e-10,1.7118130036262652e-10,1.396744403250982e-10,1.0305980496761799e-10,8.393127202964405e-11,6.037236869083595e-11,4.428479758684631e-11,2.9667829766253345e-11,2.150367070726615e-11,1.3733798912335809e-11,8.65810985529318e-12,4.85464248195655e-12,2.798556783337424e-12,1.6834332250868524e-12,8.155454474013088e-13,4.371435350197608e-13,2.2987893955162054e-13,5.460369473205093e-09,4.320001982756422e-09,3.2789401038046295e-09,2.6271647948503575e-09,1.9435223007933467e-09,1.6447317200241038e-09,1.2040624239727104e-09,9.040969030289149e-10,7.102329201603581e-10,5.086624121357294e-10,3.5748467535949826e-10,2.5288455487223485e-10,1.8557276433881112e-10,1.2151123936635498e-10,8.010158405092576e-11,5.372488264528975e-11,3.215639877539445e-11,2.0586975627699114e-11,1.287911665873689e-11
0.0,7,7.0,0.0,30.0,0.0,0.0,0.0,0.0,-13.0,0.0,2.0,0.0,0.0,0.0,6.622691496317974e-10,6.166530396341474e-10,5.658254689589781e-10,5.196788073389821e-10,4.66402337808404e-10,4.059081684136533e-10,3.536586212475729e-10,3.128477536623609e-10,2.5282025314121526e-10,2.0610510483518495e-10,1.7040947656148564e-10,1.3520790993994626e-10,1.1274340282956213e-10,7.886077663791536e-11,6.182668287759914e-11,4.464678570823231e-11,2.9622455233378585e-11,2.1255388970665452e-11,1.2963634749407832e-11,7.640924537319725e-12,5.0072650221919515e-12,2.6666660655411543e-12,1.577675517938847e-12,8.135236766886648e-13,4.53099982698549e-13,2.253268015871474e-13,5.370187585249609e-09,4.157969727837453e-09,3.1976665911387304e-09,2.563774095420955e-09,2.005614801983329e-09,1.5494671946057124e-09,1.213833034454076e-09,9.387439611330934e-10,7.03406675291959e-10,5.037548993086711e-10,3.561070507283375e-10,2.740742948283476e-10,1.778308469643555e-10,1.195951525113054e-10,7.917426637119198e-11,4.9268425216804165e-11,3.295440602367117e-11,2.0878975416836075e-11,1.3365476593335221e-11
0.0,8,8.0,0.0,30.0,0.0,0.0,0.0,0.0,-13.0,0.0,2.0,0.0,0.0,0.0,6.742983846994509e-10,6.175666183289255e-10,5.867616137723522e-10,5.260252608065741e-10,4.67770562776087e-10,4.1696249824065477e-10,3.605388714058549e-10,3.0675522240054937e-10,2.5785530264995553e-10,2.065186137308507e-10,1.7376574456411173e-10,1.3214056594192944e-10,1.0863891341299418e-10,8.030073850543514e-11,6.048519787897828e-11,4.4492023682251626e-11,3.13967384180257e-11,1.9811802969727465e-11,1.3338868077623385e-11,8.489415491987197e-12,4.637068667692001e-12,2.8218425325011907e-12,1.434072848505153e-12,7.934928814754384e-13,4.245859961215974e-13,2.034850386893539e-13,5.283099804114869e-09,4.057937506380656e-09,3.4824206282362207e-09,2.6107505306749165e-09,2.0568510654358072e-09,1.555943710953465e-09,1.1951394353491793e-09,8.777788384907694e-10,6.897907727049594e-10,5.03569740458481e-10,3.814869036595789e-10,2.7205471857905786e-10,1.893630782656082e-10,1.2499641665817935e-10,7.901335112269752e-11,5.053089232962819e-11,3.4372285552043016e-11,2.1553365355061536e-11,1.2513074676066807e-11
0.0,9,9.0,0.0,30.0,0.0,0.0,0.0,0.0,-13.0,0.0,2.0,0.0,0.0,0.0,6.675684398383889e-10,6.326560188633323e-10,5.718874502613916e-10,5.179042340420952e-10,4.567406315206598e-10,3.9705268978707883e-10,3.7144802959453473e-10,3.0770869912010913e-10,2.583215690371534e-10,2.2513435967547046e-10,1.761826533278677e-10,1.3809110845370764e-10,1.0680555390370097e-10,8.496520251478484e-11,6.379812572567044e-11,4.5240850529502566e-11,3.1419683321948883e-11,1.9496184556992688e-11,1.3448447872356374e-11,8.203503565245646e-12,4.866019988081954e-12,2.841096673572406e-12,1.3943686674936268e-12,7.926905612236684e-13,4.199464903744223e-13,2.0726657433123127e-13,5.212455515011498e-09,4.355862140447213e-09,3.345707956708357e-09,2.5220657654563525e-09,2.0413221823202473e-09,1.6047968817682477e-09,1.2079183318085941e-09,9.44437552518752e-10,6.972804891775974e-10,5.089887023365439e-10,3.5872770519977257e-10,2.6211548436765694e-10,1.8223468431446123e-10,1.2498885864545529e-10,8.022765746057559e-11,5.315000736941581e-11,3.2801111516518135e-11,2.096871996756928e-11,1.3264943144724841e-11
0.0,10,10.0,0.0,30.0,0.0,0.0,0.0,0.0,-13.0,0.0,2.0,0.0,0.0,0.0,6.396952512286737e-10,6.328397446629808e-10,5.788927808576386e-10,5.252467668252023e-10,4.729438449775853e-10,4.4035611361052287e-10,3.5777598408190705e-10,2.902399912055433e-10,2.619234313056864e-10,2.139688022696904e-10,1.7030196859441912e-10,1.3294969543068873e-10,1.0535477662239258e-10,8.206836356148698e-11,6.00239102703669e-11,4.737790274212803e-11,3.005989425048944e-11,2.031400264411377e-11,1.2452477574636279e-11,8.259001887563796e-12,4.525460261581208e-12,2.691140301129178e-12,1.4874530631567346e-12,7.772045519565881e-13,4.3036230976850287e-13,2.1243331481462635e-13,5.6590749415535135e-09,4.132605752549726e-09,3.4302687614365483e-09,2.6361779385819136e-09,2.0687930254540973e-09,1.6143269509104062e-09,1.1745706565384578e-09,9.103058290334974e-10,7.133909952494702e-10,4.738175617257184e-10,3.882401671038634e-10,2.6688247178657623e-10,1.807281287660011e-10,1.2251899296689457e-10,7.80862944871012e-11,5.204910877754949e-11,3.509304547480036e-11,2.2468526830454325e-11,1.4489485543897083e-11
0.0,11,11.0,0.0,30.0,0.0,0.0,0.0,0.0,-13.0,0.0,2.0,0.0,0.0,0.0,6.592094339738445e-10,6.055209525421797e-10,5.622410628025686e-10,5.050742317682794e-10,4.672037679272091e-10,4.2008400767485577e-10,3.6266547018788067e-10,3.211870555486762e-10,2.5878370781938264e-10,2.1237059615913763e-10,1.7034535234067303e-10,1.3067018249251847e-10,1.021496172925463e-10,7.909869754964852e-11,6.360939969591591e-11,4.553337054749625e-11,3.229558583285128e-11,1.9976642515651817e-11,1.2549637438837372e-11,7.993971367195999e-12,4.8046700237571886e-12,2.747375800559812e-12,1.5264890789186673e-12,7.882460484152018e-13,4.2232829213208784e-13,2.0075264517100793e-13,5.294312289464325e-09,4.030661520970353e-09,3.2292186499308453e-09,2.6161565430744584e-09,1.9678563409215947e-09,1.6097199158627358e-09,1.2583879870543763e-09,8.562551391067281e-10,7.131462857026851e-10,4.799822030175857e-10,3.7555812498533607e-10,2.718866001025719e-10,1.8112950802379157e-10,1.1698641077810157e-10,7.925468991813943e-11,5.23803127688289e-11,3.399166500946186e-11,2.1652557152515087e-11,1.3457158603144232e-11
0.0,12,12.0,0.0,30.0,0.0,0.0,0.0,0.0,-13.0,0.0,2.0,0.0,0.0,0.0,6.649939659335424e-10,5.954180892371941e-10,5.670050381858552e-10,5.448329232940301e-10,4.6301975247253864e-10,4.099319153304021e-10,3.749643566244381e-10,2.872874427092863e-10,2.701372952707763e-10,2.1087783562217338e-10,1.746368507131901e-10,1.3825541746362008e-10,1.106850353434221e-10,8.172307355790791e-11,6.024469784632139e-11,4.623141013595329e-11,2.88692076771393e-11,2.0813285800834706e-11,1.2761321047944837e-11,7.925192214784397e-12,5.026153547223121e-12,2.67371438149548e-12,1.4680708312193756e-12,7.276832733460019e-13,3.8488350242948174e-13,1.991843219019987e-13,5.501106931880857e-09,4.3230574207119525e-09,3.3183084148777605e-09,2.6380977291529863e-09,2.0490222841544284e-09,1.4795254346321296e-09,1.2083070292944804e-09,9.42733157456169e-10,7.071380089571952e-10,5.086431459074527e-10,3.618194640809911e-10,2.53176580193059e-10,1.7987568304433507e-10,1.2575546321298173e-10,7.606386748997711e-11,5.19622425650931e-11,3.322311296552177e-11,2.2466252387000756e-11,1.3372958775976001e-11
0.0,13,13.0,0.0,30.0,0.0,0.0,0.0,0.0,-13.0,0.0,2.0,0.0,0.0,0.0,6.515289713001626e-10,6.139010184084507e-10,5.788984549264871e-10,5.150882756302122e-10,4.257485458597068e-10,4.224051866542861e-10,3.6820155004643317e-10,3.0937206435680026e-10,2.527033446204244e-10,2.1760484203804826e-10,1.7621300954549757e-10,1.3639363235521073e-10,1.0740977514467507e-10,8.046876621420251e-11,6.144029371354928e-11,4.257204225693994e-11,3.1511489124439245e-11,2.0196913939770337e-11,1.3350364185591142e-11,7.722120392169414e-12,4.615666797837757e-12,2.6378855625122765e-12,1.3668994453428227e-12,7.584536305222598e-13,3.8128714415804475e-13,1.8355744754067854e-13,5.230111585895596e-09,4.321290113626444e-09,3.4063041064869784e-09,2.5864910806849685e-09,2.0457707076915657e-09,1.57568607470949e-09,1.2186103865839832e-09,9.567475655956125e-10,6.631375377866259e-10,5.24369995270884e-10,3.662110557569693e-10,2.5991328222124755e-10,1.7876715282716257e-10,1.2024157202247364e-10,7.797038286836064e-11,5.354624942143413e-11,3.637050611960478e-11,2.2081090167356738e-11,1.369646839872644e-11
0.0,14,14.0,0.0,30.0,0.0,0.0,0.0,0.0,-13.0,0.0,2.0,0.0,0.0,0.0,6.473403859593407e-10,6.158615604747942e-10,5.793835719602023e-10,5.155745944005079e-10,4.6234817317939077e-10,4.20848849089626e-10,3.5362380922809245e-10,3.1405810806117137e-10,2.6797489307955126e-10,2.2455159980509258e-10,1.7424262898792213e-10,1.4456021688317013e-10,1.119746494029769e-10,8.069522918552815e-11,5.977816054373986e-11,4.4381625273953715e-11,3.212390067738666e-11,2.0718545138456558e-11,1.2968890147690073e-11,8.383460900555163e-12,4.69562591359567e-12,2.432888992803883e-12,1.4306239396297939e-12,7.542543836883869e-13,3.803538621222813e-13,1.9222969472552368e-13,5.431648904362387e-09,4.076101776441058e-09,3.280008119754473e-09,2.5228185734208404e-09,1.9643821381691885e-09,1.5055780147001045e-09,1.2227449932325267e-09,9.235962067045172e-10,6.848799367447561e-10,5.035986769108452e-10,3.6985563739856176e-10,2.6983921704666025e-10,1.6939624065848243e-10,1.2300272563146498e-10,7.98059230421434e-11,5.0494530121293787e-11,3.284670917753699e-11,2.1681352214850876e-11,1.3885811354558942e-11
0.0,15,15.0,0.0,30.0,0.0,0.0,0.0,0.0,-13.0,0.0,2.0,0.0,0.0,0.0,6.688869566687583e-10,6.007576137895246e-10,5.889739319104446e-10,5.437887314234825e-10,4.744830066396171e-10,4.086482810414082e-10,3.761644699230535e-10,3.1907382437649477e-10,2.6873221292089735e-10,2.1194879795431036e-10,1.6033918156455643e-10,1.4826677009027514e-10,1.0384308676639955e-10,8.350128698809472e-11,6.67669464585032e-11,4.5371339201504336e-11,3.2081182289997035e-11,1.9799103151557607e-11,1.2451115936380648e-11,7.828057341652504e-12,4.761090213244245e-12,2.5553373774797465e-12,1.3618946705323511e-12,7.335973698741639e-13,3.818649552582973e-13,1.7721547762028784e-13,5.244686625681707e-09,4.143248994721076e-09,3.425502313137891e-09,2.614454561382296e-09,2.1498646423886853e-09,1.6085057815345734e-09,1.2047691899817566e-09,9.554920669628847e-10,6.98271404078785e-10,5.023924610421258e-10,3.7730117042618643e-10,2.5562319126650527e-10,1.7851099055305275e-10,1.2652409676162407e-10,8.110831218975294e-11,5.25174282125994e-11,3.4655681118978823e-11,2.315822227119482e-11,1.3662163461897796e-11
0.0,16,16.0,0.0,30.0,0.0,0.0,0.0,0.0,-13.0,0.0,2.0,0.0,0.0,0.0,6.535551743640955e-10,6.088536838548666e-10,5.748522680406503e-10,5.156717828993837e-10,4.465725662514232e-10,4.0518823968745326e-10,3.5398065974654214e-10,3.2399579071761354e-10,2.68731326530614e-10,2.2052557540702032e-10,1.7314166326390892e-10,1.3657045760058348e-10,1.0797833906682714e-10,8.135580721592987e-11,6.727142076747557e-11,4.2016327793399144e-11,3.1742101779585806e-11,1.9898039925921675e-11,1.3051536072714637e-11,7.662324289609138e-12,4.401635651809259e-12,2.4611093920781158e-12,1.444965016393215e-12,7.127993608586179e-13,3.534256989151071e-13,1.8415179432900598e-13,5.443698095400728e-09,4.3349884140875294e-09,3.1347678725818538e-09,2.619475580130162e-09,2.067110876579047e-09,1.4862353996915907e-09,1.2218983995516129e-09,9.670209184777647e-10,6.931930297370414e-10,5.255054623457514e-10,3.768160578394853e-10,2.5524189928832505e-10,1.8016247992414215e-10,1.160394624740655e-10,8.05096378796575e-11,5.456622093377147e-11,3.618934263043334e-11,2.2667134500657006e-11,1.4291614556973987e-11
0.0,17,17.0,0.0,30.0,0.0,0.0,0.0,0.0,-13.0,0.0,2.0,0.0,0.0,0.0,6.395020251125089e-10,6.165999932964227e-10,5.722114087350359e-10,5.508681523916688e-10,4.663316552450995e-10,4.1029959774841116e-10,3.6472160368679864e-10,3.041045907274501e-10,2.643189416804415e-10,2.1487601084540316e-10,1.669355930306798e-10,1.4036593033091634e-10,1.091483725113156e-10,8.029251474194516e-11,6.271755021842937e-11,4.718388102215462e-11,3.1712885064964786e-11,2.1028226693563903e-11,1.250238145612931e-11,7.945992937257474e-12,4.533462807413294e-12,2.553201994605077e-12,1.3667846210052813e-12,6.731836528422635e-13,3.532240208489419e-13,1.7264722916126292e-13,5.4334856433248145e-09,4.128749489141333e-09,3.4464674983164356e-09,2.5285929097765105e-09,1.9654445470977884e-09,1.567339451729215e-09,1.1663643393302112e-09,9.080965329685454e-10,6.758544772595289e-10,5.341609249484663e-10,3.776955569642865e-10,2.6003091291706484e-10,1.7773123387373658e-10,1.2533177046370437e-10,8.290993003545676e-11,5.529716364571184e-11,3.5681393345237906e-11,2.167776444144851e-11,1.403753465722896e-11
0.0,18,18.0,0.0,30.0,0.0,0.0,0.0,0.0,-13.0,0.0,2.0,0.0,0.0,0.0,6.509936728754461e-10,6.306490818818065e-10,5.894535464679348e-10,5.118325437463791e-10,4.762070986037943e-10,4.3854460268505317e-10,3.5753519553046243e-10,3.2895489279670365e-10,2.565770047637199e-10,2.180030465419493e-10,1.7701119675074965e-10,1.4131160460197916e-10,1.0798278166510886e-10,8.334568610631166e-11,6.183422663662337e-11,4.571346095631439e-11,3.1533224244394105e-11,2.1969229744616052e-11,1.3487558955939525e-11,7.648918034919434e-12,4.505255387807117e-12,2.5513443637450458e-12,1.3273677171030641e-12,6.863933541721241e-13,3.4603596927953686e-13,1.7691171705261418e-13,5.302811992856306e-09,4.2011547884083214e-09,3.3623216107310804e-09,2.61934245388829e-09,2.034048131970984e-09,1.5461027462336663e-09,1.2400662788013764e-09,9.782663419111243e-10,7.011436048268897e-10,5.090732887696787e-10,3.769516918021221e-10,2.559820190725765e-10,1.7572478436895537e-10,1.2218470839605776e-10,7.58830013259327e-11,5.296038969532117e-11,3.563441204263656e-11,2.208589123249895e-11,1.3739801451750753e-11
0.0,19,19.0,0.0,30.0,0.0,0.0,0.0,0.0,-13.0,0.0,2.0,0.0,0.0,0.0,6.530914322824365e-10,5.883872747679253e-10,5.653501795566946e-10,5.140105921520991e-10,4.702615321117916e-10,4.3162227717358803e-10,3.671323504772552e-10,3.138272226389766e-10,2.646649749983134e-10,2.199946059307275e-10,1.7234907890169323e-10,1.4145737341853858e-10,1.1238260374476915e-10,8.176848417444666e-11,6.498857274758515e-11,4.683213121403183e-11,3.0620645151135654e-11,2.038112165916591e-11,1.2537387665907787e-11,7.859262920029838e-12,4.26769775866856e-12,2.4237716381629804e-12,1.2685628407293065e-12,6.746493253181908e-13,3.190334848898523e-13,1.7471951191557807e-13,5.283444070051844e-09,4.249828305175082e-09,3.2939903050007037e-09,2.5353652446656283e-09,1.965345255396413e-09,1.6069375925066266e-09,1.185492324511297e-09,9.264545842604452e-10,6.756126261909143e-10,5.01659411715665e-10,3.733973826374905e-10,2.671675781400885e-10,1.7878655879994075e-10,1.1707249351161033e-10,8.759807592140365e-11,5.384434727579043e-11,3.464298291481172e-11,2.5015178822390257e-11,1.4098203736124487e-11
0.0,20,20.0,0.0,30.0,0.0,0.0,0.0,0.0,-13.0,0.0,2.0,0.0,0.0,0.0,6.329600122779449e-10,6.064418008497964e-10,5.789019704490725e-10,5.256785996846223e-10,4.582212422514402e-10,4.4039312790007716e-10,3.5996697681567413e-10,3.029926776974854e-10,2.721242438208379e-10,2.279521183769606e-10,1.7414282033271193e-10,1.366649896083036e-10,1.1541188284344868e-10,8.043564212562326e-11,6.12389795420209e-11,4.6756938811269605e-11,3.113539824145346e-11,2.029412177794652e-11,1.2927565255714892e-11,7.588967039819849e-12,4.182583379868592e-12,2.4937356238990094e-12,1.328406536907748e-12,6.632765836790603e-13,3.294502525489842e-13,1.751341798904866e-13,5.3953515146605886e-09,4.208746604846378e-09,3.350940434924573e-09,2.708764302651206e-09,2.1151414376651144e-09,1.5504616924219754e-09,1.2151708772414023e-09,8.8054728213243e-10,6.853163045626303e-10,4.982352283727264e-10,3.5665042836034853e-10,2.7275202320490174e-10,1.7546850267702106e-10,1.2061504237966017e-10,8.399178745710959e-11,5.786645433655256e-11,3.717532030103371e-11,2.5334521364458832e-11,1.4328540374080843e-11
0.0,21,21.0,0.0,30.0,0.0,0.0,0.0,0.0,-13.0,0.0,2.0,0.0,0.0,0.0,6.673882283282973e-10,6.24534922275292e-10,5.975541505539959e-10,5.309874719484883e-10,4.689721114278281e-10,4.0610992784860384e-10,3.688749335449218e-10,3.2797822201762025e-10,2.619220820529092e-10,2.234701318155169e-10,1.8064448191923258e-10,1.4712682372141812e-10,1.0984671203404381e-10,9.218333697910778e-11,6.13531040995927e-11,4.500203270703318e-11,3.2026071628500895e-11,2.0554002792766247e-11,1.3017415244399905e-11,7.433821794444658e-12,4.284450098252648e-12,2.3632709442801265e-12,1.3115805882489013e-12,6.579848250603009e-13,3.2838754680824523e-13,1.5570220124073585e-13,5.598137990847059e-09,4.270025572445004e-09,3.4523555004837973e-09,2.7505136739242642e-09,1.9996411973720384e-09,1.543067271594199e-09,1.1723552553719942e-09,9.140817042542234e-10,6.833731114754779e-10,5.161311963337451e-10,3.657372652658165e-10,2.566040552533555e-10,1.8554435952154087e-10,1.1945385015544274e-10,8.465106511057054e-11,5.547557122255038e-11,3.778344963881063e-11,2.4566788505887083e-11,1.431571729701312e-11
0.0,22,22.0,0.0,30.0,0.0,0.0,0.0,0.0,-13.0,0.0,2.0,0.0,0.0,0.0,6.713086091050569e-10,6.230531698247839e-10,5.594853978157227e-10,5.271876671649302e-10,4.751236533885178e-10,4.2365916661630943e-10,3.645666444620684e-10,3.1629040363812534e-10,2.5678405874809824e-10,2.1843806237581437e-10,1.831754774501111e-10,1.480530696590053e-10,1.1175462748285061e-10,8.680848832909342e-11,6.444831086504513e-11,4.5823231369406526e-11,3.160240837007279e-11,1.9172977883411665e-11,1.2584793188134362e-11,7.517880391712212e-12,4.106772210145256e-12,2.4385502762573623e-12,1.2330456103630243e-12,6.594208846267726e-13,3.048709555827302e-13,1.500522030277838e-13,5.476126878107149e-09,4.027264894303014e-09,3.3351174005229617e-09,2.600862696988461e-09,2.07919645087561e-09,1.59444517355464e-09,1.1879755697500268e-09,8.873122799646374e-10,7.262558603025188e-10,4.979834687102593e-10,3.5539296716780156e-10,2.507792711318856e-10,1.8595458312061865e-10,1.2140185351386685e-10,8.220070801965273e-11,5.688311767642838e-11,3.7090459407167034e-11,2.3291147100320317e-11,1.4858641559213186e-11
0.0,23,23.0,0.0,30.0,0.0,0.0,0.0,0.0,-13.0,0.0,2.0,0.0,0.0,0.0,6.840628125919003e-10,6.384172416576806e-10,5.868195836359083e-10,5.301622741419946e-10,4.463966650216081e-10,4.400040301656775e-10,3.707036089983055e-10,3.2189055325145956e-10,2.756880731324743e-10,2.3124102241174205e-10,1.8334495157584393e-10,1.4689825233689774e-10,1.1177562675707864e-10,8.703148493370169e-11,6.255814917012179e-11,4.4593231318192925e-11,3.019998382502702e-11,2.0080495577229397e-11,1.2892214869255798e-11,8.080424585023057e-12,4.19509295706791e-12,2.1881154728729608e-12,1.2467314014690678e-12,6.093326629020958e-13,2.9786266260274784e-13,1.5072805208647824e-13,5.236582890190115e-09,4.268617109706476e-09,3.3044413748679926e-09,2.600426609816764e-09,2.0402683842910137e-09,1.5642266616388043e-09,1.2030914259847557e-09,9.247977752501982e-10,6.988182877699967e-10,4.937968676723832e-10,3.5075453471745924e-10,2.5857531673054726e-10,1.7237307113787575e-10,1.241287468797564e-10,8.707808546608333e-11,5.8207213619204244e-11,3.648763759083388e-11,2.334320816042282e-11,1.4752389324240037e-11
0.0,24,24.0,0.0,30.0,0.0,0.0,0.0,0.0,-13.0,0.0,2.0,0.0,0.0,0.0,6.552741843351088e-10,6.146009637536478e-10,5.843429025317977e-10,5.087898298796441e-10,4.663759413665803e-10,4.09559730980206e-10,3.565552715778299e-10,3.0877514805518226e-10,2.73107439730491e-10,2.230199205053073e-10,1.7722487297232848e-10,1.4483222875100439e-10,1.0883349537822156e-10,8.542191810742933e-11,6.852995219624893e-11,4.5465441314423737e-11,3.1629965696909525e-11,2.0020510706119618e-11,1.2516565459640206e-11,7.433556095330094e-12,3.970619144333842e-12,2.2356563924839402e-12,1.2303736095782072e-12,5.854396035897087e-13,2.904406665545364e-13,1.4377337243431811e-13,5.482359060191746e-09,4.3065314314412605e-09,3.4386261656022184e-09,2.6310606974715604e-09,2.0128692153722336e-09,1.6194437200744599e-09,1.2273179044446486e-09,8.752800723281219e-10,7.418987790108835e-10,5.360324423422168e-10,3.64215489621149e-10,2.6188025722153046e-10,1.875514821596829e-10,1.237212877342966e-10,8.720806495465677e-11,5.962165524153282e-11,3.687101309533264e-11,2.3709687275612388e-11,1.5088228601817527e-11
0.0,25,25.0,0.0,30.0,0.0,0.0,0.0,0.0,-13.0,0.0,2.0,0.0,0.0,0.0,6.72868608295242e-10,6.381679447202288e-10,5.722780924443055e-10,5.203164036010837e-10,4.443263181802684e-10,4.0586700722960295e-10,3.693729222162017e-10,3.256704011389071e-10,2.729329706324332e-10,2.2285105270199704e-10,1.8153891654876045e-10,1.476654625750068e-10,1.1537296488276175e-10,9.142506011170525e-11,6.481684065218664e-11,4.355486164272026e-11,2.967551778018614e-11,2.084187999321701e-11,1.183724644850526e-11,7.359369834394389e-12,4.007310899191926e-12,2.1828539415984885e-12,1.1432247289964829e-12,6.059584433120073e-13,2.853698901029251e-13,1.4037018921658382e-13,5.188152047406906e-09,4.265464167610591e-09,3.3648463233021006e-09,2.6102168461732957e-09,2.1005707384054037e-09,1.5624734702080742e-09,1.2120979621061729e-09,9.61078868097103e-10,6.569739585723167e-10,5.014768468345665e-10,3.8131410249123817e-10,2.661684695398614e-10,1.844216293588416e-10,1.281299441417358e-10,8.688357845508808e-11,6.113037148401149e-11,3.8825442152755995e-11,2.4502094779171857e-11,1.4821050176729205e-11
0.0,26,26.0,0.0,30.0,0.0,0.0,0.0,0.0,-13.0,0.0,2.0,0.0,0.0,0.0,6.680305302684737e-10,5.999128337353508e-10,5.884268220988419e-10,5.23429290654413e-10,4.992244497479575e-10,4.2012967306841625e-10,3.7438689451251373e-10,3.2114279388570586e-10,2.646617252270381e-10,2.3151530841397874e-10,1.9460875899827176e-10,1.4753412119614895e-10,1.147010334289563e-10,8.715904485856066e-11,6.099491225757319e-11,4.5307714844884974e-11,3.0970968545081005e-11,2.042211403686664e-11,1.2491717777178486e-11,7.007297509181099e-12,3.937772197637376e-12,2.2217492184499532e-12,1.114720460864148e-12,5.603702716696675e-13,2.9029202895330554e-13,1.402234992311071e-13,5.440325414821525e-09,4.163051275102791e-09,3.11158656933728e-09,2.6368317365297327e-09,1.961193854652662e-09,1.4674397057364572e-09,1.2577678637466334e-09,9.329319955392129e-10,6.648424995394771e-10,4.893398718415353e-10,3.748500635427665e-10,2.521065565103106e-10,1.88246987055251e-10,1.2806487071949573e-10,8.819406835555807e-11,5.958463152070779e-11,3.8977867290378304e-11,2.5150915398312487e-11,1.4611260257609455e-11
0.0,27,27.0,0.0,30.0,0.0,0.0,0.0,0.0,-13.0,0.0,2.0,0.0,0.0,0.0,6.664635998288186e-10,6.361150857422566e-10,5.854955467257635e-10,5.073200113197587e-10,4.670046195335567e-10,4.2514408170635554e-10,3.661431675284073e-10,3.3688689252717467e-10,2.676921236029354e-10,2.249113337736787e-10,1.8946914703261676e-10,1.4998264723316297e-10,1.158743714123913e-10,8.643947479461055e-11,6.536021747658946e-11,4.691693306906042e-11,3.1048080862301824e-11,1.9187124253577433e-11,1.263383415704317e-11,6.68977849897295e-12,3.714299431056357e-12,2.1641072528861993e-12,1.1002614178978794e-12,5.444039466456427e-13,2.611211271609911e-13,1.406449756346207e-13,5.455696989306436e-09,4.30580783805207e-09,3.3423627128855583e-09,2.624115425147647e-09,2.0473607637093036e-09,1.5928203016554833e-09,1.1864966492714207e-09,9.064591626015878e-10,6.517653464103664e-10,4.95373292062938e-10,3.6795142223787586e-10,2.6716656137060813e-10,1.8503563152007289e-10,1.2527147020089858e-10,8.429065040725246e-11,5.452756888279281e-11,4.047364183329281e-11,2.423848014918009e-11,1.4668776420986688e-11
0.0,28,28.0,0.0,30.0,0.0,0.0,0.0,0.0,-13.0,0.0,2.0,0.0,0.0,0.0,6.680142963426879e-10,5.964989441482973e-10,5.704464856555434e-10,5.58959182772723e-10,4.82188169397219e-10,4.274607150502573e-10,3.540987900381678e-10,3.426443889283588e-10,2.6053090586791965e-10,2.403826648169277e-10,1.745247601447591e-10,1.5573762740267985e-10,1.2269020318764027e-10,8.657772043633803e-11,6.56779542187565e-11,4.616871530602427e-11,2.971497958152908e-11,1.8636376339100196e-11,1.139750077989683e-11,6.998018357268491e-12,3.816194005875816e-12,2.0218607524260768e-12,1.0956593265231435e-12,5.460909383006556e-13,2.556271222251675e-13,1.2185637964127636e-13,5.5212308172798495e-09,4.168852999292004e-09,3.319935750931149e-09,2.712079542364668e-09,2.044354328358391e-09,1.5175596692705523e-09,1.205070222365273e-09,8.876254976238325e-10,7.201234657482951e-10,4.981191513012262e-10,3.669844948131299e-10,2.6166343551438397e-10,1.8333004874511822e-10,1.1999773893095026e-10,8.464113492517786e-11,5.930177773709682e-11,3.986670061410665e-11,2.4736567873565947e-11,1.4488900490567545e-11
0.0,29,29.0,0.0,30.0,0.0,0.0,0.0,0.0,-13.0,0.0,2.0,0.0,0.0,0.0,6.391662377869631e-10,6.160135423580335e-10,5.692008146148871e-10,5.359761082335859e-10,4.712959789472029e-10,4.3163785239402727e-10,3.6627547028653757e-10,3.1985158629581003e-10,2.706521356545127e-10,2.2325181025064656e-10,1.910661468649036e-10,1.4670635320752373e-10,1.1578535326267608e-10,8.887797289312366e-11,6.238169897747865e-11,4.487968494057648e-11,2.9643669751368823e-11,1.9083370594134056e-11,1.1696112801651926e-11,6.612287657506602e-12,3.725531653948673e-12,2.087774125223575e-12,1.0355003395684774e-12,5.4007398892973e-13,2.557743836544171e-13,1.2487647118558783e-13,5.3088767747926306e-09,4.249776359605605e-09,3.3226330563933094e-09,2.5412898164639886e-09,1.9635524377363615e-09,1.4874878098183391e-09,1.252331055479511e-09,8.863465144043841e-10,7.139500353914983e-10,4.989761175892837e-10,3.5509092666772836e-10,2.6446578954044593e-10,1.7980990129986958e-10,1.3070541337857615e-10,8.851272589360645e-11,6.16444562501308e-11,3.8694975226956175e-11,2.5619588396239032e-11,1.517690190964896e-11
0.0,30,30.0,0.0,30.0,0.0,0.0,0.0,0.0,-13.0,0.0,2.0,0.0,0.0,0.0,6.485330175349116e-10,6.738982964608702e-10,5.876072726785302e-10,5.651891062451225e-10,4.999412538158586e-10,4.227531285222593e-10,3.6960401759868405e-10,3.198182047477149e-10,2.598767978544747e-10,2.2523488153522078e-10,1.9018859395946036e-10,1.5825098747291868e-10,1.1548326290116082e-10,9.170741856250604e-11,6.248875583230419e-11,4.439865113109564e-11,2.9688424426176594e-11,1.9333104513627534e-11,1.1718327748865273e-11,6.85134999997543e-12,3.7573935876009355e-12,1.974446296815485e-12,1.0193015034051598e-12,5.304033157918704e-13,2.40862382245546e-13,1.2016515212407265e-13,5.139585465964593e-09,4.287922958368023e-09,3.2605829872091226e-09,2.5882773252496535e-09,2.0752455877416115e-09,1.563992943907948e-09,1.229547569603995e-09,9.52510773288566e-10,6.934754260241809e-10,5.232755662583158e-10,3.6085057414471177e-10,2.60042074847117e-10,1.8135805177638136e-10,1.3370041381208334e-10,9.150631442493457e-11,6.049918879895046e-11,4.039921133355605e-11,2.5929867767891355e-11,1.49721155752105e-11
0.0,31,31.0,0.0,30.0,0.0,0.0,0.0,0.0,-13.0,0.0,2.0,0.0,0.0,0.0,6.488500381533692e-10,6.278447668346651e-10,5.448582416018823e-10,5.421885924053543e-10,4.7220582769334e-10,4.204787859738542e-10,3.8553912741852466e-10,3.119515279905547e-10,2.9269944406598027e-10,2.2819652574758128e-10,1.8708710323823558e-10,1.5693726531941786e-10,1.213247470910258e-10,9.616638959696771e-11,6.450379044654707e-11,4.4874841725771196e-11,2.856615345443385e-11,1.872940815463459e-11,1.1147541313705862e-11,6.450886582298439e-12,3.40451628883376e-12,2.005657681499889e-12,9.367650269332501e-13,4.489622395098147e-13,2.276866079256428e-13,1.106216074651442e-13,5.246152334631164e-09,4.374354630056965e-09,3.2940361626507377e-09,2.589210601092116e-09,2.0484462900410738e-09,1.5688130042640073e-09,1.2320408799013498e-09,8.810075082685004e-10,6.734485858675646e-10,5.150871221204581e-10,3.367219405607018e-10,2.4999866588040706e-10,1.8815462301380963e-10,1.289957489759147e-10,9.397973184586421e-11,6.361861241883366e-11,3.910813194204474e-11,2.55904891350631e-11,1.555372122970241e-11
0.0,32,32.0,0.0,30.0,0.0,0.0,0.0,0.0,-13.0,0.0,2.0,0.0,0.0,0.0,6.718716630176285e-10,6.081024420314406e-10,5.957588490152505e-10,5.413428770691456e-10,4.874089870117377e-10,4.3714029167421025e-10,3.4335875079899e-10,3.35582994663676e-10,2.9332000361638176e-10,2.361550764582622e-10,1.9248955667236453e-10,1.5641728124018178e-10,1.2055623299989405e-10,9.153209421647733e-11,6.4867714695418e-11,4.38201518551467e-11,2.8768755483499718e-11,1.8141944418545256e-11,1.0758104319816846e-11,6.208864643119927e-12,3.6959426576012805e-12,1.901978784542956e-12,9.311397140731893e-13,4.686853416653077e-13,2.2853772830263684e-13,1.0598640770502537e-13,5.443660693842098e-09,4.332710147333948e-09,3.3032871208146175e-09,2.6124276561175047e-09,2.064197324308985e-09,1.5418917687237202e-09,1.2062401977303978e-09,9.020111563720977e-10,6.833213975457485e-10,4.99622324334475e-10,3.587975177404118e-10,2.6295213802301655e-10,1.8982916267505109e-10,1.3280804759070784e-10,9.387333168408817e-11,6.140529992184584e-11,3.943369107809193e-11,2.572649387932575e-11,1.5335127010051967e-11
0.0,33,33.0,0.0,30.0,0.0,0.0,0.0,0.0,-13.0,0.0,2.0,0.0,0.0,0.0,6.71100354088728e-10,6.531002452535408e-10,5.975990769988612e-10,5.754463994173706e-10,4.782076782304831e-10,4.1669769700102294e-10,3.7056857599217575e-10,3.2317392491366493e-10,2.8401998592537156e-10,2.195440846969483e-10,2.0034492459701864e-10,1.5304192580654436e-10,1.1896961089976597e-10,8.701989573013511e-11,6.455326638430728e-11,4.4652593338730474e-11,2.930238240955101e-11,1.8659661697792e-11,1.0842791424163376e-11,6.116420128395869e-12,3.4827055591776837e-12,1.8138242776310776e-12,9.246948174731483e-13,4.727798848054123e-13,2.125572036622713e-13,1.0092871559121749e-13,5.636594076539372e-09,4.04469893898534e-09,3.1760396862123083e-09,2.648858699519308e-09,2.02414993514064e-09,1.558559681017016e-09,1.191808020533228e-09,9.103971578764014e-10,6.812325414068012e-10,5.246590882352003e-10,3.60539876993965e-10,2.613545653605006e-10,1.9824852097744786e-10,1.3379335653618177e-10,9.987881956735101e-11,6.328430712539513e-11,4.293684471482774e-11,2.425486560920078e-11,1.5096201815476284e-11
0.0,34,34.0,0.0,30.0,0.0,0.0,0.0,0.0,-13.0,0.0,2.0,0.0,0.0,0.0,6.395167990103005e-10,6.450476056139519e-10,5.620054328703509e-10,5.387239182513746e-10,4.786901297387878e-10,4.1637157232758077e-10,3.6237605341971585e-10,3.2563429856587666e-10,2.966471233566449e-10,2.343662145364272e-10,1.9941943255301558e-10,1.5479645468802175e-10,1.2349279917989733e-10,8.51055962583285e-11,6.386164641783173e-11,4.564936259169124e-11,2.8991764513299192e-11,1.817959572122578e-11,1.0707249353561306e-11,6.364083283901586e-12,3.3700409751243758e-12,1.7585534933253292e-12,9.064948587343533e-13,4.4990634232774367e-13,2.123721900870055e-13,1.0415275470479276e-13,5.4209257550713e-09,4.267336342676997e-09,3.2411763277254884e-09,2.5960789522680023e-09,2.1044899399470904e-09,1.5227164562550639e-09,1.1535101919077052e-09,9.357612733222853e-10,6.793053752905533e-10,5.053392797348849e-10,3.649179623647657e-10,2.6451680001788943e-10,1.94613866756713e-10,1.3184189827398577e-10,9.189453577840841e-11,6.43366130680474e-11,3.9561603791377216e-11,2.4566703135877197e-11,1.585867341110408e-11
0.0,35,35.0,0.0,30.0,0.0,0.0,0.0,0.0,-13.0,0.0,2.0,0.0,0.0,0.0,6.882252401375011e-10,6.304845111292292e-10,6.065923466916889e-10,5.191860874664766e-10,4.80041956105266e-10,4.4143543435005075e-10,3.9317989377496653e-10,3.3792771529233384e-10,2.6229266241292446e-10,2.3129619157343786e-10,1.9824435304624175e-10,1.5428232557707157e-10,1.299536313595716e-10,9.260226171395162e-11,6.554636790409224e-11,4.262337707298698e-11,2.880456644587894e-11,1.8096955252286117e-11,1.1008333516455993e-11,6.173189487319746e-12,3.352954741736269e-12,1.6560156116153848e-12,8.956218262630687e-13,4.082716294181962e-13,1.9940431757355871e-13,9.622368458441513e-14,5.40529938793399e-09,4.103302768634969e-09,3.222462471667331e-09,2.463412001529933e-09,2.0398145894602384e-09,1.610335223961867e-09,1.1895031461190403e-09,8.967098820351585e-10,6.51510921898034e-10,5.175603475133968e-10,3.904495064330031e-10,2.510937689915133e-10,1.8550268309392337e-10,1.341246091098798e-10,9.434127831992357e-11,6.529980871774143e-11,4.389607554389402e-11,2.6484390055889734e-11,1.523338192473789e-11
0.0,36,36.0,0.0,30.0,0.0,0.0,0.0,0.0,-13.0,0.0,2.0,0.0,0.0,0.0,6.599661702675424e-10,6.111840697547339e-10,5.726804434963344e-10,5.628301629898906e-10,4.857795280621477e-10,4.296578571307492e-10,3.8307293023143596e-10,3.433500712299774e-10,2.747938346787372e-10,2.502222513445344e-10,1.9774012668015238e-10,1.5577934454180435e-10,1.2272995158425468e-10,9.068968629592243e-11,6.357947027543816e-11,4.344921784638584e-11,2.7767926774243822e-11,1.8040046483964542e-11,1.0273582368414831e-11,5.703688255255702e-12,3.177959977664699e-12,1.7153097488843548e-12,8.276912224292427e-13,4.0235078488142916e-13,1.9685578648347288e-13,9.623561720010873e-14,5.1921729524042244e-09,4.278413888516818e-09,3.3231271042944014e-09,2.6723000374609796e-09,2.066341912884813e-09,1.5418974258789956e-09,1.1317852167504548e-09,9.285465667940449e-10,6.638851579925711e-10,4.895015073135428e-10,3.7982430132797707e-10,2.5989300802846576e-10,2.018104247450641e-10,1.4008499458535485e-10,9.811923454087678e-11,6.61369157291936e-11,4.008093344002859e-11,2.4400148517435193e-11,1.505845917010811e-11
0.0,37,37.0,0.0,30.0,0.0,0.0,0.0,0.0,-13.0,0.0,2.0,0.0,0.0,0.0,6.880311323968421e-10,6.359559969315965e-10,5.742379693156432e-10,5.403053064114806e-10,4.877413482691685e-10,4.252945043819871e-10,3.994257004215829e-10,3.199521258499291e-10,2.9337558957298013e-10,2.4468545252060343e-10,2.0417863551279538e-10,1.5284722411426065e-10,1.2179802556078348e-10,9.59050567245128e-11,6.52386025188825e-11,4.355454818230177e-11,2.8617138868990792e-11,1.7445720385189816e-11,1.0895686440975906e-11,5.894806735906196e-12,3.062589612927952e-12,1.6072356807688905e-12,7.890916933314807e-13,4.081039394023111e-13,1.783100982885539e-13,8.194341514078063e-14,5.665000433771734e-09,4.5019238965119656e-09,3.348050694789532e-09,2.589903152595169e-09,2.0450986859752105e-09,1.5193800102169137e-09,1.1970232797010422e-09,9.066580661266873e-10,6.931587956897043e-10,4.805264134666213e-10,3.628959600750457e-10,2.7610581559449275e-10,1.9193855423487899e-10,1.3636740903029294e-10,1.0446300688936886e-10,6.62699118410867e-11,4.167876693110991e-11,2.4511379584106532e-11,1.5240325404552587e-11
0.0,38,38.0,0.0,30.0,0.0,0.0,0.0,0.0,-13.0,0.0,2.0,0.0,0.0,0.0,6.928445294195097e-10,6.308608012103129e-10,5.714772365411485e-10,5.419775815656353e-10,4.791143936341559e-10,4.280104630059505e-10,3.890592440597912e-10,3.293066894349743e-10,2.9275311729153785e-10,2.48238491918121e-10,1.9448787019867965e-10,1.5184763032271347e-10,1.2736611085610855e-10,8.737933413143396e-11,6.237974882920222e-11,4.3301582935294234e-11,2.8285531503732374e-11,1.6962428144562034e-11,1.0136791890129879e-11,5.508285958891632e-12,2.8902663593534234e-12,1.6061202989090572e-12,8.253163140054512e-13,3.9700409728749657e-13,1.7897285175481363e-13,8.713833317542995e-14,5.48418986718408e-09,4.167041275516631e-09,3.346644712903079e-09,2.572667880042797e-09,1.9452489588742593e-09,1.5065532267233662e-09,1.218367457161952e-09,8.544925689646692e-10,6.922502802681582e-10,4.79970002972235e-10,3.4662422776519287e-10,2.566956756155015e-10,2.1006933293238491e-10,1.4167534425763915e-10,9.994914951725152e-11,6.96821528741977e-11,4.384838336685449e-11,2.477182748899478e-11,1.5239260471218952e-11
0.0,39,39.0,0.0,30.0,0.0,0.0,0.0,0.0,-13.0,0.0,2.0,0.0,0.0,0.0,6.847250300248992e-10,6.324448186007876e-10,5.939739018318779e-10,5.659300600584127e-10,4.810410871082114e-10,4.4861239202065946e-10,3.9298812696296306e-10,3.2426659791344343e-10,2.8595637477945353e-10,2.4713110482382145e-10,2.0863223184725306e-10,1.6380432433102533e-10,1.2401211334869377e-10,8.752607957001153e-11,6.66727906184153e-11,4.286375228366915e-11,2.6556441071396415e-11,1.667881397279829e-11,1.0027371033570386e-11,5.422036715882808e-12,2.9585923935145994e-12,1.5338903292689315e-12,7.462222620375882e-13,3.5237802885388423e-13,1.7090468436241583e-13,7.830705577269033e-14,5.727635842481675e-09,4.02011671863852e-09,3.2858647883536104e-09,2.5335307062042697e-09,2.0232600951694906e-09,1.4339144749948147e-09,1.2282897708810037e-09,9.04016727249859e-10,6.420545220342904e-10,5.00052368369604e-10,3.7905933559426373e-10,2.613229179198952e-10,2.0104712004480278e-10,1.3996767108377932e-10,9.926880146604939e-11,6.750794769914607e-11,4.3098331486595947e-11,2.5492523928226986e-11,1.4896057653016006e-11
0.0,40,40.0,0.0,30.0,0.0,0.0,0.0,0.0,-13.0,0.0,2.0,0.0,0.0,0.0,7.003538874849328e-10,6.363221168958163e-10,6.219429044905008e-10,5.719363519197378e-10,4.907811527022038e-10,4.3780383040018934e-10,3.7636308469533126e-10,3.442939794794055e-10,2.9226729797788077e-10,2.534144115016508e-10,1.9291850775856302e-10,1.5829979191304848e-10,1.2544927785944552e-10,8.748956099308881e-11,6.137347643365565e-11,4.028035717470278e-11,2.907159559261665e-11,1.6062969156589728e-11,9.151022964500883e-12,5.135376904266027e-12,2.7205900369999167e-12,1.417231578218459e-12,7.242826754041747e-13,3.4271262705297556e-13,1.5771154671524277e-13,7.06666097685756e-14,5.42726188939891e-09,4.230391829597942e-09,3.4493561317765644e-09,2.5845504851376417e-09,1.9958787247744766e-09,1.497033790795066e-09,1.1764035120707601e-09,8.908807233501194e-10,6.721051065681955e-10,4.922330957701837e-10,3.8083357779375213e-10,2.7633622764760236e-10,2.0266779449677675e-10,1.3912147426951356e-10,1.0372464275084823e-10,6.903495281708107e-11,4.195701003927403e-11,2.6608313576346103e-11,1.4081311132500559e-11
0.0,41,41.0,0.0,30.0,0.0,0.0,0.0,0.0,-13.0,0.0,2.0,0.0,0.0,0.0,6.860353640181828e-10,6.394341908940574e-10,5.75728891733591e-10,5.542236466801874e-10,5.26013198086007e-10,4.5057080926648784e-10,3.93836085393545e-10,3.532808753717547e-10,2.989758320158618e-10,2.497430988763463e-10,2.0066444836288335e-10,1.6696964843995785e-10,1.2355882356116022e-10,8.768412052444603e-11,6.21004185301709e-11,4.06590407535355e-11,2.601018670380571e-11,1.5766495999867164e-11,8.956200205127529e-12,5.218873141135244e-12,2.6638062973587033e-12,1.3952922124815866e-12,6.625970572418881e-13,3.294236160775656e-13,1.5113612403456992e-13,7.198676453850021e-14,5.3819126432461324e-09,4.131012638479243e-09,3.134153464826164e-09,2.5973323782374307e-09,1.957957123881908e-09,1.5436785813688111e-09,1.1685553414395295e-09,9.278052209361537e-10,6.910528106160102e-10,5.15404216005278e-10,3.708113736223576e-10,2.84919795689351e-10,2.1760223759920164e-10,1.4511502201840205e-10,1.0399013112276943e-10,6.519763785779809e-11,4.499581855045232e-11,2.549010301987987e-11,1.4915982234774546e-11
0.0,42,42.0,0.0,30.0,0.0,0.0,0.0,0.0,-13.0,0.0,2.0,0.0,0.0,0.0,6.540511308853458e-10,6.829262183373869e-10,5.963582904036809e-10,5.63659334151265e-10,5.062992064920155e-10,4.4975551135621784e-10,4.232023312613663e-10,3.3434310121178616e-10,3.0330978559753763e-10,2.582812653051521e-10,2.0418376331579545e-10,1.5997551557282245e-10,1.2125030001433645e-10,8.539296533862862e-11,6.179892698757419e-11,4.164309768961354e-11,2.6059064482676235e-11,1.5574663652762644e-11,8.880166876371554e-12,4.892617488989657e-12,2.6856301200200922e-12,1.2334665080388393e-12,6.465126016613175e-13,3.1124598456982306e-13,1.53414403994613e-13,6.660950208969995e-14,5.6623647913042946e-09,3.953154285566728e-09,3.3404971621664637e-09,2.5962268545757833e-09,2.0824502857419474e-09,1.4670314808402338e-09,1.179300801580562e-09,9.031787692958493e-10,6.70530956670849e-10,5.295430307431956e-10,3.774702180185468e-10,3.022229093377435e-10,2.1685150862319257e-10,1.5535048482222914e-10,1.0643131398620756e-10,6.689400528339118e-11,4.272907976788924e-11,2.6170081154114156e-11,1.4741488883507963e-11
0.0,43,43.0,0.0,30.0,0.0,0.0,0.0,0.0,-13.0,0.0,2.0,0.0,0.0,0.0,7.204554664118896e-10,6.424891356869504e-10,5.908949497823331e-10,5.727935782338445e-10,4.955535449277298e-10,4.690354650457415e-10,4.211022365576946e-10,3.598315532800363e-10,2.999716922151206e-10,2.535507232820596e-10,2.090312140283757e-10,1.6088314031440431e-10,1.2955742058468626e-10,8.550742836725664e-11,5.924732143158557e-11,3.920970602204484e-11,2.5036896386866433e-11,1.4312664460270877e-11,8.580073879832269e-12,4.6711232122600734e-12,2.4933953392144263e-12,1.2748416767213453e-12,5.924641340462152e-13,3.0695364958702196e-13,1.470444430315631e-13,6.229984288367475e-14,5.675328601950686e-09,4.2458651254478e-09,3.4900580943127375e-09,2.65934992050968e-09,1.903864109038061e-09,1.5424234012177575e-09,1.2210523178969076e-09,9.018796276211062e-10,6.811039376022794e-10,5.334247270568523e-10,3.772669716972508e-10,2.892187813639606e-10,2.1569828825518326e-10,1.5174617660646572e-10,1.0579497799659457e-10,7.117459579786812e-11,4.391485978667638e-11,2.500645325556438e-11,1.3829904394346353e-11
0.0,44,44.0,0.0,30.0,0.0,0.0,0.0,0.0,-13.0,0.0,2.0,0.0,0.0,0.0,6.806935232555562e-10,6.556619777687873e-10,6.077115937200572e-10,5.485269340070056e-10,5.028855755568039e-10,4.401247863442361e-10,4.1544537730034774e-10,3.5787853729309505e-10,2.9427441981940466e-10,2.552083828066983e-10,2.1457188433341432e-10,1.5741853254133606e-10,1.2597303313977475e-10,8.664741046054047e-11,6.07264638041977e-11,3.984187896773472e-11,2.5988240130427245e-11,1.497866534947977e-11,8.179840461517142e-12,4.411195640390485e-12,2.2763731242998487e-12,1.1403702674683419e-12,5.860474823499307e-13,2.7528166500814684e-13,1.3157454344972984e-13,5.764745154674649e-14,5.292510160657789e-09,4.158231847211609e-09,3.3614705394559893e-09,2.6432313375975932e-09,2.0182778898109567e-09,1.4943445423017858e-09,1.2053450710707375e-09,9.19688965791128e-10,6.893120355654783e-10,5.081608746830306e-10,3.9852584580003556e-10,2.974069229524466e-10,1.9688961409072915e-10,1.5853720689403436e-10,1.0085230711274627e-10,7.135189333973465e-11,4.3168372300918046e-11,2.6409984327976886e-11,1.4099574669502565e-11
0.0,45,45.0,0.0,30.0,0.0,0.0,0.0,0.0,-13.0,0.0,2.0,0.0,0.0,0.0,6.828647860308839e-10,6.571224489742356e-10,6.346766474941451e-10,5.675422868364665e-10,5.148090715682335e-10,4.758887988798411e-10,4.169181124155452e-10,3.6165003116652956e-10,3.210535621233165e-10,2.68613083504129e-10,2.108228026293663e-10,1.5962356059371013e-10,1.2613150633722932e-10,8.984118013901495e-11,6.086004064756021e-11,3.758327010936482e-11,2.4463709203948247e-11,1.4162213117517439e-11,8.147980629051533e-12,4.447870840328614e-12,2.2907411522085365e-12,1.1288703813464562e-12,5.765584270405103e-13,2.545802452445623e-13,1.2748772174190934e-13,5.1885514866167924e-14,5.478310091099884e-09,4.105236152357221e-09,3.377044229852193e-09,2.5766037063226463e-09,2.0092776743126836e-09,1.4915728891617977e-09,1.1583697682282393e-09,9.07155649150311e-10,6.982616950265972e-10,5.679081719727492e-10,3.9827833965057993e-10,3.074179180737538e-10,2.1058776463748206e-10,1.5147553904509222e-10,1.0691864300619785e-10,6.777204540085224e-11,4.526800790541507e-11,2.50198415773604e-11,1.4538117566012914e-11
0.0,46,46.0,0.0,30.0,0.0,0.0,0.0,0.0,-13.0,0.0,2.0,0.0,0.0,0.0,7.377773843575157e-10,6.657149430389215e-10,6.293352775351827e-10,5.710367553341446e-10,5.298348851071187e-10,4.7692161644284e-10,4.16904496525919e-10,3.7069440010933544e-10,3.2701648089880066e-10,2.636848200715014e-10,2.096320619537122e-10,1.6145836376164185e-10,1.164408586820987e-10,8.326812758182372e-11,5.927176339022736e-11,3.666406673492748e-11,2.3205159178322786e-11,1.4586643193725828e-11,8.350183435817996e-12,4.025802668237816e-12,2.2874459063935968e-12,1.0814567189816726e-12,5.254440341094205e-13,2.525413842719067e-13,1.2154212047904885e-13,4.9004252675753774e-14,5.488526673436021e-09,4.096238129915194e-09,3.344957292326702e-09,2.6871341045334536e-09,1.9927770364243193e-09,1.5543396083777275e-09,1.1954000538002297e-09,8.810016511795452e-10,7.209882749956336e-10,5.544542825585862e-10,4.101776204986143e-10,3.046923586027332e-10,2.2160482734345337e-10,1.5697278219346376e-10,1.1467196898458135e-10,7.35581891125335e-11,4.316498557345918e-11,2.3938915493243525e-11,1.25875917294893e-11
0.0,47,47.0,0.0,30.0,0.0,0.0,0.0,0.0,-13.0,0.0,2.0,0.0,0.0,0.0,6.883549511002337e-10,6.675014521745911e-10,6.515842952448837e-10,5.660037363209541e-10,5.345419483252914e-10,4.935069763328361e-10,4.243652524918628e-10,3.6704440599776716e-10,3.0106521598831427e-10,2.5016538635444724e-10,2.1060508627610193e-10,1.59563097437218e-10,1.197549447460846e-10,8.483229997504942e-11,5.889672050125755e-11,3.6528918327201196e-11,2.2877648714381633e-11,1.4364945280328431e-11,7.417019877515387e-12,4.02242520222602e-12,2.0409405417857547e-12,1.0455009621136256e-12,5.116539207665337e-13,2.3512419363343363e-13,1.0917712515487283e-13,4.8056167785025313e-14,5.498682008093532e-09,4.120482319130756e-09,3.2498051224931287e-09,2.383880320574685e-09,1.9085589305540136e-09,1.5304855595350077e-09,1.2123948336072546e-09,9.125607739079873e-10,6.713443101346989e-10,5.114458031158655e-10,4.106450497292173e-10,2.943560182973364e-10,2.359177322928568e-10,1.6244693859962043e-10,1.0468499075220643e-10,6.870043097016687e-11,4.216375202780338e-11,2.4312739754117716e-11,1.2928047908395794e-11
0.0,48,48.0,0.0,30.0,0.0,0.0,0.0,0.0,-13.0,0.0,2.0,0.0,0.0,0.0,6.983499435457939e-10,6.619852318736296e-10,6.175906098003525e-10,6.026993403534057e-10,5.337110980168201e-10,4.656826226611197e-10,4.228177987673091e-10,3.6222971866633886e-10,3.1282926519276403e-10,2.6755064178143057e-10,2.0978211752853393e-10,1.709827324672409e-10,1.1971612249072728e-10,8.156692385108167e-11,5.808083044801876e-11,3.771280899888846e-11,2.3174750332575715e-11,1.2690516734985565e-11,7.263146210612685e-12,4.005216186271519e-12,1.8743344472014104e-12,9.607860093321609e-13,4.4744658891448463e-13,2.1796674576887367e-13,1.006327445669418e-13,4.730233258064943e-14,5.372723545015004e-09,4.103007620106519e-09,3.1829876979836295e-09,2.575631735134202e-09,1.988684067492993e-09,1.596260740169328e-09,1.1985622955434658e-09,8.68478909497752e-10,6.867645683562553e-10,5.587611655395894e-10,4.082399912370549e-10,3.321357976390993e-10,2.2487578286849674e-10,1.6703663213113787e-10,1.0793820698483897e-10,6.976562071399059e-11,4.4302377453820074e-11,2.4515425000261284e-11,1.3611943502298288e-11
0.0,49,49.0,0.0,30.0,0.0,0.0,0.0,0.0,-13.0,0.0,2.0,0.0,0.0,0.0,7.336393691672672e-10,6.975141234873211e-10,6.202788465014685e-10,5.851322498567636e-10,5.446536944480423e-10,4.728534112908219e-10,4.526216918542517e-10,3.66645971420583e-10,3.1493975616850655e-10,2.537539258577603e-10,1.9478585858873133e-10,1.6786624936756407e-10,1.1655281087568538e-10,8.153672502805596e-11,5.5239405492816425e-11,3.7109240334222245e-11,2.110574334114271e-11,1.2893186924629884e-11,6.8966966584587946e-12,3.622894149395734e-12,1.9023760825112297e-12,9.468084098060529e-13,4.3229949930497603e-13,2.05279346264093e-13,9.380446708811989e-14,4.3699472690447225e-14,5.315525793335287e-09,3.9766280907660145e-09,3.422030881043555e-09,2.4575479998631784e-09,2.034070634117663e-09,1.5418140217907598e-09,1.1920765813258148e-09,8.956289731781444e-10,7.148792060513637e-10,5.225317408409861e-10,4.316534557745949e-10,3.3700545067289577e-10,2.4274275150708247e-10,1.5612333511649192e-10,1.082025712581793e-10,7.044946197956758e-11,4.3230423031950266e-11,2.4207389706452427e-11,1.2826506103921673e-11
0.0,50,50.0,0.0,30.0,0.0,0.0,0.0,0.0,-13.0,0.0,2.0,0.0,0.0,0.0,7.431462619210677e-10,7.128813253822153e-10,6.394363509148091e-10,6.085309185459414e-10,5.017761486580763e-10,4.767848933325448e-10,4.3174801165702253e-10,3.730761620579683e-10,3.229042824394235e-10,2.7032537663394957e-10,2.1103548673197724e-10,1.553630620930471e-10,1.1067816937509377e-10,8.264964605410797e-11,5.134814136400816e-11,3.5277994760423413e-11,2.0882386481204138e-11,1.170732745848196e-11,6.727568243140424e-12,3.5025313649916384e-12,1.765251125296155e-12,8.620278734918854e-13,4.163787426880746e-13,2.019051027074085e-13,9.252854206785322e-14,4.029950013086614e-14,5.399715028641892e-09,4.412520083833422e-09,3.337425891548494e-09,2.519180151378735e-09,1.920708863631206e-09,1.5422500457887868e-09,1.1375171329849144e-09,8.905027193946014e-10,7.209982283348433e-10,5.497327935298803e-10,4.208939448259912e-10,3.2810033148024374e-10,2.408907791697701e-10,1.670008813620615e-10,1.1078329377620213e-10,7.255386782789079e-11,4.268649447245312e-11,2.375504413290186e-11,1.3668473808538938e-11
0.0,51,51.0,0.0,30.0,0.0,0.0,0.0,0.0,-13.0,0.0,2.0,0.0,0.0,0.0,7.416968256713466e-10,7.197245230908703e-10,6.400939510355603e-10,5.777084408750133e-10,5.370741532060956e-10,4.920560719454163e-10,4.337568712399923e-10,3.969712101466203e-10,3.2020045566156324e-10,2.6637670497943776e-10,2.070028057865429e-10,1.5506352513653983e-10,1.1461294524291391e-10,8.389383514836283e-11,5.180194098161452e-11,3.432187273026306e-11,1.9614074075876602e-11,1.1461256703593796e-11,6.350530461670507e-12,3.3482997833265685e-12,1.7383642492972544e-12,8.083724745058405e-13,3.741131799789841e-13,1.865392995823367e-13,8.396344526557129e-14,3.6016206158135167e-14,5.3859637105214944e-09,3.9609113953974824e-09,3.329203520128483e-09,2.6037670235238713e-09,2.039453033159889e-09,1.6156479953392668e-09,1.1447727103656856e-09,9.391298435798521e-10,7.352896411128109e-10,5.63914296498462e-10,4.4776294166915895e-10,3.4009216258426414e-10,2.3525087873760573e-10,1.7097848581510518e-10,1.0935888007613853e-10,6.913337848353212e-11,3.959001452565884e-11,2.3163917700224467e-11,1.2335136949063792e-11
0.0,52,52.0,0.0,30.0,0.0,0.0,0.0,0.0,-13.0,0.0,2.0,0.0,0.0,0.0,7.575868055013866e-10,7.038967876674723e-10,6.281565396363293e-10,6.252687225577901e-10,5.5463970059614e-10,5.088843703978035e-10,4.574436924453009e-10,4.0087533202490076e-10,3.4166835400352724e-10,2.622217081056563e-10,2.08315546026859e-10,1.5059043893085638e-10,1.1636902456824369e-10,7.53615398291932e-11,4.880896318964496e-11,3.3250420233165495e-11,1.9139096118474846e-11,1.1353640050915317e-11,6.099296862005424e-12,2.9754080648576286e-12,1.4346463984720971e-12,7.309039662577445e-13,3.5735963966396496e-13,1.6346583565581156e-13,7.73742204905854e-14,3.0648864199317613e-14,5.430206992868229e-09,4.215489426238305e-09,3.229804697071354e-09,2.664156282108315e-09,2.072073050256305e-09,1.5598983232963703e-09,1.1281456101086621e-09,9.035082035584386e-10,7.47833457222018e-10,5.725122951200065e-10,4.459165724356869e-10,3.5100530566471545e-10,2.516550365268753e-10,1.7796948884363408e-10,1.1123374522898851e-10,7.30478433415573e-11,4.060791366261401e-11,2.406578155805199e-11,1.2108105397362576e-11
0.0,53,53.0,0.0,30.0,0.0,0.0,0.0,0.0,-13.0,0.0,2.0,0.0,0.0,0.0,7.34312697269575e-10,6.773463414670129e-10,6.606114611900912e-10,6.122241384914718e-10,5.777194604429747e-10,5.053018023149687e-10,4.427860773858509e-10,3.9945081287840225e-10,3.214465661180301e-10,2.579208315187336e-10,2.086717100023465e-10,1.5159010707996596e-10,1.1303859166924801e-10,7.496277985090834e-11,4.9748433176883174e-11,3.1420156929453184e-11,1.8412467732350136e-11,1.055219136558719e-11,5.837352145380674e-12,2.9772612839588306e-12,1.4820457770298002e-12,6.895406698718815e-13,3.3971445088929693e-13,1.6031460200361192e-13,7.580016378043663e-14,2.8859389254015306e-14,5.372530881649723e-09,4.281728817119301e-09,3.2151939925561078e-09,2.5376871510141702e-09,2.0966571085576483e-09,1.6262595899888556e-09,1.2446103435002972e-09,9.73327291882045e-10,7.302876697064331e-10,6.063726498083092e-10,4.5806278254050285e-10,3.3744982426973864e-10,2.4750953592403137e-10,1.7308575756550135e-10,1.1086612697940163e-10,6.850033616036893e-11,4.1646967692894626e-11,2.2606721116422382e-11,1.1785166642772998e-11
0.0,54,54.0,0.0,30.0,0.0,0.0,0.0,0.0,-13.0,0.0,2.0,0.0,0.0,0.0,7.654085103523526e-10,7.06416722642012e-10,6.47287391413294e-10,6.304836577580234e-10,5.612171048446693e-10,4.813950905530196e-10,4.4703628411102226e-10,3.7628833425582006e-10,3.3092892880392563e-10,2.6578726087419447e-10,2.0653023660193165e-10,1.487340865288812e-10,1.1106591567500388e-10,7.506941038489818e-11,4.786529336558647e-11,2.9647214679724013e-11,1.824852812133803e-11,9.865505065241682e-12,5.4169329922655795e-12,2.83972162826321e-12,1.4390572442886197e-12,6.83769111180065e-13,3.142882503124978e-13,1.3806438678278986e-13,6.635508334956236e-14,2.6395425628839413e-14,5.665930070067882e-09,4.111544014233225e-09,3.310757300198676e-09,2.560900864883265e-09,1.926508148721155e-09,1.5582938010052072e-09,1.2246703687992804e-09,9.25502924044844e-10,7.982646558645534e-10,5.737520078129998e-10,4.655586457455063e-10,3.6553216024594906e-10,2.454801346233974e-10,1.7531396807376774e-10,1.0815258282654405e-10,6.879990371745024e-11,3.719390414346913e-11,2.1380318494452214e-11,1.0787057721565649e-11
