Line_number,Fiducial,Easting,Northing,Height,Elevation,tx_pitch,tx_roll,tx_yaw,txrx_dx,txrx_dy,txrx_dz,rx_pitch,rx_roll,rx_yaw,S0Z_time_3.834e-04,S0Z_time_3.924e-04,S0Z_time_4.039e-04,S0Z_time_4.184e-04,S0Z_time_4.364e-04,S0Z_time_4.589e-04,S0Z_time_4.869e-04,S0Z_time_5.224e-04,S0Z_time_5.679e-04,S0Z_time_6.249e-04,S0Z_time_6.969e-04,S0Z_time_7.879e-04,S0Z_time_9.019e-04,S0Z_time_1.046e-03,S0Z_time_1.227e-03,S0Z_time_1.456e-03,S0Z_time_1.744e-03,S0Z_time_2.109e-03,S0Z_time_2.567e-03,S0Z_time_3.145e-03,S0Z_time_3.864e-03,S0Z_time_4.745e-03,S0Z_time_5.821e-03,S0Z_time_7.140e-03,S0Z_time_8.754e-03,S0Z_time_1.073e-02,S1Z_time_2.057e-05,S1Z_time_2.607e-05,S1Z_time_3.307e-05,S1Z_time_4.206e-05,S1Z_time_5.356e-05,S1Z_time_6.807e-05,S1Z_time_8.607e-05,S1Z_time_1.086e-04,S1Z_time_1.366e-04,S1Z_time_1.721e-04,S1Z_time_2.176e-04,S1Z_time_2.746e-04,S1Z_time_3.466e-04,S1Z_time_4.376e-04,S1Z_time_5.516e-04,S1Z_time_6.956e-04,S1Z_time_8.771e-04,S1Z_time_1.106e-03,S1Z_time_1.394e-03
0.0,0,0.0,0.0,30.0,0.0,0.0,0.0,0.0,-13.0,0.0,2.0,0.0,0.0,0.0,6.717046521717532e-10,6.067032586945147e-10,5.800408272598396e-10,5.157874466607093e-10,4.602564065805573e-10,4.159995050839192e-10,3.5297811831616613e-10,3.181388230369122e-10,2.621328252796676e-10,2.1787988635071008e-10,1.7618434475526019e-10,1.2606769106327247e-10,1.0272021533832383e-10,8.051223370119307e-11,6.065715708611402e-11,4.149550094793789e-11,3.209213222462139e-11,2.100628828968251e-11,1.3631208779082217e-11,8.748002322599998e-12,5.034203191776461e-12,3.064583623109232e-12,1.6881452384178022e-12,9.002771407363049e-13,4.74203045614194e-13,2.5086720186073665e-13,5.743990234455382e-09,4.389691770046174e-09,3.407252943614978e-09,2.6686892270105886e-09,2.0634306981831458e-09,1.6013476258894426e-09,1.2731327494307018e-09,9.459345122111095e-10,7.091886898920537e-10,4.841045910830679e-10,3.717182990670293e-10,2.745298967216722e-10,1.9570633701148397e-10,1.2618319896861391e-10,8.299996047848118e-11,5.279184267474411e-11,3.169490305726324e-11,2.077370269630074e-11,1.2764966639692287e-11
0.0,1,1.0,0.0,30.0,0.0,0.0,0.0,0.0,-13.0,0.0,2.0,0.0,0.0,0.0,6.717272925302681e-10,5.79945664949113e-10,5.772218707260239e-10,5.320636379591899e-10,4.591905678735143e-10,4.122625199666457e-10,3.426299401401216e-10,3.0623171830687616e-10,2.698761050135268e-10,2.1080324601696543e-10,1.7526773238830806e-10,1.3749920475838056e-10,1.0249510034366467e-10,7.554490397863688e-11,6.05544637499378e-11,4.2754016254444155e-11,3.1913896518001654e-11,1.9788000530803556e-11,1.3998686670583775e-11,7.906615660848795e-12,5.2737067731407346e-12,2.9699093368545514e-12,1.7169643792397882e-12,9.107286318692411e-13,4.802385947563112e-13,2.401505035453152e-13,5.599446617056697e-09,4.3318576283963135e-09,3.2789752472370885e-09,2.677970997649532e-09,1.912101950100072e-09,1.5756263205046145e-09,1.1676037004969485e-09,9.328725034658995e-10,6.988044184149448e-10,5.055724170266071e-10,3.7049855092799104e-10,2.7218545878060793e-10,1.846220537479603e-10,1.2208836853622893e-10,7.862057568979386e-11,5.334892285863595e-11,3.3310086658765836e-11,2.0343926753128534e-11,1.280837063553246e-11
0.0,2,2.0,0.0,30.0,0.0,0.0,0.0,0.0,-13.0,0.0,2.0,0.0,0.0,0.0,6.56036765687744e-10,6.436052043870662e-10,6.013472448625555e-10,5.00700589319642e-10,4.63602837909179e-10,4.2255551803726485e-10,3.6592945447358515e-10,3.031999360379687e-10,2.567053977749817e-10,2.1110552281038132e-10,1.80216806096091e-10,1.3662314455775573e-10,1.0540609828916713e-10,7.848334841940467e-11,5.997833712109e-11,4.256956717031704e-11,3.160821292320001e-11,2.1251862091990555e-11,1.2834862436811093e-11,8.312522290588556e-12,5.08301789399009e-12,2.8632712539832104e-12,1.639996204131686e-12,8.764712294316415e-13,4.614636354763357e-13,2.3489658345036196e-13,5.481863858277202e-09,4.06688566286652e-09,3.419316022698529e-09,2.498886984530387e-09,2.0858054017686474e-09,1.559802923145914e-09,1.1226168507635862e-09,9.13967374748275e-10,6.956867211292307e-10,5.242026355003565e-10,3.680344155157485e-10,2.646253557506874e-10,1.8335388683092154e-10,1.284873964203053e-10,8.06904519542956e-11,5.2093124900828255e-11,3.209529887177745e-11,2.072674395081038e-11,1.3009634959888411e-11
0.0,3,3.0,0.0,30.0,0.0,0.0,0.0,0.0,-13.0,0.0,2.0,0.0,0.0,0.0,6.511361423735306e-10,6.178307649209665e-10,5.819485429644153e-10,5.291255424962209e-10,4.6049091089764156e-10,4.377285595708226e-10,3.72595674281401e-10,3.11597933108584e-10,2.6946680504542683e-10,2.078180869090061e-10,1.74885366064293e-10,1.3806658923791354e-10,1.04505881484294e-10,7.994289074272428e-11,5.686563089905012e-11,4.3386206450901185e-11,3.019166082917964e-11,2.0750927228375424e-11,1.40110072795816e-11,8.22305481045328e-12,4.979685707078883e-12,3.097044531050222e-12,1.5550072589745575e-12,8.833532978264537e-13,4.656065876134711e-13,2.313898404901729e-13,5.4008852900449174e-09,4.226057818901178e-09,3.2323601596126905e-09,2.6578200781689536e-09,2.029222017154418e-09,1.5318337399880803e-09,1.1705507709992424e-09,9.206191866962842e-10,7.068583268700107e-10,5.227285863722657e-10,3.6937286293771877e-10,2.604585614149003e-10,1.827752713871037e-10,1.1844448891836204e-10,7.579778931788032e-11,5.0980626050788955e-11,3.32094282579282e-11,2.0035764138268836e-11,1.349910146282146e-11
0.0,4,4.0,0.0,30.0,0.0,0.0,0.0,0.0,-13.0,0.0,2.0,0.0,0.0,0.0,6.535612900880538e-10,6.70585465756354e-10,5.767570656522225e-10,5.157500561376491e-10,4.471409930998932e-10,4.083317834236824e-10,3.727991911887005e-10,3.1993653417054423e-10,2.7207981154213183e-10,2.1042262906063774e-10,1.6163192854555065e-10,1.2770883341748892e-10,1.0222944096485985e-10,7.868750133711135e-11,5.843858083574853e-11,4.484136049641033e-11,3.227073732553559e-11,2.03220393778179e-11,1.347923828242998e-11,8.01699704240127e-12,5.048179724457813e-12,2.7767972685342305e-12,1.5608710030447769e-12,8.868090121745872e-13,4.5004281242680323e-13,2.3517287239140813e-13,5.156769201014451e-09,4.330149725228057e-09,3.213903149727529e-09,2.5402161407705253e-09,2.0226823627806785e-09,1.4684014895127871e-09,1.2140537888668094e-09,9.050525225876437e-10,7.05398766345933e-10,5.2203379211331e-10,3.873728865912483e-10,2.5865507674376476e-10,1.9254837361823852e-10,1.1672770518091185e-10,8.364868605706961e-11,5.057315033083782e-11,3.2528455560215356e-11,2.1313246223190676e-11,1.2472258814333593e-11
0.0,5,5.0,0.0,30.0,0.0,0.0,0.0,0.0,-13.0,0.0,2.0,0.0,0.0,0.0,6.276625886025018e-10,6.053161706184853e-10,5.609733251832982e-10,5.306742645379065e-10,4.826536278240415e-10,4.082444736167705e-10,3.6391074007502024e-10,3.052227533426956e-10,2.585970578230113e-10,2.147804735409808e-10,1.779583636074367e-10,1.3938112862654407e-10,9.97783681710813e-11,7.723237561987065e-11,5.958006603731902e-11,4.6634897117315635e-11,2.976268113503842e-11,2.1464803933104612e-11,1.3366987517109684e-11,8.379289788720586e-12,4.761667778079599e-12,2.924586809002049e-12,1.6276626796264511e-12,8.621007038503009e-13,4.434755356057142e-13,2.276685502643214e-13,5.419016898664089e-09,4.458177907260682e-09,3.366953422682258e-09,2.685658398324902e-09,2.0612756623133548e-09,1.5130359699886288e-09,1.1806983307564694e-09,9.260724845280882e-10,6.750672336559119e-10,5.254816958847041e-10,3.7871523173027496e-10,2.573096095230711e-10,1.742312309607453e-10,1.184264027051711e-10,7.620261355000991e-11,4.968600998875953e-11,3.383319299623475e-11,2.1038768792752382e-11,1.2873196968707404e-11
0.0,6,6.0,0.0,30.0,0.0,0.0,0.0,0.0,-13.0,0.0,2.0,0.0,0.0,0.0,6.560425219415098e-10,6.053050601787042e-10,5.77730395195076e-10,5.126489684795253e-10,4.743558451077195e-10,4.1893983169532127e-10,3.6345112801613147e-10,3.3097472005745424e-10,2.422582575479874e-10,2.117867415423767e-10,1.713683158142818e-10,1.3581091205429415e-10,1.0387947327078288e-10,8.225079579657262e-11,6.022291375114673e-11,4.508106165101636e-11,3.0406242171459804e-11,2.1607120132683265e-11,1.3305383315756015e-11,8.396288422443568e-12,4.698620531456713e-12,2.721028713123865e-12,1.5216781994998419e-12,8.172644165514582e-13,4.3105592983622717e-13,2.274860500919368e-13,5.541833155648519e-09,4.1016924999522424e-09,3.3052143193493677e-09,2.6401441906705562e-09,2.0543522507982474e-09,1.5635915907755946e-09,1.1051435009800536e-09,9.791455612419796e-10,7.315954801128067e-10,5.050949058046793e-10,3.523875817329361e-10,2.4616664848916496e-10,1.8663970091339775e-10,1.1945012639347546e-10,8.185421803713675e-11,5.1262686569086754e-11,3.376520438517731e-11,2.0813469750066147e-11,1.2641994607036845e-11
0.0,7,7.0,0.0,30.0,0.0,0.0,0.0,0.0,-13.0,0.0,2.0,0.0,0.0,0.0,6.794354330600364e-10,5.784487526787225e-10,5.490214399308306e-10,5.202272356256818e-10,4.762437086932426e-10,3.967780288744766e-10,3.632177937278209e-10,2.956605216813156e-10,2.668392571973289e-10,2.1981824806654838e-10,1.7381595815858154e-10,1.3451094400011344e-10,1.0343770746790281e-10,7.675619078488156e-11,6.244967235055905e-11,4.366743823281601e-11,2.964362661262264e-11,1.9709098071163387e-11,1.3198088030097383e-11,7.904457625071097e-12,4.9619951724690055e-12,2.9286563968969677e-12,1.6045349625443253e-12,8.084436596699258e-13,4.297821224526697e-13,2.1893745622801264e-13,5.2658017482248815e-09,4.1707210645765074e-09,3.264852991776046e-09,2.544008414582399e-09,2.063221215257521e-09,1.5919617147010102e-09,1.199531929739425e-09,9.237906197635454e-10,6.666290680502987e-10,5.086069006526515e-10,3.7163968745983213e-10,2.6830602538184637e-10,1.9038464288593393e-10,1.2460556977846422e-10,8.308394089338636e-11,5.084880409064467e-11,3.328893124257496e-11,2.121302850583712e-11,1.3304758974147834e-11
0.0,8,8.0,0.0,30.0,0.0,0.0,0.0,0.0,-13.0,0.0,2.0,0.0,0.0,0.0,6.647727997677265e-10,6.297855752143146e-10,5.590867392158115e-10,5.140353430490453e-10,4.525409403903462e-10,4.2660137440817774e-10,3.500994102533812e-10,3.161799034640358e-10,2.604470893838181e-10,2.1420912954256065e-10,1.6992047792436203e-10,1.439265384971185e-10,1.1008727183539108e-10,7.820006513688295e-11,6.07814265682003e-11,4.3903030979684047e-11,3.177842824688609e-11,2.1360399842791364e-11,1.361854476967882e-11,8.53490603460465e-12,4.7183063916577234e-12,2.7543643719753698e-12,1.5418104322036751e-12,8.460446004346872e-13,4.153602388747094e-13,2.2043743949380893e-13,5.21286657300853e-09,4.102014743051935e-09,3.3948015287458878e-09,2.5978528496166603e-09,2.043496190203311e-09,1.6155903462713997e-09,1.2263055062793264e-09,9.16589880547312e-10,7.223334855744489e-10,5.046426629965454e-10,3.5355743876466633e-10,2.59208346750377e-10,1.8351858781971398e-10,1.2131216243515892e-10,8.103740907281133e-11,5.486146432821234e-11,3.262222454624928e-11,2.1096725546493393e-11,1.3456041891662361e-11
0.0,9,9.0,0.0,30.0,0.0,0.0,0.0,0.0,-13.0,0.0,2.0,0.0,0.0,0.0,6.681886960749015e-10,6.305950686679266e-10,5.90011558540361e-10,5.525815446965116e-10,4.595837933016717e-10,4.062863626926958e-10,3.6743589877600276e-10,3.166601340644322e-10,2.547661617350504e-10,2.1847817822246948e-10,1.7506298502318254e-10,1.3988497624722721e-10,1.1321449660626975e-10,8.48353038217516e-11,6.16132798649376e-11,4.288198469592845e-11,3.035536155154883e-11,1.9716908406374276e-11,1.3738586901577672e-11,8.216795266708397e-12,4.8465709235268626e-12,2.6524660778189985e-12,1.4388302686660725e-12,7.886188360409444e-13,4.007902590568396e-13,2.1640793760567326e-13,5.461925559804183e-09,4.058874499358743e-09,3.2892797701519548e-09,2.661252851229355e-09,2.0844487711078805e-09,1.4970617861098747e-09,1.2187590071234757e-09,9.228222817584993e-10,6.744334835265004e-10,5.153403782922953e-10,3.6626764821246863e-10,2.5269332235618927e-10,1.74821757692522e-10,1.2235765192815806e-10,7.513248925799257e-11,5.453978804815284e-11,3.219819223108499e-11,2.2243605456740567e-11,1.2750897378307795e-11
0.0,10,10.0,0.0,30.0,0.0,0.0,0.0,0.0,-13.0,0.0,2.0,0.0,0.0,0.0,6.71758450619124e-10,6.235891390932704e-10,5.538039009244078e-10,5.305004556677436e-10,4.6245165119110394e-10,3.9368750562654683e-10,3.6007621312091945e-10,2.8918426915849916e-10,2.4914600084009826e-10,2.162187000180851e-10,1.711480318807788e-10,1.4129320993489178e-10,1.0358495240415678e-10,8.112002371276846e-11,5.898249603518113e-11,4.37244517562641e-11,3.1343577042806295e-11,2.026697357967062e-11,1.3616616263332047e-11,8.240381262867795e-12,4.725025826031008e-12,2.8302013139136215e-12,1.4965164099230936e-12,7.72321829649252e-13,4.0701677035710426e-13,1.955382465933084e-13,5.360471282924827e-09,4.239683916633866e-09,3.337271491158375e-09,2.4638811384075777e-09,2.1063114069718814e-09,1.5556044173359074e-09,1.1898516467294493e-09,9.43853278648726e-10,6.921091962105628e-10,5.023961470586925e-10,3.6637446816087434e-10,2.770007059619759e-10,1.892243149337018e-10,1.2742609871916727e-10,8.07116793348745e-11,5.249892966703808e-11,3.40755264171785e-11,2.1648049078260765e-11,1.3384203540456134e-11
0.0,11,11.0,0.0,30.0,0.0,0.0,0.0,0.0,-13.0,0.0,2.0,0.0,0.0,0.0,6.54296589842146e-10,5.982846832108288e-10,5.841244229331785e-10,5.021724926331197e-10,4.61271246362622e-10,4.006414394135621e-10,3.598645394275063e-10,3.0588909595741593e-10,2.5216385909880416e-10,2.1233946091121015e-10,1.7751327176095245e-10,1.354646084672288e-10,1.0889548982604145e-10,8.401606453722765e-11,6.343719948503067e-11,4.467445248479941e-11,3.1178967981770866e-11,2.0197242016917898e-11,1.3071333121249422e-11,8.249771114439209e-12,4.712606021063472e-12,2.8444896050783577e-12,1.4634944410506031e-12,7.537025555967299e-13,3.892000909357185e-13,2.0185871636328568e-13,5.364446186321492e-09,4.153396693538066e-09,3.223863190985876e-09,2.649160471240324e-09,2.0427991426886173e-09,1.5698985174724683e-09,1.2129143818555599e-09,9.37981708870628e-10,7.050854176472418e-10,5.177196623853728e-10,3.621720103801104e-10,2.609388719910607e-10,1.8607692479487492e-10,1.2504225701957052e-10,8.684643316570394e-11,5.3221877886208224e-11,3.373532283934327e-11,2.128900143414305e-11,1.302030114595325e-11
0.0,12,12.0,0.0,30.0,0.0,0.0,0.0,0.0,-13.0,0.0,2.0,0.0,0.0,0.0,6.75777989562913e-10,6.171574176567379e-10,5.573357464387795e-10,5.032647302995318e-10,4.88546521204892e-10,3.991909461934719e-10,3.688636884234892e-10,3.086511581340966e-10,2.572738002089003e-10,2.1539980507193626e-10,1.7339343789454612e-10,1.342805058488218e-10,1.0323100856530755e-10,8.083886263717502e-11,5.857574363043157e-11,4.297456041577789e-11,3.0523332197580005e-11,1.9274203776940924e-11,1.2962082229429608e-11,8.036625479799431e-12,4.867781242759351e-12,2.688848421810914e-12,1.4696944929649316e-12,7.656079026019938e-13,3.9956749224687586e-13,2.1334222968604835e-13,5.305028036689526e-09,4.479321784036868e-09,3.3472608483704854e-09,2.704521582267089e-09,2.0269151345358626e-09,1.5753410763780186e-09,1.2309634254511531e-09,9.049667513858722e-10,7.060684925609162e-10,5.123662616587501e-10,3.6522179204243003e-10,2.612621242350259e-10,1.7178151742453046e-10,1.2922283705510977e-10,8.029204217229113e-11,5.41520097724326e-11,3.6391051473678615e-11,2.3430220250306664e-11,1.4122868214578698e-11
0.0,13,13.0,0.0,30.0,0.0,0.0,0.0,0.0,-13.0,0.0,2.0,0.0,0.0,0.0,6.35900272635859e-10,6.486711030743825e-10,5.154631875128076e-10,5.067514349040528e-10,4.774131987153688e-10,4.035793545489009e-10,3.734819251548429e-10,2.9800575389884797e-10,2.711562383520693e-10,2.136284456649674e-10,1.7682541613344692e-10,1.3531252863747755e-10,1.1119239117704007e-10,8.49858556803295e-11,6.052705723935898e-11,4.429066963104468e-11,3.087078736991907e-11,2.1826938819654578e-11,1.383657850176933e-11,8.187823168646147e-12,4.8061084311451384e-12,2.6603334343950037e-12,1.465519778810438e-12,7.662928857685631e-13,3.665958714292675e-13,1.9720943392996439e-13,5.161368805485622e-09,4.211135531552348e-09,3.3418446913678735e-09,2.55933698571706e-09,2.0335497898477586e-09,1.588314144726538e-09,1.2096722120572794e-09,9.245542584135439e-10,6.889764853529281e-10,5.219168383388641e-10,3.665887292955828e-10,2.4824504359013816e-10,1.7424103309143133e-10,1.2727182770482444e-10,7.91701247375044e-11,5.2767307142581787e-11,3.607104343329927e-11,2.1907772310168536e-11,1.4263711508882244e-11
0.0,14,14.0,0.0,30.0,0.0,0.0,0.0,0.0,-13.0,0.0,2.0,0.0,0.0,0.0,6.616807674922552e-10,6.256794288871714e-10,6.241803882628456e-10,5.018663435213586e-10,4.709145432387686e-10,4.024170281217549e-10,3.57068168382803e-10,3.0065437365506434e-10,2.5602944973649234e-10,2.139662235468037e-10,1.7242912010077286e-10,1.3331457847404702e-10,1.0700664189733307e-10,8.237119585449324e-11,6.123350995109074e-11,4.440718171449655e-11,3.0800196481810486e-11,2.092154589445536e-11,1.2364193722451547e-11,7.85824292674875e-12,4.718377958244652e-12,2.688525575601577e-12,1.358041409072901e-12,7.585021791501321e-13,3.853157822321546e-13,1.8864903910537408e-13,5.5830295502601605e-09,4.350520323245405e-09,3.273660757299403e-09,2.4777287978436186e-09,2.0445473741413285e-09,1.6185162036430998e-09,1.1348759094379962e-09,9.461595213500796e-10,7.013412310766198e-10,5.111529638241107e-10,3.5363425236546437e-10,2.61526731801911e-10,1.7500548300801298e-10,1.296578458666982e-10,8.139751092307337e-11,5.505761249319134e-11,3.448231428325189e-11,2.2516288811693898e-11,1.3734633946180155e-11
0.0,15,15.0,0.0,30.0,0.0,0.0,0.0,0.0,-13.0,0.0,2.0,0.0,0.0,0.0,6.777197451154274e-10,6.092492245084676e-10,5.64126621240051e-10,5.371881680011185e-10,4.4664147186264293e-10,4.082935206811711e-10,3.6532557636825595e-10,3.170134131963642e-10,2.574592447640776e-10,2.1712781829064508e-10,1.703920890808639e-10,1.402674541264939e-10,1.0647823411436225e-10,8.599153067975982e-11,6.536707469119943e-11,4.474740073516431e-11,3.0183691565719475e-11,2.0681457245160146e-11,1.2496622546794747e-11,7.989191924346914e-12,4.4535525398279035e-12,2.6376115732683913e-12,1.4756721147252262e-12,7.004981010512949e-13,3.542155014584969e-13,1.754918216266886e-13,5.172379689382946e-09,4.257841518029864e-09,3.491411785762185e-09,2.6506404959226225e-09,2.0259110591747958e-09,1.5303091116808124e-09,1.1940232188484726e-09,9.652389050463615e-10,7.027102077721935e-10,4.984116186606242e-10,3.823610196517471e-10,2.5311978247276597e-10,1.7248789758830278e-10,1.1746944988626105e-10,8.054754683999548e-11,5.271710792688057e-11,3.6018386364085945e-11,2.222399634127525e-11,1.4654787280785535e-11
0.0,16,16.0,0.0,30.0,0.0,0.0,0.0,0.0,-13.0,0.0,2.0,0.0,0.0,0.0,6.676993600231762e-10,6.172225867962404e-10,5.893156296086125e-10,5.297399890344504e-10,4.545287090650045e-10,4.104560104578131e-10,3.6712250750207196e-10,3.1658358366195843e-10,2.6551118401527255e-10,2.2457447622943145e-10,1.7677519762686442e-10,1.4480416378451364e-10,1.070047176054766e-10,8.661478587060204e-11,6.453750430319915e-11,4.7827806984662274e-11,3.2289433881212704e-11,2.0621861174415143e-11,1.3504391966174094e-11,7.76914604999905e-12,4.860396422021722e-12,2.4462437860867462e-12,1.3231539976010294e-12,7.091847429103059e-13,3.725927866867551e-13,1.6870755693707162e-13,5.507762165099417e-09,4.271164195110572e-09,3.325865858902467e-09,2.6281997457424025e-09,1.962194502494106e-09,1.595216267161595e-09,1.1878504002314866e-09,9.379685846277352e-10,6.935248407538636e-10,4.971448581936987e-10,3.6695928526742585e-10,2.5464911400350206e-10,1.7899962108282604e-10,1.2470975229660126e-10,8.255879603039084e-11,5.4572340871063965e-11,3.452539518107938e-11,2.3208175051908953e-11,1.4051472010065136e-11
0.0,17,17.0,0.0,30.0,0.0,0.0,0.0,0.0,-13.0,0.0,2.0,0.0,0.0,0.0,6.360517613462796e-10,6.097867800191607e-10,5.47533336524232e-10,5.037548894859391e-10,4.6076786922894646e-10,4.2519706005329915e-10,3.5807716127671226e-10,3.248756181786785e-10,2.4635163112339363e-10,2.2052822464132114e-10,1.6846832184810605e-10,1.464344447437487e-10,1.076540432454278e-10,8.519488373552857e-11,6.172634469121485e-11,4.4710028627264096e-11,3.135254796305936e-11,2.0456030196094598e-11,1.3103365101195419e-11,7.674424559782232e-12,4.888349607818045e-12,2.4857229909285745e-12,1.3874983791052426e-12,7.566063590650048e-13,3.543515985945883e-13,1.7901440848453748e-13,5.482211342490642e-09,4.374873692942751e-09,3.41858126102591e-09,2.524971571014648e-09,2.075379354187705e-09,1.5521035061592004e-09,1.2061296123874364e-09,9.561204740073669e-10,6.731037315631376e-10,5.278245820239488e-10,3.690197865859719e-10,2.6471081966341115e-10,1.827054767301012e-10,1.209627547078292e-10,8.515700791580273e-11,5.6231981496151684e-11,3.525144928270851e-11,2.334968562777047e-11,1.4239983350494073e-11
0.0,18,18.0,0.0,30.0,0.0,0.0,0.0,0.0,-13.0,0.0,2.0,0.0,0.0,0.0,6.3961189383461e-10,6.516120613083552e-10,5.368503279782959e-10,5.35178960155021e-10,4.967129163130147e-10,4.18470871987442e-10,3.594324216851765e-10,3.073735169601689e-10,2.6258779928495074e-10,2.1074892009632013e-10,1.6899292271249597e-10,1.4706591472393728e-10,1.0995845529438086e-10,8.495031127870387e-11,6.159104906067386e-11,4.603791656875861e-11,2.9920314584742685e-11,2.056697898004138e-11,1.3585973254290808e-11,7.735810348930322e-12,4.4297749532706936e-12,2.4557283219489547e-12,1.3346313205284136e-12,6.569031761476659e-13,3.3990939266520414e-13,1.6932669856606616e-13,5.358790605886695e-09,4.325259321885094e-09,3.335509752253649e-09,2.4908225160664422e-09,2.1215599964565116e-09,1.5668780753962794e-09,1.16698486247898e-09,8.666535659750333e-10,6.817848667718974e-10,5.250184515067936e-10,3.609168035024505e-10,2.5914389494072106e-10,1.7236516330952008e-10,1.1780277786117406e-10,8.228685792112387e-11,5.1917827785389257e-11,3.5803966936033804e-11,2.2200736101194933e-11,1.370302968878372e-11
0.0,19,19.0,0.0,30.0,0.0,0.0,0.0,0.0,-13.0,0.0,2.0,0.0,0.0,0.0,6.422936192525924e-10,6.410957678844972e-10,5.554182058119285e-10,5.248201945310976e-10,4.674164376378355e-10,4.276417199065662e-10,3.6107467717562063e-10,3.140667804553985e-10,2.6685890020597703e-10,2.2437479267046817e-10,1.8094311128128914e-10,1.4275836545460465e-10,1.1128821376231337e-10,8.32021238257265e-11,6.366662636170984e-11,4.692889348684061e-11,3.164623595225102e-11,2.0013862909492338e-11,1.3000566617964485e-11,7.519107867646222e-12,4.3873575666448896e-12,2.345839935226671e-12,1.3131879280020757e-12,6.804392960322968e-13,3.3648095431767993e-13,1.7979141160860714e-13,5.275725734430837e-09,4.177737329769544e-09,3.4241535424437344e-09,2.525411527827896e-09,2.1919476259258957e-09,1.4954440508229593e-09,1.2460410795613848e-09,8.821819775492135e-10,6.989358919499252e-10,5.301602118540022e-10,3.7575671966704023e-10,2.5365878603881136e-10,1.723421234744381e-10,1.2619703579288781e-10,7.896164134454082e-11,5.932549097593647e-11,3.885603428098296e-11,2.3497251182662617e-11,1.4503103539502714e-11
0.0,20,20.0,0.0,30.0,0.0,0.0,0.0,0.0,-13.0,0.0,2.0,0.0,0.0,0.0,6.691253586849746e-10,6.229964712244112e-10,6.109959743549129e-10,5.194137533372961e-10,4.758989999732921e-10,3.9887046547874995e-10,3.6399959471565174e-10,3.1825299765713167e-10,2.605632188447302e-10,2.1783216295120723e-10,1.7600060726003054e-10,1.3575152769494142e-10,1.143779000869919e-10,8.142074130449085e-11,6.252292435246148e-11,4.3674543723684584e-11,2.991996851435899e-11,1.9990417148074637e-11,1.2604013734610512e-11,7.650134629125591e-12,4.248432857709315e-12,2.2881770369991013e-12,1.3032562876505094e-12,6.65480729516046e-13,3.310315380107119e-13,1.594505491581248e-13,5.307067790198713e-09,4.175948625044898e-09,3.384591382776603e-09,2.5538050589603256e-09,1.9484143085168803e-09,1.5392545268123635e-09,1.1192222211426168e-09,9.367464157112731e-10,6.978441496555812e-10,4.947231285750146e-10,3.7801653599791056e-10,2.538183411787583e-10,1.7827068179196562e-10,1.2268813017383763e-10,8.638763864079361e-11,5.623397326484846e-11,3.6601046747642e-11,2.2494849529165864e-11,1.360682039584343e-11
0.0,21,21.0,0.0,30.0,0.0,0.0,0.0,0.0,-13.0,0.0,2.0,0.0,0.0,0.0,6.734451603148156e-10,6.088400220572778e-10,5.693465477311058e-10,5.262192533173306e-10,4.6258204676687255e-10,4.084169718887576e-10,3.8008333037416046e-10,3.2753258402108835e-10,2.8042440291033764e-10,2.257169553965317e-10,1.8265470063384003e-10,1.4219889728422434e-10,1.1485141127332127e-10,8.55460828215792e-11,6.402216448363712e-11,4.418023988000475e-11,3.092853375306473e-11,2.0162290326043632e-11,1.2023649076130265e-11,7.901685084591267e-12,4.248250195520665e-12,2.436488764907476e-12,1.21468964502174e-12,6.573055657726449e-13,3.2099588882287626e-13,1.5118117823616897e-13,5.535600603362078e-09,4.183169935956847e-09,3.2085538856244472e-09,2.5385484441642867e-09,1.9653868683352902e-09,1.5539897851165192e-09,1.1824425470586807e-09,9.277081231901769e-10,6.955219670274275e-10,5.228292603742403e-10,3.857207552732578e-10,2.6225108077292884e-10,1.694953604194916e-10,1.2523562787682087e-10,8.606807195852351e-11,5.756763227437812e-11,3.6012052956742677e-11,2.2828869115754356e-11,1.4777229343867013e-11
0.0,22,22.0,0.0,30.0,0.0,0.0,0.0,0.0,-13.0,0.0,2.0,0.0,0.0,0.0,6.743990042125217e-10,5.973806159157242e-10,5.948872424141207e-10,5.194935252986072e-10,4.549403583047354e-10,4.464475854273266e-10,3.651194243625293e-10,3.2110381316811485e-10,2.625625712410118e-10,2.333827594669412e-10,1.723773042575446e-10,1.5080614966230264e-10,1.1611078594295973e-10,9.073913341341202e-11,6.610414815680427e-11,4.759171192569027e-11,3.23819587648281e-11,2.0793039062578313e-11,1.2608696147786488e-11,7.611421234219838e-12,4.415387075959549e-12,2.3146677487201773e-12,1.2076929091785828e-12,5.989157232581354e-13,3.257016744317114e-13,1.581699923778194e-13,5.441635837017113e-09,4.2669534666666615e-09,3.180795654651358e-09,2.601827145393175e-09,1.939269255826921e-09,1.6341523908258709e-09,1.282991430406049e-09,9.170058254315407e-10,6.842580214157902e-10,5.043884610585637e-10,3.671698350939724e-10,2.6369145106201113e-10,1.7954576077174558e-10,1.2614026919809418e-10,8.323666680649011e-11,5.530771726530585e-11,3.709494258618664e-11,2.4932865170971112e-11,1.4096323470771125e-11
0.0,23,23.0,0.0,30.0,0.0,0.0,0.0,0.0,-13.0,0.0,2.0,0.0,0.0,0.0,6.602423360973967e-10,6.312499538574368e-10,5.673071358846425e-10,5.594298547717893e-10,4.759445975009381e-10,4.308642005741806e-10,3.6747409590764235e-10,3.388924279671266e-10,2.6964863854799526e-10,2.2230630205580952e-10,1.803266025650112e-10,1.47654297144277e-10,1.1656222749543573e-10,8.605512815907211e-11,6.219561089428023e-11,4.392788090749755e-11,3.162959310903135e-11,2.0354668715572987e-11,1.2836304231997892e-11,7.446750653367319e-12,4.056636587670114e-12,2.3176958555036056e-12,1.2549361976627423e-12,6.38643608075752e-13,3.1364654384162495e-13,1.4868927786478425e-13,5.227356165024293e-09,4.223224859206e-09,3.2560427722824403e-09,2.5798149746639797e-09,1.9016973553485103e-09,1.5458704689216489e-09,1.1660260241445459e-09,9.090097248185996e-10,6.877723851641637e-10,4.852391011762737e-10,3.6535226869837766e-10,2.581821831339321e-10,1.8382953938083018e-10,1.223137616456201e-10,8.422820726641084e-11,5.457744403986167e-11,4.132687013699441e-11,2.3973458595297567e-11,1.4366871679344904e-11
0.0,24,24.0,0.0,30.0,0.0,0.0,0.0,0.0,-13.0,0.0,2.0,0.0,0.0,0.0,6.448467424508138e-10,6.117587388614453e-10,5.484047423708122e-10,5.231059244653951e-10,4.774572126849884e-10,4.224022895626964e-10,3.7489177212318275e-10,3.255984944693512e-10,2.7751786389296505e-10,2.24151363825806e-10,1.8467317704960322e-10,1.4699459727155635e-10,1.1586174459067422e-10,9.300471487376104e-11,6.522075504062824e-11,4.6763235994563474e-11,3.071485590245453e-11,1.9921964413262452e-11,1.2054384329078259e-11,7.0940255738113436e-12,4.321600719735502e-12,2.2116732506003787e-12,1.2036543659286181e-12,5.812336158109178e-13,2.856206566459185e-13,1.4359339036714614e-13,5.487189298564286e-09,4.4025584837220935e-09,3.36360448033503e-09,2.6120531588601727e-09,2.0094235084846357e-09,1.6118318484163594e-09,1.2451243977412422e-09,9.225086191764927e-10,7.024591280909774e-10,4.901796566092738e-10,3.7952795491002e-10,2.5172116584317814e-10,1.7530463866540516e-10,1.2520436136880563e-10,8.898422730861839e-11,5.934910235853272e-11,3.9052361607155775e-11,2.3567550086116077e-11,1.5777143904504278e-11
0.0,25,25.0,0.0,30.0,0.0,0.0,0.0,0.0,-13.0,0.0,2.0,0.0,0.0,0.0,6.742447209952422e-10,5.713236270343108e-10,5.407033232352478e-10,5.348289815024861e-10,4.42160406009153e-10,4.1133536046046354e-10,3.641629964100732e-10,3.0767872185676596e-10,2.7060495262433053e-10,2.2464455194777402e-10,1.8390979135872094e-10,1.4393937517895539e-10,1.1582555555032558e-10,9.061299346148842e-11,6.447903277481874e-11,4.753830587413389e-11,3.089453013880872e-11,2.053735715893831e-11,1.2166460821499835e-11,7.314442318317033e-12,3.705620839995724e-12,2.3657628841030668e-12,1.0944678167704048e-12,5.887260046843367e-13,2.991506853021314e-13,1.4035791833503552e-13,5.173226190817464e-09,4.144789613833962e-09,3.3821894567750353e-09,2.58897664312788e-09,1.988519411208662e-09,1.6705871020354396e-09,1.2490286906089422e-09,9.204344713758252e-10,6.65042563799455e-10,4.974390961592967e-10,3.5894952833950064e-10,2.591189123696785e-10,1.7609523133925061e-10,1.2829998657597038e-10,8.078398098163566e-11,5.965430124232243e-11,3.839552046403179e-11,2.4452744674594112e-11,1.494355079233969e-11
0.0,26,26.0,0.0,30.0,0.0,0.0,0.0,0.0,-13.0,0.0,2.0,0.0,0.0,0.0,6.422762512223249e-10,6.574719612566393e-10,5.664031085728379e-10,5.385034983598927e-10,4.773064837134484e-10,4.0175865132690653e-10,3.7484902103019026e-10,3.1074550832105336e-10,2.762161140444176e-10,2.3128352585476493e-10,1.8082981776543732e-10,1.4744246450251456e-10,1.185590384066411e-10,8.829067216178182e-11,6.490425978548672e-11,4.471555295073945e-11,3.058708388103086e-11,2.0403454200113504e-11,1.2218333096468923e-11,7.0462497537607016e-12,3.862205116463979e-12,2.0995321906162484e-12,1.1192306956871593e-12,5.961774839763551e-13,2.8219615151624316e-13,1.425637423357156e-13,5.456346963036229e-09,4.3502816371558626e-09,3.3065062763817957e-09,2.448673394166386e-09,1.9516798928778446e-09,1.5702152890588288e-09,1.2311378975878128e-09,9.264147121264819e-10,6.716000961385394e-10,5.213119320358934e-10,3.8895797986326267e-10,2.64134905898531e-10,1.7409398727133336e-10,1.2994185196654926e-10,8.713614838286176e-11,5.925472368007295e-11,4.0369725739421107e-11,2.4015260701581352e-11,1.5265436382072526e-11
0.0,27,27.0,0.0,30.0,0.0,0.0,0.0,0.0,-13.0,0.0,2.0,0.0,0.0,0.0,6.596104707470316e-10,6.053991310466396e-10,5.947965075680469e-10,5.22540672888752e-10,4.959492049473056e-10,4.296223131267754e-10,3.7288559169152934e-10,3.1898068184570046e-10,2.747603041234547e-10,2.1877189918119673e-10,1.8642803019605725e-10,1.4702733073444206e-10,1.2116195166681934e-10,8.702341538610559e-11,6.558913996603141e-11,4.628031742576742e-11,3.262008824204333e-11,2.025605909651879e-11,1.1666280554192378e-11,6.877966132980449e-12,4.044593447941668e-12,2.1252285986356922e-12,1.0845815608993893e-12,5.499101555637943e-13,2.721024046554889e-13,1.348821672892583e-13,5.449572160518191e-09,4.17290636390443e-09,3.4626634837181987e-09,2.6078762267666906e-09,2.108581906790402e-09,1.5407532459091604e-09,1.1903873045683167e-09,8.916687630990275e-10,6.669123768097057e-10,5.195836046530309e-10,3.710585731879041e-10,2.558204580619406e-10,1.826442572644727e-10,1.2023453686185415e-10,8.873762369682359e-11,5.7881631678242106e-11,4.101985715323221e-11,2.533260818909924e-11,1.4925332824724174e-11
0.0,28,28.0,0.0,30.0,0.0,0.0,0.0,0.0,-13.0,0.0,2.0,0.0,0.0,0.0,6.635989558260421e-10,6.135297313486008e-10,6.131283245478929e-10,5.179869571303995e-10,4.724565168751938e-10,4.2857216442738937e-10,3.533399504114522e-10,3.135076869063047e-10,2.804745665465208e-10,2.3160266521136226e-10,1.889061840935563e-10,1.4428510820071302e-10,1.1301773825713155e-10,9.370171447194662e-11,6.608803034038952e-11,4.6823531348850675e-11,3.013777780027637e-11,1.9491020623080976e-11,1.1236227998598326e-11,6.736000647878831e-12,3.879953983788625e-12,1.984221800799341e-12,1.0671247675131747e-12,5.167297191729082e-13,2.605418162487448e-13,1.2540642654664175e-13,5.599543629253279e-09,4.282726660254289e-09,3.4687977509880664e-09,2.681493235148639e-09,2.0662269831620927e-09,1.5036005318606213e-09,1.2158309927651777e-09,9.021508845466407e-10,7.103089896014316e-10,5.074209499356995e-10,3.801193169055037e-10,2.603593026322153e-10,1.8651385711207246e-10,1.263702339824168e-10,8.70632223149446e-11,6.09217669974581e-11,4.03018905269737e-11,2.5438620670521962e-11,1.4958273748339842e-11
0.0,29,29.0,0.0,30.0,0.0,0.0,0.0,0.0,-13.0,0.0,2.0,0.0,0.0,0.0,6.376922178958209e-10,5.597733130807306e-10,5.359319424361024e-10,5.331888493291105e-10,5.072164917656595e-10,4.2813765269954075e-10,3.633119974995123e-10,3.2931104492626024e-10,2.6281176128201784e-10,2.2579213012835078e-10,1.8186512473553028e-10,1.517713811377321e-10,1.1556394391675886e-10,8.659320461605807e-11,6.564354973605041e-11,4.329668267238059e-11,3.0661127030194766e-11,1.9469335414262897e-11,1.1935676271422427e-11,6.433904308336661e-12,3.65795074317401e-12,2.113580628652805e-12,1.023280531111311e-12,5.24916366997274e-13,2.6020091744947307e-13,1.291820195937324e-13,5.337488601050641e-09,4.35439901437006e-09,3.105562696379427e-09,2.4542029358350546e-09,1.972186537901568e-09,1.587905639054807e-09,1.1836574713740636e-09,9.002650936488784e-10,6.532863718513564e-10,5.035031696885192e-10,3.543528077230889e-10,2.6773405435429246e-10,1.8677832736244074e-10,1.3786586057786827e-10,9.211198113864549e-11,6.160446382255843e-11,4.067486689056083e-11,2.4797808311824204e-11,1.5528169591670695e-11
0.0,30,30.0,0.0,30.0,0.0,0.0,0.0,0.0,-13.0,0.0,2.0,0.0,0.0,0.0,6.684365896288999e-10,6.016546446595652e-10,5.609601797187325e-10,5.216388593213592e-10,4.988965157696994e-10,4.230773108704362e-10,3.8515827399330807e-10,3.1566890906455743e-10,2.78251500365593e-10,2.2919090626793386e-10,1.8640335000750662e-10,1.5671170305368376e-10,1.2142380382037577e-10,8.479422040840033e-11,6.29973058117058e-11,4.608138869427066e-11,2.994508866426643e-11,1.9317140290706808e-11,1.1821158671304288e-11,6.915139797249027e-12,3.7436561487147605e-12,1.9144746745812143e-12,1.0492816548953592e-12,5.0070063273336e-13,2.4725671138624434e-13,1.1675379361873776e-13,5.425687270799691e-09,4.408221542512862e-09,3.4079447733357684e-09,2.5293457931936056e-09,2.0167873996513583e-09,1.634150699266504e-09,1.1555225129072193e-09,9.093960010565572e-10,6.369831945839378e-10,4.994318256968856e-10,3.5314763495393625e-10,2.61076926812283e-10,1.896626573709973e-10,1.3182640977776959e-10,9.174477964105988e-11,6.247897369663991e-11,3.726007084491926e-11,2.4809492609235718e-11,1.4249060725223614e-11
0.0,31,31.0,0.0,30.0,0.0,0.0,0.0,0.0,-13.0,0.0,2.0,0.0,0.0,0.0,6.682829499254064e-10,6.116353162099915e-10,5.795662597913384e-10,5.154113351622982e-10,4.79290767885963e-10,4.1575725066641374e-10,3.6223799474655687e-10,3.4110763420763494e-10,2.8322135315536094e-10,2.4551534163985886e-10,1.9289556814474097e-10,1.4657764216107473e-10,1.1863979833092688e-10,9.244415510576752e-11,6.58281394547052e-11,4.568372469944373e-11,2.8692939225750317e-11,1.8804154192199215e-11,1.1563637137671166e-11,6.813107825182621e-12,3.666834547368741e-12,1.909217258341656e-12,1.0135409943123715e-12,4.974239331373888e-13,2.448401568531806e-13,1.0778820597952475e-13,5.445577116310287e-09,4.335331907526119e-09,3.3397025062527215e-09,2.754099989450936e-09,2.0395705120735584e-09,1.5598267108038705e-09,1.2095584420612904e-09,9.046874037545886e-10,6.991319787828728e-10,5.103039341806507e-10,3.653968494184801e-10,2.6578565160390665e-10,1.818949203339925e-10,1.2765156650164503e-10,9.133036434578603e-11,6.308203184504592e-11,4.135838160180583e-11,2.5810735482604363e-11,1.529914684597012e-11
0.0,32,32.0,0.0,30.0,0.0,0.0,0.0,0.0,-13.0,0.0,2.0,0.0,0.0,0.0,6.803750548566449e-10,6.184141194006349e-10,5.961162004336218e-10,5.594502830427465e-10,4.847383066302747e-10,4.3421183028496034e-10,3.8626260754026953e-10,3.2315285647213263e-10,2.77194580369554e-10,2.2765660745764355e-10,1.9166803170889188e-10,1.581086669526714e-10,1.2036486237670453e-10,8.962215312753235e-11,6.462687941759779e-11,4.633247585941919e-11,2.8357354258884607e-11,1.8625154814090552e-11,1.1328026898590159e-11,6.012046518388715e-12,3.3852283048918326e-12,1.982785845879269e-12,9.61899336342256e-13,4.785380384955071e-13,2.292070700033734e-13,1.072778816184435e-13,5.588619929471338e-09,4.26255373084353e-09,3.228304571256442e-09,2.4935093682372726e-09,2.0783893773666846e-09,1.4443159112655897e-09,1.1741034121928829e-09,9.270320732194713e-10,7.226472421803571e-10,5.298323796941422e-10,3.719699201197323e-10,2.5631759822474784e-10,1.8403485992743974e-10,1.3122709207557357e-10,9.198294177489684e-11,6.131934580904281e-11,4.159686681126032e-11,2.5562859980374998e-11,1.4835623959682078e-11
0.0,33,33.0,0.0,30.0,0.0,0.0,0.0,0.0,-13.0,0.0,2.0,0.0,0.0,0.0,6.773318196157146e-10,5.928369200867394e-10,5.739625859529367e-10,5.271832292385076e-10,4.78045216218529e-10,4.184514210276016e-10,3.9403412298285236e-10,3.221382766915707e-10,2.786160936313893e-10,2.449338113946884e-10,1.9584678995472271e-10,1.5570299353056678e-10,1.1035096186922816e-10,8.751566866358701e-11,6.779491114518662e-11,4.345514029150307e-11,2.8238974492746166e-11,1.861193846306198e-11,1.1155757518627243e-11,6.275239326645296e-12,3.3749137557532087e-12,1.89172324694579e-12,9.461230960555276e-13,4.603711324925161e-13,2.1371092429523738e-13,9.929245215763397e-14,5.551463771846355e-09,4.525936628274096e-09,3.2425631548011848e-09,2.6117319548823714e-09,2.0634756855386316e-09,1.587678376389889e-09,1.1774398765280698e-09,8.718005676208314e-10,6.751484996858474e-10,5.00010532031217e-10,3.5574425476858587e-10,2.5856497483635226e-10,1.9301036916818793e-10,1.350967887895593e-10,9.341539706714572e-11,6.138382680712668e-11,4.052629719291682e-11,2.4450814368721094e-11,1.540556818828125e-11
0.0,34,34.0,0.0,30.0,0.0,0.0,0.0,0.0,-13.0,0.0,2.0,0.0,0.0,0.0,6.940644749359592e-10,6.184461398531656e-10,5.888339295981647e-10,5.395550500357644e-10,4.991678000764674e-10,4.292407297234719e-10,3.9142786447233375e-10,3.2328770764948353e-10,2.807087463962311e-10,2.400039807067981e-10,2.0011155762373552e-10,1.6178581246123235e-10,1.2034301865533843e-10,9.01204800465265e-11,6.1970111254667e-11,4.3048895264131886e-11,2.963494855326462e-11,1.7664410502638894e-11,1.102898167927191e-11,5.924168550135575e-12,3.2185423884618147e-12,1.89677767197518e-12,9.023486921716983e-13,4.3570482487214603e-13,1.9971723177555307e-13,9.897987062328103e-14,5.869360808935216e-09,4.141765993542135e-09,3.2099015077154923e-09,2.5528623097230785e-09,2.0875781656253166e-09,1.5796536939614272e-09,1.1641096048852564e-09,8.570534639840394e-10,6.780463143943685e-10,5.080226570384399e-10,3.6127500830656583e-10,2.595196339749135e-10,1.8954389819463644e-10,1.323731865530726e-10,9.346556666614955e-11,6.378626146440273e-11,4.258676054804481e-11,2.552422226444094e-11,1.4706274768587692e-11
0.0,35,35.0,0.0,30.0,0.0,0.0,0.0,0.0,-13.0,0.0,2.0,0.0,0.0,0.0,6.48465281724048e-10,6.297048504907795e-10,5.964584408451028e-10,5.394233976912468e-10,4.415056176394288e-10,4.455478873192668e-10,3.859798399581751e-10,3.287157808416894e-10,2.8501896605606506e-10,2.386192842615874e-10,2.0360044078878826e-10,1.596380871845975e-10,1.1890881282751903e-10,9.078741983730275e-11,6.426749298172387e-11,4.203777445405558e-11,2.8777718517529154e-11,1.7991939866327357e-11,1.065596345555139e-11,6.161376002511988e-12,3.140647200538376e-12,1.723011226588464e-12,8.693496076288634e-13,4.365109654746933e-13,2.0985626301486123e-13,9.79731494911338e-14,5.2411766600191214e-09,4.133642348163073e-09,3.39690832295153e-09,2.552890127065382e-09,2.0635474138093063e-09,1.4823215415185673e-09,1.1572004835690055e-09,8.960858201012548e-10,6.911725591054215e-10,5.093652834456605e-10,3.640360751344865e-10,2.5555848048951044e-10,1.9134144769327767e-10,1.3201864451105562e-10,9.978186273595456e-11,6.15876619087984e-11,4.1070897518118e-11,2.6042003645097862e-11,1.5192913763259442e-11
0.0,36,36.0,0.0,30.0,0.0,0.0,0.0,0.0,-13.0,0.0,2.0,0.0,0.0,0.0,7.026972374219619e-10,6.005086023018224e-10,5.948049657348715e-10,5.665323443123503e-10,4.888124258038271e-10,4.5979179536298537e-10,3.90145684465843e-10,3.341176955965402e-10,2.823018697104051e-10,2.381846632001203e-10,1.9833662676628842e-10,1.5374047170965512e-10,1.2324101403039192e-10,8.888229493080599e-11,6.422452890759883e-11,4.3451508321319557e-11,2.8569724180439518e-11,1.8259636970539446e-11,1.0332679644052792e-11,6.0369310356645795e-12,3.0640706087083e-12,1.6195393943927103e-12,8.02732596302804e-13,4.045493333795896e-13,2.0470511789748958e-13,8.858580446130026e-14,5.077124443239391e-09,4.149932382364505e-09,3.2319778349441428e-09,2.5475424872158786e-09,2.0233817193197477e-09,1.5240448512161912e-09,1.1909810491239248e-09,8.940318350486026e-10,6.589110269151025e-10,4.875806905457832e-10,3.6330129618602036e-10,2.7021817824892925e-10,1.8164617536714374e-10,1.3959064346297622e-10,1.024495222953532e-10,6.882599765956791e-11,4.212075160848375e-11,2.7245005594329184e-11,1.490276577062194e-11
0.0,37,37.0,0.0,30.0,0.0,0.0,0.0,0.0,-13.0,0.0,2.0,0.0,0.0,0.0,6.861830636506491e-10,6.481547210903494e-10,5.731564473992254e-10,4.953147918897173e-10,5.037175489510105e-10,4.1340967741586113e-10,4.044416383721842e-10,3.308616971154359e-10,3.032300403194481e-10,2.4064677246803245e-10,1.9713612760940967e-10,1.5569940789646967e-10,1.1907660975913331e-10,8.567141263743429e-11,6.300217994468983e-11,4.07539934137064e-11,2.7279788975292803e-11,1.7378287209764953e-11,1.0591483012014872e-11,5.746251716814425e-12,2.82571242498773e-12,1.542995475597402e-12,8.183073628270095e-13,3.9060620972342027e-13,1.8640466190078495e-13,8.316968606946445e-14,5.729612341506845e-09,4.298777148053422e-09,3.5619054954490197e-09,2.58482242083885e-09,2.0420540056848774e-09,1.5037155600078356e-09,1.137485036646276e-09,9.312806853146478e-10,7.098792496907961e-10,4.787805111100221e-10,3.831073391919667e-10,2.7261890436175025e-10,1.9874656036254987e-10,1.364294213613299e-10,9.505207459802623e-11,6.701319562452184e-11,4.205919955950007e-11,2.611942556840194e-11,1.482989032570193e-11
0.0,38,38.0,0.0,30.0,0.0,0.0,0.0,0.0,-13.0,0.0,2.0,0.0,0.0,0.0,6.713420193825709e-10,6.568595233226539e-10,5.651952356861801e-10,5.207827849161169e-10,4.938748144532108e-10,4.463983877541972e-10,3.7124719226180154e-10,3.4380444122503466e-10,3.019764478925364e-10,2.595021284519939e-10,1.9900382243710246e-10,1.6203696282175827e-10,1.2375583346410035e-10,8.604893203939831e-11,6.638625288591978e-11,4.154048983281202e-11,2.8017135183863856e-11,1.7235655649817327e-11,9.563455742075086e-12,5.8024760549029465e-12,3.0541368772569615e-12,1.4882001866449812e-12,7.394380368770155e-13,3.888742753104907e-13,1.7239383223891136e-13,7.823329991850078e-14,5.7511614478515066e-09,4.280024671063722e-09,3.3308113260349738e-09,2.6092957778091872e-09,1.9507004323680125e-09,1.6317533551909007e-09,1.2314264437725307e-09,9.555529661178454e-10,7.039453114318234e-10,5.181531952922025e-10,3.57598987770024e-10,2.7507345444257725e-10,2.0547552107346074e-10,1.4088761710946764e-10,1.0226110367425644e-10,6.887504658029607e-11,4.09691351959464e-11,2.528221713834006e-11,1.4534921980673994e-11
0.0,39,39.0,0.0,30.0,0.0,0.0,0.0,0.0,-13.0,0.0,2.0,0.0,0.0,0.0,6.759595853287705e-10,6.304149131663286e-10,5.721676355544651e-10,5.303401821920509e-10,4.875757172956003e-10,4.531806622090092e-10,3.8317116268120285e-10,3.466146602321205e-10,3.0522655770288167e-10,2.494871399326819e-10,2.0700254527399872e-10,1.571971145805459e-10,1.2536990397764733e-10,8.546966838186892e-11,6.76961624464249e-11,4.140538373718896e-11,2.8231184719152596e-11,1.635041748322915e-11,1.012091578036285e-11,5.6488531144670366e-12,2.6955296609137747e-12,1.5221448076489086e-12,7.293572336656242e-13,3.4995598819371364e-13,1.7220527883609069e-13,8.002538881673546e-14,5.246542065279445e-09,4.413116578579719e-09,3.304528541296299e-09,2.5560622595423968e-09,2.079802235839518e-09,1.5782960714273484e-09,1.1487208718914036e-09,9.52850502917884e-10,6.77155758484608e-10,4.815308092998285e-10,3.8379780364608075e-10,2.758354244270002e-10,2.0335717373776986e-10,1.4226912657353415e-10,9.696836806162438e-11,7.150068721630672e-11,4.4392577133817896e-11,2.5370612297430687e-11,1.4879446820657716e-11
0.0,40,40.0,0.0,30.0,0.0,0.0,0.0,0.0,-13.0,0.0,2.0,0.0,0.0,0.0,6.866348076755512e-10,6.488395277383832e-10,6.26455750249651e-10,5.52443453547037e-10,4.896170406167286e-10,4.497248805375753e-10,3.854340974214177e-10,3.5964156640075696e-10,2.914477806767038e-10,2.407260119019949e-10,2.0679359399418889e-10,1.5920948284553545e-10,1.2016352543583303e-10,8.856771783778534e-11,6.445737521530537e-11,4.387868551603063e-11,2.7811131831831502e-11,1.578154298881503e-11,9.666935902243337e-12,5.255479821042373e-12,2.721307036476913e-12,1.4317899433162464e-12,6.677164009844471e-13,3.5560769345381317e-13,1.6607163409961255e-13,7.458340156586676e-14,5.3534934495940604e-09,4.2575237847775296e-09,3.267139606284431e-09,2.668577414177337e-09,2.070073620747699e-09,1.5427973428615348e-09,1.1727093000032433e-09,8.993059436636564e-10,6.789937623588906e-10,5.105034351191732e-10,3.6527530671889804e-10,2.778494422754443e-10,2.0546694732964933e-10,1.4596811198411227e-10,1.0121963338428146e-10,6.447776200544623e-11,4.4180378030170135e-11,2.379189385124265e-11,1.4374476332554217e-11
0.0,41,41.0,0.0,30.0,0.0,0.0,0.0,0.0,-13.0,0.0,2.0,0.0,0.0,0.0,6.854708866053303e-10,6.542647944738471e-10,6.03249804723329e-10,5.498718430423888e-10,5.147897424610815e-10,4.4195502516159036e-10,3.8789788284421317e-10,3.433433199056172e-10,2.967876860304784e-10,2.492296711523976e-10,2.0365137948021758e-10,1.6879456809939125e-10,1.2481478813209178e-10,8.593363898339104e-11,6.074884809575314e-11,4.283677956907805e-11,2.7649485467096148e-11,1.602889689324414e-11,9.498619347766587e-12,4.976025728054934e-12,2.7089159275133465e-12,1.3802084220955705e-12,7.163143428989053e-13,3.334412242149303e-13,1.5426075677585473e-13,7.378023993913713e-14,5.3390749257759436e-09,4.308873740793916e-09,3.232478140765044e-09,2.61190942766265e-09,2.0214670551545507e-09,1.5617885346223145e-09,1.1567545809140442e-09,8.549068755230569e-10,6.887435255919716e-10,5.006942792045568e-10,3.7525170776512145e-10,2.777470906714376e-10,2.0895003801421796e-10,1.5004719341414694e-10,1.0141071696951632e-10,6.7379147139692e-11,4.179446824425972e-11,2.588253932909079e-11,1.5037560300182462e-11
0.0,42,42.0,0.0,30.0,0.0,0.0,0.0,0.0,-13.0,0.0,2.0,0.0,0.0,0.0,7.046435012841596e-10,6.740724029365261e-10,6.226127514439596e-10,5.579231362804009e-10,5.20927407287243e-10,4.5563794647141083e-10,4.0411268015421843e-10,3.599625806872877e-10,3.0390183226864043e-10,2.436933190793451e-10,2.1115966773997597e-10,1.5582572427508983e-10,1.196149092277636e-10,8.927434714018676e-11,6.196113817545532e-11,3.8723361694815415e-11,2.578948826369131e-11,1.57227046584987e-11,8.947904337930379e-12,4.432133410747935e-12,2.494150551030932e-12,1.311902131415178e-12,6.332628195181477e-13,3.1027612352817523e-13,1.5495676728838494e-13,6.673536596093107e-14,5.623370093926337e-09,4.226243628706101e-09,3.3195746854333045e-09,2.5100366224912037e-09,1.9604628538360407e-09,1.6034837517947082e-09,1.1409035126404101e-09,8.681277205661906e-10,6.991359276670796e-10,4.779972974188893e-10,3.8065624317255964e-10,2.799226840250489e-10,2.1311693145901971e-10,1.567019928780052e-10,1.0558951428789626e-10,6.568619475207054e-11,4.264233892637577e-11,2.6073838553187367e-11,1.4293991088519038e-11
0.0,43,43.0,0.0,30.0,0.0,0.0,0.0,0.0,-13.0,0.0,2.0,0.0,0.0,0.0,6.770630112386124e-10,6.688724382300496e-10,6.001237137379428e-10,5.463089573363139e-10,5.176823019885163e-10,4.71509031734497e-10,4.1149156091493534e-10,3.4787490002927074e-10,3.0691739534088655e-10,2.4620301200491226e-10,2.079180423803729e-10,1.6025574198662243e-10,1.2027320305583046e-10,8.580848393777004e-11,6.226393312410298e-11,3.938361983782067e-11,2.5606252404040045e-11,1.5185182907985643e-11,8.70748927015672e-12,4.923163972254246e-12,2.6091571782799425e-12,1.2586882144176613e-12,6.343672421496564e-13,2.929650168190259e-13,1.427053486055405e-13,5.857452703852048e-14,5.184647905879349e-09,4.079410079680741e-09,3.0810072602209388e-09,2.563231258579831e-09,2.051414716403593e-09,1.541412217521944e-09,1.2278629615603067e-09,9.697908211372846e-10,6.779430970372763e-10,4.89061851741564e-10,3.738643084993176e-10,2.8282160142413624e-10,2.246414828501485e-10,1.488143361425719e-10,1.1034702230043461e-10,6.865999098017836e-11,4.487827416929488e-11,2.6608853208611134e-11,1.4163964771752345e-11
0.0,44,44.0,0.0,30.0,0.0,0.0,0.0,0.0,-13.0,0.0,2.0,0.0,0.0,0.0,6.918864678157919e-10,6.580243972058289e-10,6.104314569742766e-10,5.727263085873017e-10,4.895240283894309e-10,4.6394376579753407e-10,4.184932668337364e-10,3.7088027633411655e-10,3.120085765745053e-10,2.6434539279997547e-10,1.9087095013091496e-10,1.6374497454730972e-10,1.2581280914137594e-10,8.8744804352002e-11,6.140092916387972e-11,4.1585228687887275e-11,2.2764373052440477e-11,1.5359019032833353e-11,8.33701181520408e-12,4.3859808462882996e-12,2.3777743676110755e-12,1.2306279491475183e-12,6.051949905312287e-13,2.9678313639662383e-13,1.2640950308757955e-13,5.723053571155917e-14,5.092870281504732e-09,4.164475517052004e-09,3.232124717752337e-09,2.55212429400451e-09,2.076476761077719e-09,1.5707693987056563e-09,1.1097078113368805e-09,8.807214042958681e-10,6.742656982600864e-10,5.140901747752119e-10,3.8310295059205386e-10,3.0065310333620133e-10,2.325796217295217e-10,1.619025195906462e-10,1.0432343407939221e-10,7.363123993680721e-11,4.43162883206772e-11,2.4878935701560126e-11,1.433316025598017e-11
0.0,45,45.0,0.0,30.0,0.0,0.0,0.0,0.0,-13.0,0.0,2.0,0.0,0.0,0.0,7.316263878815054e-10,6.147045778727791e-10,6.099282454308016e-10,5.737584441534458e-10,5.25180521582451e-10,4.784423022709084e-10,4.200482341587067e-10,3.533249736560909e-10,3.0643719546081275e-10,2.540476902727693e-10,1.916763136269964e-10,1.7386893161559743e-10,1.2225769573730247e-10,9.246694371352177e-11,5.880760793681456e-11,4.0671580919374404e-11,2.483176563365849e-11,1.4679392897644454e-11,8.663950198608194e-12,4.465126906456856e-12,2.2619856239818098e-12,1.1702211842255643e-12,5.89318311439008e-13,2.6922665292953233e-13,1.2120131321430434e-13,5.269517370758801e-14,5.419365548589117e-09,4.2858565962092216e-09,3.0831769325291737e-09,2.5584972050846095e-09,2.0205410501304266e-09,1.5690846368601257e-09,1.1674840394751946e-09,9.116758870390919e-10,6.717846365976399e-10,5.376063864084082e-10,4.0015797559394305e-10,3.0383802336916736e-10,2.1949390741428053e-10,1.551583591579333e-10,1.1048084468732025e-10,7.2294699465616e-11,4.479871970160512e-11,2.6992892164663782e-11,1.3797510005960714e-11
0.0,46,46.0,0.0,30.0,0.0,0.0,0.0,0.0,-13.0,0.0,2.0,0.0,0.0,0.0,7.174140195402652e-10,6.675655588643362e-10,5.715914882340626e-10,5.645799549483063e-10,5.261999024493839e-10,4.653208241627802e-10,4.1949075169916117e-10,3.8043369421455744e-10,3.31426162404777e-10,2.6395154577780476e-10,2.1501591636292394e-10,1.631988991270771e-10,1.1663074268822189e-10,8.667648670117987e-11,5.7222506056878616e-11,3.8986325829561436e-11,2.2941753418681833e-11,1.3376570342228151e-11,7.951931458787772e-12,4.382486608126166e-12,2.2568364993915565e-12,1.0905695421080612e-12,5.215669954118508e-13,2.468025672032258e-13,1.183075518895315e-13,5.275516036431087e-14,5.40255946564925e-09,4.253770429256099e-09,3.290685920836263e-09,2.6417033823559364e-09,2.0762922812508074e-09,1.547034169433619e-09,1.1522890430359719e-09,8.994574512083179e-10,6.911162027982646e-10,5.407946036349597e-10,4.3982142027236613e-10,3.0995647211856084e-10,2.1948118476524194e-10,1.5628989125851786e-10,1.1135103161878692e-10,6.785253244258834e-11,4.201651557498142e-11,2.37780906981812e-11,1.3734415398558239e-11
0.0,47,47.0,0.0,30.0,0.0,0.0,0.0,0.0,-13.0,0.0,2.0,0.0,0.0,0.0,7.250745484983725e-10,7.04399175087181e-10,6.274598018016523e-10,5.893150505690526e-10,4.899185219262207e-10,4.518811053148218e-10,4.4071546583871437e-10,3.7141116060277857e-10,3.0934089925048624e-10,2.637683792370301e-10,2.1169414635430206e-10,1.6291759577335502e-10,1.1690580910839526e-10,8.511442973817283e-11,5.3485785632138905e-11,3.8629659698661836e-11,2.393998124903298e-11,1.3834085592074558e-11,7.427509841264478e-12,4.013619180745295e-12,2.067351387189247e-12,1.0240593364235981e-12,4.743099574531434e-13,2.444503176986592e-13,1.1005108064283654e-13,4.786377618088345e-14,5.71363443118286e-09,4.003682888954933e-09,3.2850952769105617e-09,2.582694401795266e-09,1.850064941870256e-09,1.4970872257295098e-09,1.1591625221461489e-09,8.656782062738414e-10,6.979573397373361e-10,5.365944078432834e-10,4.152257474409435e-10,3.0007927578030655e-10,2.3567843046660953e-10,1.654993927675332e-10,1.0965738185436508e-10,7.041682522158673e-11,4.4197093733761544e-11,2.443136472392846e-11,1.3248575031401121e-11
0.0,48,48.0,0.0,30.0,0.0,0.0,0.0,0.0,-13.0,0.0,2.0,0.0,0.0,0.0,7.42227709360503e-10,6.449736069070974e-10,6.400356514171015e-10,5.626297319862269e-10,5.443833568119596e-10,4.5907591694050216e-10,4.2279703038715473e-10,3.746062707052307e-10,3.112025140158641e-10,2.644833611613417e-10,2.1052984223541772e-10,1.606634641718419e-10,1.2106109225406098e-10,8.57381584407346e-11,5.543987929429695e-11,3.8646698503298164e-11,2.1632782136943903e-11,1.2552093618113304e-11,7.088943553485372e-12,3.7697555594397316e-12,1.9436834137428393e-12,9.707479563703862e-13,4.786264097984049e-13,2.261756755402751e-13,1.0000289525531524e-13,4.395518515706114e-14,5.3201804149926075e-09,4.091624040077697e-09,3.2358494204682856e-09,2.5703037318481068e-09,2.0052395901626246e-09,1.4404185906383802e-09,1.129168384008163e-09,8.894308277139657e-10,7.001610482155913e-10,5.143434766801339e-10,4.354038751335228e-10,3.285424741856675e-10,2.3333836756370015e-10,1.5914505664892911e-10,1.1304273352255257e-10,6.959231622883086e-11,4.367906820525896e-11,2.306324708210643e-11,1.320033479844558e-11
0.0,49,49.0,0.0,30.0,0.0,0.0,0.0,0.0,-13.0,0.0,2.0,0.0,0.0,0.0,7.374950772249636e-10,6.553960037467172e-10,6.429818860253484e-10,5.756341520644957e-10,5.149337976227107e-10,5.055634284749824e-10,4.343732480530165e-10,3.758535918113683e-10,3.3012381567364744e-10,2.6387508732963384e-10,2.0548857618426646e-10,1.5482706964628875e-10,1.203916383121758e-10,8.438317977577115e-11,5.2960921742265513e-11,3.590095118457589e-11,2.1752691360984073e-11,1.3011468609483763e-11,7.203123669061902e-12,3.668070419818796e-12,1.7718052286918575e-12,9.560547580610936e-13,4.426313565953909e-13,2.101447296987012e-13,9.58260625440335e-14,4.2170178316836546e-14,5.234710676901332e-09,4.5397810542626835e-09,3.1647365520522133e-09,2.588159663303661e-09,2.0956752618510742e-09,1.6401533747528459e-09,1.2677906353918705e-09,9.149498869194984e-10,7.359647200627763e-10,5.581534885354151e-10,4.303265855776797e-10,3.181645783936494e-10,2.3144079505263746e-10,1.6561367045042372e-10,1.0921453998602724e-10,7.072411112474099e-11,4.2151435332722356e-11,2.4141156095695722e-11,1.3880104432848473e-11
0.0,50,50.0,0.0,30.0,0.0,0.0,0.0,0.0,-13.0,0.0,2.0,0.0,0.0,0.0,7.258150352521938e-10,7.085204308650539e-10,6.492666929774274e-10,6.037462400925066e-10,5.745658111463596e-10,4.933633975002407e-10,4.4315236650559605e-10,3.792183761216471e-10,3.233307293183433e-10,2.4543011065287083e-10,2.1031552736703745e-10,1.6879657256239112e-10,1.1881964311501046e-10,8.023089767967793e-11,5.6534453534997986e-11,3.38863853013119e-11,2.092298653005896e-11,1.2607376293201076e-11,6.588655200240405e-12,3.453699924825601e-12,1.768341640372576e-12,8.550396625449042e-13,3.84741944607698e-13,2.0252208348392627e-13,8.780275341434242e-14,3.958361981615627e-14,5.312559800207296e-09,4.15852957247342e-09,3.095849925895583e-09,2.4363942688049005e-09,2.007883323741329e-09,1.5478553559182625e-09,1.1730841774730344e-09,9.378529559032695e-10,7.165427739539178e-10,5.900384048859101e-10,4.2685046230509295e-10,3.3120587552436837e-10,2.4019222290758554e-10,1.6966081290726546e-10,1.0731161776958463e-10,6.860640619867954e-11,4.115370479038619e-11,2.370874887002715e-11,1.2693248556179596e-11
0.0,51,51.0,0.0,30.0,0.0,0.0,0.0,0.0,-13.0,0.0,2.0,0.0,0.0,0.0,7.631401546976511e-10,7.078771260019173e-10,6.690993338106724e-10,5.815557816358831e-10,5.401720508336503e-10,4.906498535056344e-10,4.432330759470429e-10,3.7279149193732604e-10,3.2424676133934265e-10,2.588354180207317e-10,2.0443859550468266e-10,1.6267662843089306e-10,1.134222265629188e-10,7.887281289719425e-11,4.762316978738238e-11,3.262647989969483e-11,2.0847876794205222e-11,1.1278423060358508e-11,6.413053802130603e-12,3.401369799215624e-12,1.7226387539445498e-12,8.155325653698353e-13,3.6994778881498487e-13,1.7913618335856807e-13,8.49199538489854e-14,3.6084653679366113e-14,5.419682706533959e-09,4.0249827704135676e-09,3.368913557026014e-09,2.537671825530333e-09,1.9075907810928865e-09,1.4948075714448306e-09,1.1500316031688846e-09,9.453092224167382e-10,7.539930227944164e-10,5.88959153765186e-10,4.194611950529501e-10,3.378120960797766e-10,2.49695539075501e-10,1.6823539349959378e-10,1.0880589886935986e-10,6.905307544757677e-11,4.1209523488914564e-11,2.298525002958004e-11,1.2377204086591811e-11
0.0,52,52.0,0.0,30.0,0.0,0.0,0.0,0.0,-13.0,0.0,2.0,0.0,0.0,0.0,7.457351783127078e-10,7.047578246142048e-10,6.651969506096958e-10,5.968561999309066e-10,5.491157859248202e-10,4.950553876249183e-10,4.5562439533775347e-10,3.9692809953636414e-10,3.1405298044814775e-10,2.648143927430838e-10,2.0626845506398311e-10,1.5345858765149523e-10,1.1281688968292326e-10,7.774075210752282e-11,5.1203309612784993e-11,3.14930655653493e-11,1.9563776636149028e-11,1.0671940874430785e-11,5.947982402785579e-12,3.0024179321830495e-12,1.5804773193966472e-12,7.693398885515032e-13,3.8126945433145245e-13,1.6028417611791053e-13,7.929727508612688e-14,3.3350427365415394e-14,5.556382722476465e-09,4.31057676583046e-09,3.2018780074666e-09,2.5922931345096895e-09,1.8541469974559768e-09,1.5035385533984115e-09,1.27182089836272e-09,9.708019742353646e-10,6.971451380875052e-10,5.979136491427615e-10,4.443146825455047e-10,3.440443234149413e-10,2.48257326941554e-10,1.66736407467473e-10,1.1560742147078189e-10,7.139204296910581e-11,4.077200354157869e-11,2.2469890899074452e-11,1.2451138377309314e-11
0.0,53,53.0,0.0,30.0,0.0,0.0,0.0,0.0,-13.0,0.0,2.0,0.0,0.0,0.0,7.262883995762565e-10,7.355224341707154e-10,6.920112556961274e-10,6.046185421670134e-10,5.790244379479112e-10,5.123216487071312e-10,4.4425582559972795e-10,3.956632900364443e-10,3.2348294491543933e-10,2.7166245594061344e-10,2.0063166168154862e-10,1.5571315383389375e-10,1.200882752034615e-10,7.476137056330586e-11,5.164921823239736e-11,3.022565379054378e-11,1.8204128712770116e-11,1.0843572438810845e-11,5.697060970235552e-12,2.9361437162893247e-12,1.4805247159304712e-12,6.86422792746406e-13,3.410018593338767e-13,1.568948246801817e-13,7.03745948461587e-14,2.86784292633914e-14,5.4330137994842264e-09,4.1436172914323976e-09,3.394324697926455e-09,2.3957177192360655e-09,2.030778492392224e-09,1.5201768586911992e-09,1.2290357411319075e-09,9.661652797864152e-10,7.573473654784582e-10,5.840554595087308e-10,4.782401073221115e-10,3.530866477256784e-10,2.393638368702804e-10,1.7849717510963866e-10,1.1708171773458232e-10,7.020470401189258e-11,4.099659005311902e-11,2.2094069629920756e-11,1.1454918490033536e-11
0.0,54,54.0,0.0,30.0,0.0,0.0,0.0,0.0,-13.0,0.0,2.0,0.0,0.0,0.0,7.710713271062841e-10,7.288502782064581e-10,6.788317461578234e-10,6.036082748109204e-10,5.990219407337702e-10,5.503123639675858e-10,4.3970275251800167e-10,3.846279412032949e-10,3.111762937898765e-10,2.5669684674928326e-10,2.1199695723916763e-10,1.5191895220390888e-10,1.0402271219230672e-10,7.30474094169624e-11,4.900577687481118e-11,3.1038250305421734e-11,1.7659541080138382e-11,9.71702434434202e-12,5.421764061275087e-12,2.643696828444136e-12,1.4013760564769756e-12,6.588978908999407e-13,2.8618565411547914e-13,1.4664634621534936e-13,7.485345438747828e-14,2.7364174472220553e-14,5.285450130625188e-09,4.178266525863072e-09,3.0959986193546797e-09,2.5635998982433923e-09,1.865736640871021e-09,1.5013291353077195e-09,1.2211735172117787e-09,9.863020932100563e-10,7.312555005567245e-10,6.313031320260617e-10,4.6174329249937665e-10,3.715817486102737e-10,2.514366996272527e-10,1.8106318071846514e-10,1.1641116536058374e-10,6.870100492909592e-11,3.773860862562537e-11,2.2663459135894116e-11,1.0516903401710835e-11
