Line_number,Fiducial,Easting,Northing,Height,Elevation,tx_pitch,tx_roll,tx_yaw,txrx_dx,txrx_dy,txrx_dz,rx_pitch,rx_roll,rx_yaw,S0Z_time_3.834e-04,S0Z_time_3.924e-04,S0Z_time_4.039e-04,S0Z_time_4.184e-04,S0Z_time_4.364e-04,S0Z_time_4.589e-04,S0Z_time_4.869e-04,S0Z_time_5.224e-04,S0Z_time_5.679e-04,S0Z_time_6.249e-04,S0Z_time_6.969e-04,S0Z_time_7.879e-04,S0Z_time_9.019e-04,S0Z_time_1.046e-03,S0Z_time_1.227e-03,S0Z_time_1.456e-03,S0Z_time_1.744e-03,S0Z_time_2.109e-03,S0Z_time_2.567e-03,S0Z_time_3.145e-03,S0Z_time_3.864e-03,S0Z_time_4.745e-03,S0Z_time_5.821e-03,S0Z_time_7.140e-03,S0Z_time_8.754e-03,S0Z_time_1.073e-02,S1Z_time_2.057e-05,S1Z_time_2.607e-05,S1Z_time_3.307e-05,S1Z_time_4.206e-05,S1Z_time_5.356e-05,S1Z_time_6.807e-05,S1Z_time_8.607e-05,S1Z_time_1.086e-04,S1Z_time_1.366e-04,S1Z_time_1.721e-04,S1Z_time_2.176e-04,S1Z_time_2.746e-04,S1Z_time_3.466e-04,S1Z_time_4.376e-04,S1Z_time_5.516e-04,S1Z_time_6.956e-04,S1Z_time_8.771e-04,S1Z_time_1.106e-03,S1Z_time_1.394e-03
0.0,0,0.0,0.0,30.0,0.0,0.0,0.0,0.0,-13.0,0.0,2.0,0.0,0.0,0.0,5.706585178080385e-11,5.216056609621498e-11,4.692358979078806e-11,4.151972318539391e-11,3.597451904686337e-11,3.056884989294712e-11,2.541016312943512e-11,2.0502799970050618e-11,1.6002938297997967e-11,1.2128651407694046e-11,8.909615568994958e-12,6.331163986233076e-12,4.374787884354685e-12,2.9339004297545712e-12,1.90961239408419e-12,1.20756824796238e-12,7.459444371554109e-13,4.485882052647671e-13,2.6354775616833585e-13,1.5105636689813647e-13,8.522094492791345e-14,4.7507466308449195e-14,2.6354881257386792e-14,1.4463960173849355e-14,7.968218012527403e-15,4.169763141715573e-15,3.540450116518166e-09,1.6263312943960574e-09,8.133589437777849e-10,4.4821074362514973e-10,2.7511382961134443e-10,1.856980787214144e-10,1.3291077400656996e-10,9.658000043043869e-11,6.96744089180343e-11,4.8933085429362543e-11,3.311637604919361e-11,2.1718844490487005e-11,1.3730856950625393e-11,8.369662759131257e-12,4.933040016731837e-12,2.8111669619290296e-12,1.545763681155257e-12,8.264776903848227e-13,4.3012888245820777e-13
0.0,1,1.0,0.0,30.0,0.0,0.0,0.0,0.0,-13.0,0.0,2.0,0.0,0.0,0.0,5.7008021825956205e-11,5.226555280051229e-11,4.722306120535167e-11,4.2032658687462045e-11,3.6693380648528694e-11,3.145286173107868e-11,2.6397660765098298e-11,2.1522253859303298e-11,1.6980873375336546e-11,1.3005364633448008e-11,9.646574673323561e-12,6.913751288099417e-12,4.81052868895231e-12,3.2425807412625414e-12,2.117158459509845e-12,1.3405589470476875e-12,8.27463047044939e-13,4.965773284609896e-13,2.906605509994065e-13,1.6590210409631023e-13,9.312072382518237e-14,5.162543501779121e-14,2.846708137385253e-14,1.5561011750462804e-14,8.523966639337366e-15,4.432530568833594e-15,3.51864386629596e-09,1.6137954031922068e-09,8.085587302708961e-10,4.4606650067162207e-10,2.7199898612924223e-10,1.8115455165863446e-10,1.2829616821597704e-10,9.313477163686233e-11,6.779598993244356e-11,4.8366727213119195e-11,3.3362323787029206e-11,2.231417750488132e-11,1.4375197115430227e-11,8.9122604353889e-12,5.331053308919887e-12,3.0733430352455124e-12,1.7048884853836644e-12,9.172317825667909e-13,4.777654734257611e-13
0.0,2,2.0,0.0,30.0,0.0,0.0,0.0,0.0,-13.0,0.0,2.0,0.0,0.0,0.0,5.6811279328783346e-11,5.212966390405261e-11,4.718417049058898e-11,4.212836086790316e-11,3.694951419356531e-11,3.18694256131493e-11,2.694982888474033e-11,2.2167046850751596e-11,1.766096855283364e-11,1.3662221487986589e-11,1.0233941313744122e-11,7.403073203429433e-12,5.193394470094906e-12,3.5245080179130667e-12,2.31309572242363e-12,1.4697182402875905e-12,9.084686235642609e-13,5.451939644168735e-13,3.1850940765853226e-13,1.8132779686263226e-13,1.0138457040962022e-13,5.597142002184319e-14,3.0692205806280425e-14,1.6720560214424174e-14,9.100077331632351e-15,4.71082827738856e-15,3.4962359232987536e-09,1.6013754672031638e-09,8.047703998265388e-10,4.4636659662185836e-10,2.7255653317174107e-10,1.8024760334133788e-10,1.2613564558693632e-10,9.071414966233051e-11,6.59365615797793e-11,4.736052155697296e-11,3.3088922898602906e-11,2.2482942013265335e-11,1.4725118870622448e-11,9.27741247159627e-12,5.632871034733251e-12,3.288851501229474e-12,1.8441009414647735e-12,1.0004681180197086e-12,5.231408795483476e-13
0.0,3,3.0,0.0,30.0,0.0,0.0,0.0,0.0,-13.0,0.0,2.0,0.0,0.0,0.0,5.6695329097262676e-11,5.2003476589934025e-11,4.7073304591573505e-11,4.206808700959487e-11,3.697718588556718e-11,3.20107877628801e-11,2.7211388970001254e-11,2.253589906919215e-11,1.8102952617820397e-11,1.4130238588223418e-11,1.0683450352582707e-11,7.799845908694338e-12,5.519219494806234e-12,3.774513344378596e-12,2.49310721399e-12,1.5920330477632677e-12,9.87158997486484e-13,5.934425656440936e-13,3.4661769226819466e-13,1.97108233291195e-13,1.099190078468595e-13,6.050438436920728e-14,3.301863673369121e-14,1.793469144115993e-14,9.696458827159338e-15,5.0046603808567324e-15,3.473233557768149e-09,1.5890070731833955e-09,8.013275650067214e-10,4.4743274670175366e-10,2.746447117116939e-10,1.814521408856553e-10,1.2597615581973094e-10,8.961701317069484e-11,6.46238667324301e-11,4.635993390629199e-11,3.258046942054512e-11,2.2381131257912383e-11,1.4856835159329535e-11,9.495809433932407e-12,5.84689073037146e-12,3.457738634497414e-12,1.9612218326921503e-12,1.0742106796269399e-12,5.65163584966662e-13
0.0,4,4.0,0.0,30.0,0.0,0.0,0.0,0.0,-13.0,0.0,2.0,0.0,0.0,0.0,5.674160927444531e-11,5.199897439311541e-11,4.703033022008707e-11,4.201029203929281e-11,3.6938031713115435e-11,3.202510586366479e-11,2.7304967385427314e-11,2.2720053021760758e-11,1.8367742933079854e-11,1.4445963845759005e-11,1.1013932861555188e-11,8.111442923495128e-12,5.7889187185340346e-12,3.990718365487275e-12,2.654707638633075e-12,1.7053899512991308e-12,1.0621049866918184e-12,6.404575088726885e-13,3.7453621191724356e-13,2.130196453968764e-13,1.1862581099552664e-13,6.517890706469015e-14,3.543180582613579e-14,1.9195141133403227e-14,1.0312982987926967e-14,5.312687033248605e-15,3.449643216056844e-09,1.5767218995374794e-09,7.98173904526077e-10,4.488266864138256e-10,2.773067199644825e-10,1.8366766476056747e-10,1.2709131505489702e-10,8.965871514886367e-11,6.402926069722486e-11,4.563324742177238e-11,3.20521887412277e-11,2.2141717686481982e-11,1.4841778592223843e-11,9.60092844235099e-12,5.986411081060447e-12,3.5837437857143045e-12,2.056207038034432e-12,1.1375362330819426e-12,6.03143003071861e-13
0.0,5,5.0,0.0,30.0,0.0,0.0,0.0,0.0,-13.0,0.0,2.0,0.0,0.0,0.0,5.696482982597455e-11,5.2150800051846064e-11,4.7113114620154974e-11,4.2035648243802664e-11,3.6929210066273774e-11,3.201449097607564e-11,2.7325293673115788e-11,2.279715889537644e-11,1.851175387560593e-11,1.464619747552013e-11,1.1246773973996697e-11,8.348562635999664e-12,6.00654106507296e-12,4.173608552934494e-12,2.7969034878932387e-12,1.808500895760107e-12,1.1322659475671934e-12,6.855363868927843e-13,4.0186740382476774e-13,2.2885178300099287e-13,1.2740706773283137e-13,6.994782241070618e-14,3.791484683353959e-14,2.049348886492688e-14,1.0949035588891147e-14,5.6325370401337004e-15,3.4254815842423232e-09,1.564548343135486e-09,7.953313851613014e-10,4.5048180356520204e-10,2.80222430546676e-10,1.8631868166364307e-10,1.2889686493289682e-10,9.04941572082414e-11,6.409298338939481e-11,4.528937474002948e-11,3.1645981267920765e-11,2.187144637169897e-11,1.4743006005964918e-11,9.624861583895742e-12,6.06619289052644e-12,3.6724553667595694e-12,2.1304277326571913e-12,1.1903413369896394e-12,6.367518907472978e-13
0.0,6,6.0,0.0,30.0,0.0,0.0,0.0,0.0,-13.0,0.0,2.0,0.0,0.0,0.0,5.735284296263639e-11,5.2457243865764437e-11,4.733456183201656e-11,4.217498712923853e-11,3.6999488631375294e-11,3.204061130638025e-11,2.7338361749344206e-11,2.2828122542399103e-11,1.8583776487058663e-11,1.4765399711656266e-11,1.14036107380113e-11,8.52324621248026e-12,6.177836186748718e-12,4.325201443157519e-12,2.9198141919711764e-12,1.9007689777409684e-12,1.1969598333485963e-12,7.281469296629542e-13,4.2827809577574586e-13,2.4441646125352844e-13,1.3616952058344834e-13,7.476437224825652e-14,4.0449410112137707e-14,2.1821256378734746e-14,1.1603414411177493e-14,5.9626654806315584e-15,3.4007733306475147e-09,1.5525189958407126e-09,7.928210504702669e-10,4.524043114913052e-10,2.8331545314640506e-10,1.8916697494361903e-10,1.310403171205568e-10,9.181048536707712e-11,6.465693053320569e-11,4.532312374073603e-11,3.143326748184917e-11,2.164709012462924e-11,1.4613516542000563e-11,9.597011587707828e-12,6.1007997925798126e-12,3.73012962724186e-12,2.1860682254586947e-12,1.2331136852624303e-12,6.659166349137144e-13
0.0,7,7.0,0.0,30.0,0.0,0.0,0.0,0.0,-13.0,0.0,2.0,0.0,0.0,0.0,5.788494828975008e-11,5.290236358266433e-11,4.76865171253184e-11,4.2431556855884764e-11,3.7166187271728794e-11,3.2134426795987314e-11,2.7384715186874393e-11,2.285643343473209e-11,1.862306996509696e-11,1.4834021483759553e-11,1.1505063526796868e-11,8.647819355067638e-12,6.309354645475967e-12,4.448415199095619e-12,3.0243249281250268e-12,1.9821356688442077e-12,1.2558132920144529e-12,7.679178285624007e-13,4.535030108039102e-13,2.5955250173804366e-13,1.4482782911758277e-13,7.958393032932702e-14,4.301648569870323e-14,2.3170010286096578e-14,1.2274348335512422e-14,6.303491768465605e-15,3.375548115246053e-09,1.5406719551940859e-09,7.90663332644376e-10,4.546055687119397e-10,2.865785111936042e-10,1.9213477098336285e-10,1.333471850845767e-10,9.339185947604257e-11,6.555618992968553e-11,4.566922991193455e-11,3.1429430576751296e-11,2.1514470236891752e-11,1.4494364129322286e-11,9.543310370565721e-12,6.103946335583887e-12,3.763091223383461e-12,2.2256996052252004e-12,1.2667216813615424e-12,6.907142566807283e-13
0.0,8,8.0,0.0,30.0,0.0,0.0,0.0,0.0,-13.0,0.0,2.0,0.0,0.0,0.0,5.853929210285521e-11,5.3466313440107734e-11,4.8152847299934e-11,4.2795552234664427e-11,3.742876964734081e-11,3.230639660946431e-11,2.7485101755824135e-11,2.2909757414744624e-11,1.8658691858071676e-11,1.4877325223786604e-11,1.1569821279689551e-11,8.734267502839086e-12,6.407929689765139e-12,4.546651770775214e-12,3.1118100457868067e-12,2.0529338263031835e-12,1.3087048265624479e-12,8.0462087515888e-13,4.773425854792712e-13,2.741276129925259e-13,1.5330659001290965e-13,8.43653007424849e-14,4.5597152684911925e-14,2.4531490083321332e-14,1.2959567973030251e-14,6.656729143629975e-15,3.349840039298468e-09,1.5290488866368567e-09,7.888808026302299e-10,4.570951667505919e-10,2.9001702141516826e-10,1.9520490373071184e-10,1.3574541174903814e-10,9.511342179800348e-11,6.6661117733802e-11,4.6245385611493126e-11,3.1614343625725286e-11,2.1492265412961905e-11,1.441353471795142e-11,9.485283174730316e-12,6.088136951823236e-12,3.777472920542422e-12,2.2520255689734576e-12,1.2922417776604414e-12,7.113161244537351e-13
0.0,9,9.0,0.0,30.0,0.0,0.0,0.0,0.0,-13.0,0.0,2.0,0.0,0.0,0.0,5.929568024245564e-11,5.4129727450104226e-11,4.871581982982171e-11,4.3252405373239407e-11,3.777807075440648e-11,3.255494136839215e-11,2.7646588924792753e-11,2.300298979330681e-11,1.8710073000492737e-11,1.491479829434121e-11,1.1613924154139946e-11,8.793755475510398e-12,6.480353639742773e-12,4.6235424818378196e-12,3.1839380712566082e-12,2.113763393098419e-12,1.3557082100700403e-12,8.38148772284887e-13,4.996578025568213e-13,2.880380941147382e-13,1.6154126890441866e-13,8.907157893636154e-14,4.817320119794784e-14,2.5897743419181047e-14,1.3656420470147894e-14,7.023664786088919e-15,3.3236879439009363e-09,1.5176938956964088e-09,7.874978803702419e-10,4.598826991221166e-10,2.936366173276167e-10,1.9837802295898031e-10,1.3821145163777383e-10,9.691285926733087e-11,6.78855063837994e-11,4.6977314097636764e-11,3.19515578329056e-11,2.1579233595997187e-11,1.438650448946495e-11,9.439261597980822e-12,6.064288828232434e-12,3.7790662616782856e-12,2.2677474299791443e-12,1.3108374944789356e-12,7.279713171857196e-13
0.0,10,10.0,0.0,30.0,0.0,0.0,0.0,0.0,-13.0,0.0,2.0,0.0,0.0,0.0,6.013662730953459e-11,5.4875449158785557e-11,4.9358935429882905e-11,4.3787043163689883e-11,3.82018482331108e-11,3.28724777660416e-11,2.786787428481377e-11,2.3141787607137617e-11,1.8788507024142292e-11,1.4960229802647695e-11,1.1650313015713509e-11,8.83621700478622e-12,6.53312543909429e-12,4.682784107959875e-12,3.242544638310684e-12,2.1653977226973973e-12,1.3970415335856486e-12,8.684916162420772e-13,5.203634474540232e-13,3.0120715316974965e-13,1.6947837085058997e-13,9.36706106009952e-14,5.072759843138852e-14,2.726124859389056e-14,1.4362003519937504e-14,7.40370220444264e-15,3.297135715005883e-09,1.5066532506416828e-09,7.865399766587145e-10,4.62978557798969e-10,2.974422900656198e-10,2.0165823577910865e-10,1.4074103437844646e-10,9.876369204937514e-11,6.917896669568943e-11,4.78086338828108e-11,3.2402002338284983e-11,2.176223165573275e-11,1.4418371003069965e-11,9.41614241220656e-12,6.041360921052799e-12,3.773168615159269e-12,2.2754853609347475e-12,1.3236865203134491e-12,7.410056347468865e-13
0.0,11,11.0,0.0,30.0,0.0,0.0,0.0,0.0,-13.0,0.0,2.0,0.0,0.0,0.0,6.104768517833621e-11,5.5689117561298667e-11,5.006803481459918e-11,4.4385843521467323e-11,3.868778324382297e-11,3.324925024629536e-11,2.814327861836355e-11,2.3325836287077677e-11,1.8899070027461847e-11,1.5022340937990794e-11,1.168871013366603e-11,8.870047351148518e-12,6.572227020425408e-12,4.728011539629721e-12,3.28954847667545e-12,2.2087188678982454e-12,1.4330254160085607e-12,8.957145446058096e-13,5.394205129879684e-13,3.135823848703664e-13,1.7707514952022246e-13,9.813513114859516e-14,5.324479939687259e-14,2.8615014786084996e-14,1.5073279095672677e-14,7.79390888597062e-15,3.2702324813061125e-09,1.4959753765993078e-09,7.860329887789164e-10,4.663937669161546e-10,3.01439110379541e-10,2.050496877576108e-10,1.4333612070011828e-10,1.0065724521681617e-10,7.051545543366046e-11,4.8701436558589755e-11,3.293160702660379e-11,2.202302563933512e-11,1.4506813120268108e-11,9.421799148126248e-12,6.0261157790837795e-12,3.7644160171183735e-12,2.277713741909478e-12,1.3319404036132187e-12,7.508178499170416e-13
0.0,12,12.0,0.0,30.0,0.0,0.0,0.0,0.0,-13.0,0.0,2.0,0.0,0.0,0.0,6.201740622583208e-11,5.6559228770240346e-11,5.0831588096905527e-11,4.503737270511572e-11,3.922490496550239e-11,3.367551039134046e-11,2.846542468217841e-11,2.355146472348744e-11,1.9042544209607662e-11,1.5105747530154783e-11,1.1735811717292715e-11,8.901943357665488e-12,6.6029363832944135e-12,4.7626828783661914e-12,3.3268880529035343e-12,2.2446741110261967e-12,1.4640513126316307e-12,9.19938405246373e-13,5.568283317998031e-13,3.251327688044865e-13,1.8429903971016213e-13,1.0244268177086081e-13,5.571092582899079e-14,2.995265788549158e-14,1.578714306726578e-14,8.189541947037065e-15,3.2430327642630643e-09,1.4857108464179947e-09,7.860031042817607e-10,4.701396418451296e-10,3.0563255482951695e-10,2.0855632053148892e-10,1.460001074134393e-10,1.0259255739632685e-10,7.188342857127742e-11,4.963273934690557e-11,3.3514208626138573e-11,2.2343024946083685e-11,1.4645083407584976e-11,9.457988427533095e-12,6.023096447900116e-12,3.756639188529322e-12,2.276695852200742e-12,1.336700372877254e-12,7.578661086809806e-13
0.0,13,13.0,0.0,30.0,0.0,0.0,0.0,0.0,-13.0,0.0,2.0,0.0,0.0,0.0,6.303708887100009e-11,5.7476931944817694e-11,5.1640594019860034e-11,4.57325074273699e-11,3.980411689305809e-11,3.4142595842743735e-11,2.8826847744043873e-11,2.3813515245677107e-11,1.921707470735856e-11,1.5212026130759352e-11,1.1795705865398386e-11,8.93690263999437e-12,6.629699088897421e-12,4.789975461796359e-12,3.356465654013751e-12,2.274244784978605e-12,1.4905585651296173e-12,9.413243505417893e-13,5.726170156287785e-13,3.358454672680779e-13,1.9112690015034986e-13,1.0657538198144335e-13,5.811384609557138e-14,3.1268451737812287e-14,1.650045493275713e-14,8.585096325450392e-15,3.2155966240292644e-09,1.4759123166633037e-09,7.864767252022777e-10,4.742275646617289e-10,3.1002848304859665e-10,2.1218214547014878e-10,1.487364874329094e-10,1.045715059623157e-10,7.327907508084042e-11,5.059002970285353e-11,3.4131573011266296e-11,2.2705962765206606e-11,1.4824500350177687e-11,9.523486422046143e-12,6.034817828910775e-12,3.752780635507165e-12,2.274421572085472e-12,1.3389983380035944e-12,7.626456402252461e-13
0.0,14,14.0,0.0,30.0,0.0,0.0,0.0,0.0,-13.0,0.0,2.0,0.0,0.0,0.0,6.410040098080384e-11,5.843568949880633e-11,5.2488295691925457e-11,4.646426221444413e-11,4.041824727544996e-11,3.464334027149558e-11,2.922084158374083e-11,2.4106547417285915e-11,1.9419444234053457e-11,1.5340711256907515e-11,1.187040646466196e-11,8.978358294388594e-12,6.656071694075184e-12,4.812701326242594e-12,3.3800948566816737e-12,2.2984205490059063e-12,1.5130176545201953e-12,9.600623012711884e-13,5.868406893567377e-13,3.457226657095107e-13,1.9754411067707473e-13,1.1051961292588795e-13,6.044318679486103e-14,3.25573543790742e-14,1.7210050697640697e-14,8.975379930553074e-15,3.1879898137440528e-09,1.4666344268125726e-09,7.874804101322444e-10,4.786688832749631e-10,3.1463301618680226e-10,2.1593140121434162e-10,1.5154867054463937e-10,1.0659677634594134e-10,7.470228215621488e-11,5.156741825618374e-11,3.477205660551798e-11,2.3098990766919686e-11,1.503622246990545e-11,9.61521386515159e-12,6.062112717204157e-12,3.75488976543326e-12,2.272558268200025e-12,1.3397786215824532e-12,7.656625056503922e-13
0.0,15,15.0,0.0,30.0,0.0,0.0,0.0,0.0,-13.0,0.0,2.0,0.0,0.0,0.0,6.520295690687842e-11,5.943088355335383e-11,5.3369822939762414e-11,4.722749126934371e-11,4.106187037698084e-11,3.517211121274465e-11,2.9641808814629495e-11,2.4425524938811477e-11,1.9645961152895754e-11,1.549012548150457e-11,1.1960405629346436e-11,9.028405237084294e-12,6.684735966432097e-12,4.8332507643781215e-12,3.399453081125293e-12,2.3181755195456243e-12,1.5319170869323864e-12,9.763625613864699e-13,5.995718056230037e-13,3.5477865688550853e-13,2.0354356623961953e-13,1.1426564508703415e-13,6.269029884777437e-14,3.381500927502408e-14,1.7912764057768868e-14,9.356292027957122e-15,3.1602839380989515e-09,1.4579336819968152e-09,7.890408054298257e-10,4.83474878396088e-10,3.1945243835348213e-10,2.198085718223533e-10,1.5444006591257664e-10,1.0867116452081737e-10,7.61544899240369e-11,5.2562849034276924e-11,3.542889523411591e-11,2.3512756399984874e-11,1.5272319226983272e-11,9.729190741859885e-12,6.104551869775215e-12,3.7641906981747815e-12,2.272423314082422e-12,1.3398805088265065e-12,7.674082879622724e-13
0.0,16,16.0,0.0,30.0,0.0,0.0,0.0,0.0,-13.0,0.0,2.0,0.0,0.0,0.0,6.634190432717527e-11,6.04594243168048e-11,5.4281825336281624e-11,4.801855560171199e-11,4.173103681229503e-11,3.5724663557869763e-11,3.008531893149308e-11,2.476614147930316e-11,1.9893017440350884e-11,1.5658007670012603e-11,1.2065176205510613e-11,9.08807051857819e-12,6.717570806748158e-12,4.853567964715549e-12,3.4160429555126322e-12,2.334445430736778e-12,1.547752022826015e-12,9.904496003195309e-13,6.108965931917772e-13,3.6303730552787465e-13,2.0912462250147114e-13,1.1780723274374462e-13,6.484819258364305e-14,3.503772333802834e-14,1.860547109646285e-14,9.725190823384185e-15,3.1325566079879396e-09,1.449868328473958e-09,7.911845676472625e-10,4.88656757625031e-10,3.2449314617885126e-10,2.2381834541092095e-10,1.5741415562787326e-10,1.107974113980957e-10,7.763767148960569e-11,5.35762965856899e-11,3.60986370035692e-11,2.3940946233942798e-11,1.5526276539530328e-11,9.861249992673655e-12,6.1608653943671334e-12,3.781203190731269e-12,2.2749815718502983e-12,1.3400237315874466e-12,7.683391587476371e-13
0.0,17,17.0,0.0,30.0,0.0,0.0,0.0,0.0,-13.0,0.0,2.0,0.0,0.0,0.0,6.751555602629154e-11,6.151939532903963e-11,5.522213326277561e-11,4.883500397656626e-11,4.242298748791943e-11,3.6297919878648276e-11,3.054801307634155e-11,2.5124917100638565e-11,2.0157395114478327e-11,1.5841947546481825e-11,1.21835870229563e-11,9.157587280064009e-12,6.755762817109922e-12,4.875157262908944e-12,3.4311656578861196e-12,2.348106662195865e-12,1.561013652743622e-12,1.0025570828525815e-12,6.209115078098571e-13,3.7052995383302653e-13,2.142920545017519e-13,1.2114119344018293e-13,6.691145033381932e-14,3.622242581615307e-14,1.9285160111360972e-14,1.0080890269322195e-14,3.1048915847326593e-09,1.442498223766868e-09,7.939382857207624e-10,4.942256591901368e-10,3.297616358457338e-10,2.2796556805757897e-10,1.6047451817459624e-10,1.1297820497350035e-10,7.915390817811164e-11,5.4608703583847845e-11,3.677991609858798e-11,2.4379632573119873e-11,1.5793110858338322e-11,1.0007506499485013e-11,6.22931461196821e-12,3.8058921233353076e-12,2.280866054185937e-12,1.3407991316554566e-12,7.688609487613322e-13
0.0,18,18.0,0.0,30.0,0.0,0.0,0.0,0.0,-13.0,0.0,2.0,0.0,0.0,0.0,6.872308322252344e-11,6.26097533314404e-11,5.618946627375286e-11,4.9675291925634815e-11,4.3135888877480345e-11,3.688973905457756e-11,3.102744306505502e-11,2.5499163575539963e-11,2.043639816464977e-11,1.6039657516967855e-11,1.2314218966858472e-11,9.236644179715704e-12,6.799935907899432e-12,4.899114460992836e-12,3.4459076527185118e-12,2.359958547122308e-12,1.5721790833060505e-12,1.0129234746526719e-12,6.297204544184208e-13,3.772937576876013e-13,2.1905508418666721e-13,1.2426698966639616e-13,6.887612188787853e-14,3.736661401021821e-14,1.9949017428575262e-14,1.0423402499819754e-14,3.0773789091791484e-09,1.4358847006827394e-09,7.973284096394754e-10,5.001926615781172e-10,3.3526451250170356e-10,2.3225521402867566e-10,1.6362482100763202e-10,1.1521621164239833e-10,8.070524516468873e-11,5.566140647035508e-11,3.7472586679833774e-11,2.4826622253498838e-11,1.606925035883821e-11,1.0164616922966274e-11,6.307987653226285e-12,3.837822888572002e-12,2.2904165237383176e-12,1.3426658657419137e-12,7.693203855588577e-13
0.0,19,19.0,0.0,30.0,0.0,0.0,0.0,0.0,-13.0,0.0,2.0,0.0,0.0,0.0,6.99642734951465e-11,6.373008769638263e-11,5.718319543449598e-11,5.0538548326662486e-11,4.386860619770427e-11,3.7498704108759123e-11,3.1521895537939586e-11,2.5886885517759738e-11,2.0727874152938477e-11,1.6249120417624713e-11,1.2455586963900793e-11,9.324594525255124e-12,6.850283341887369e-12,4.926175627087187e-12,3.461140349740938e-12,2.3707101941765958e-12,1.5817019785330214e-12,1.021787849458431e-12,6.37432531017525e-13,3.8337039287279337e-13,2.234265168288545e-13,1.2718632877301042e-13,7.07396071040716e-14,3.8468292549656996e-14,2.0594514907247712e-14,1.0753556507626535e-14,3.050115011127847e-09,1.4300904236712209e-09,8.013811892069905e-10,5.06568800350841e-10,3.410085118229902e-10,2.366923747028732e-10,1.6686880437716104e-10,1.175140976558832e-10,8.229366208145307e-11,5.673585287951715e-11,3.817715789039471e-11,2.528090308871639e-11,1.63523045419121e-11,1.0329881926025257e-11,6.395011905621676e-12,3.876305554064822e-12,2.3037292904731217e-12,1.3459553444829357e-12,7.700017510689524e-13
0.0,20,20.0,0.0,30.0,0.0,0.0,0.0,0.0,-13.0,0.0,2.0,0.0,0.0,0.0,7.123934806298838e-11,6.488043607568893e-11,5.820315812576792e-11,5.142439014887326e-11,4.4620519046318986e-11,3.8123942183018035e-11,3.203022791823506e-11,2.6286659213287446e-11,2.1030173521746227e-11,1.646865036803842e-11,1.2606282215564723e-11,9.420619516286395e-12,6.906690214019132e-12,4.956775542298138e-12,3.4775307610752323e-12,2.380972500490693e-12,1.5900043999262398e-12,1.0293857818888152e-12,6.441600825210719e-13,3.8880504444600443e-13,2.274220062217894e-13,1.299027944609385e-13,7.250052995036169e-14,3.9525912551490274e-14,2.1219485032170664e-14,1.1072601574791794e-14,3.0232027938963183e-09,1.425179235902137e-09,8.061226242624191e-10,5.133650940185985e-10,3.470005284706378e-10,2.4128226189245235e-10,1.702102688925888e-10,1.1987453787556897e-10,8.392108161583382e-11,5.783347905082879e-11,3.889445051279172e-11,2.574221765680084e-11,1.664080321133805e-11,1.0501242677437751e-11,6.4886897656353e-12,3.920517200488979e-12,2.3207115698465584e-12,1.3508810892917938e-12,7.711277993372067e-13
0.0,21,21.0,0.0,30.0,0.0,0.0,0.0,0.0,-13.0,0.0,2.0,0.0,0.0,0.0,7.25488291461312e-11,6.60611485473213e-11,5.924951921566663e-11,5.233278096574444e-11,4.5391377547135254e-11,3.87649795384811e-11,3.2551727939428474e-11,2.66975130270415e-11,2.1342079592425587e-11,1.669689787833264e-11,1.276505237749396e-11,9.52384707860689e-12,6.968839111407033e-12,4.991108934378094e-12,3.4955604124911974e-12,2.391255396618149e-12,1.5974702737043377e-12,1.0359453868175166e-12,6.500169183428804e-13,3.936455886432263e-13,2.310594495833085e-13,1.3242151905674544e-13,7.415860844400312e-14,4.0538315685556784e-14,2.1822173236021836e-14,1.1381867768428661e-14,2.9967516882875913e-09,1.4212159957895425e-09,8.115784266540741e-10,5.205925799368381e-10,3.532476491151706e-10,2.460302204789523e-10,1.7365307109054827e-10,1.223002179401175e-10,8.558938533284798e-11,5.895566748506716e-11,3.962540290774594e-11,2.6210758466393733e-11,1.6933951782181728e-11,1.0677215559172146e-11,6.5875712627598315e-12,3.969597721266165e-12,2.341134872191315e-12,1.3575530434078196e-12,7.728637066516985e-13
0.0,22,22.0,0.0,30.0,0.0,0.0,0.0,0.0,-13.0,0.0,2.0,0.0,0.0,0.0,7.38934470663901e-11,6.727279099021901e-11,6.032267055688551e-11,5.326392650985914e-11,4.6181193885556415e-11,3.9421629275686834e-11,3.308599990002387e-11,2.7118821282114876e-11,2.166273009057524e-11,1.6932822925059515e-11,1.2930836987571564e-11,9.633431915206978e-12,7.0362957471099365e-12,5.02918922894108e-12,3.5155495330776295e-12,2.401969826767081e-12,1.6044407740016261e-12,1.041683657259811e-12,6.551166164048532e-13,3.979418885652439e-13,2.343584988227681e-13,1.3474890098426327e-13,7.571452488140475e-14,4.150468640949488e-14,2.2401262300962818e-14,1.1682519883120116e-14,2.9708776700800282e-09,1.418266402335319e-09,8.177739940573569e-10,5.282623602473536e-10,3.5975718897734875e-10,2.509417464471176e-10,1.7720112680201182e-10,1.2479383542766829e-10,8.730042726504833e-11,6.010374072665019e-11,4.037097047210635e-11,2.66869631835513e-11,1.723142516843849e-11,1.0856798029634752e-11,6.690479455966125e-12,4.022718839812856e-12,2.364683447472908e-12,1.365994612203139e-12,7.753229512960378e-13
0.0,23,23.0,0.0,30.0,0.0,0.0,0.0,0.0,-13.0,0.0,2.0,0.0,0.0,0.0,7.527407739339412e-11,6.851607863987617e-11,6.142316057215276e-11,5.42181999594851e-11,4.6990162989362504e-11,4.0093907163793465e-11,3.3632876270389785e-11,2.755021611163704e-11,2.199154212526444e-11,1.7175652666524408e-11,1.3102773046723969e-11,9.748604219468648e-12,7.108574367681829e-12,5.070901287601847e-12,3.5376837535847912e-12,2.413433607631389e-12,1.6112117242435265e-12,1.0468032731311728e-12,6.595708938221962e-13,4.0174514529215724e-13,2.373401664995141e-13,1.3689236727757564e-13,7.71698002646779e-14,4.242451383479253e-14,2.295586870988864e-14,1.1975412713795871e-14,2.9457032352150172e-09,1.4163968094362353e-09,8.247343959710659e-10,5.363856573050399e-10,3.665367312134449e-10,2.5602250776674875e-10,1.8085842043440458e-10,1.2735810302905098e-10,8.905604414907722e-11,6.127896897563321e-11,4.1132079886016376e-11,2.717138510254688e-11,1.7533206631956504e-11,1.1039367862969331e-11,6.796503743252728e-12,4.079128998981841e-12,2.3909953962307346e-12,1.376160760707852e-12,7.785742264812088e-13
0.0,24,24.0,0.0,30.0,0.0,0.0,0.0,0.0,-13.0,0.0,2.0,0.0,0.0,0.0,7.669169991537986e-11,6.979183192592601e-11,6.255164648578385e-11,5.519609009147334e-11,4.781860615913584e-11,4.0781970316577285e-11,3.419235122574929e-11,2.7991517581881247e-11,2.232814650730787e-11,1.7424834630998957e-11,1.328018250282844e-11,9.868694720365508e-12,7.185184680614309e-12,5.116046184915622e-12,3.562041012864126e-12,2.4258801354265808e-12,1.6180329396063841e-12,1.0514900259881377e-12,6.634880640926081e-13,4.0510726866374503e-13,2.40026502040974e-13,1.3886017732753314e-13,7.852667600501371e-14,4.329756313846734e-14,2.348551467486486e-14,1.2261036650344234e-14,2.9213573270232332e-09,1.4156740300854381e-09,8.32484372595037e-10,5.449738777813607e-10,3.735941685080804e-10,2.6127836659382304e-10,1.846290180856274e-10,1.2999575463187e-10,9.085806356881959e-11,6.248258141308438e-11,4.1909613274118934e-11,2.7664616428583088e-11,1.7839469053477395e-11,1.122458907242602e-11,6.904973825924313e-12,4.1381782963736086e-12,2.4196954277355877e-12,1.3879557547889252e-12,7.82648709372864e-13
0.0,25,25.0,0.0,30.0,0.0,0.0,0.0,0.0,-13.0,0.0,2.0,0.0,0.0,0.0,7.814737292054036e-11,7.11009481854834e-11,6.370886299479357e-11,5.619816639381894e-11,4.866693211750393e-11,4.1486073685825e-11,3.476453205912805e-11,2.8442680267454007e-11,2.2672333490891614e-11,1.7679991795862077e-11,1.346255024737626e-11,9.993143004816032e-12,7.265663092460665e-12,5.164377347965253e-12,3.5886169527160685e-12,2.4394688936191955e-12,1.6251092921119153e-12,1.0559109523015426e-12,6.669716216318429e-13,4.0808025241853056e-13,2.4244031529559254e-13,1.4066126165239324e-13,7.97880049779948e-14,4.412385530349861e-14,2.3990081904165272e-14,1.2539532618203513e-14,2.8979752101171407e-09,1.4161651321994272e-09,8.410483476355926e-10,5.540386845801292e-10,3.809377462010968e-10,2.6671540190466956e-10,1.8851708279398135e-10,1.327095540187352e-10,9.270831134530365e-11,6.3715777321564e-11,4.270440735114132e-11,2.8167246517199995e-11,1.8150491968954325e-11,1.1412331214736605e-11,7.015424088358973e-12,4.19932811452039e-12,2.4504192883641125e-12,1.4012494905344442e-12,7.875472067659986e-13
0.0,26,26.0,0.0,30.0,0.0,0.0,0.0,0.0,-13.0,0.0,2.0,0.0,0.0,0.0,7.964221788617683e-11,7.244438433264104e-11,6.489560249541493e-11,5.7225056359558734e-11,4.953561086523577e-11,4.2206539991565926e-11,3.5349604568710824e-11,2.8903753614609535e-11,2.3024009832202907e-11,1.7940882875358966e-11,1.3649498505559401e-11,1.0121494884265703e-11,7.349591416809319e-12,5.215628298545209e-12,3.617347663293899e-12,2.4542968082578744e-12,1.6326031882890184e-12,1.0602132077254439e-12,6.701189999151797e-13,4.1071555430133343e-13,2.4460492867531573e-13,1.4230508836196947e-13,8.095715299317844e-14,4.4903653294582316e-14,2.446975405401878e-14,1.2810752381808317e-14,2.8756982860532706e-09,1.4179372286537431e-09,8.504504563634398e-10,5.635920757350873e-10,3.885761062739513e-10,2.7233993205145735e-10,1.925268907365257e-10,1.3550230540974707e-10,9.46086189684177e-11,6.49797359057723e-11,4.351725916704654e-11,2.8679841995881407e-11,1.8466606565237558e-11,1.1602604326614517e-11,7.127555253528098e-12,4.262149879450138e-12,2.482830581150786e-12,1.4158917309299818e-12,7.932468603348252e-13
0.0,27,27.0,0.0,30.0,0.0,0.0,0.0,0.0,-13.0,0.0,2.0,0.0,0.0,0.0,8.11774110375905e-11,7.382314686801525e-11,6.61127031934578e-11,5.827743127607104e-11,5.042515668667925e-11,4.294373949676723e-11,3.594780900792604e-11,2.937485330512727e-11,2.3383165946593736e-11,1.8207369107447518e-11,1.384076133328117e-11,1.0253393276838131e-11,7.436606127547539e-12,5.269532820984968e-12,3.648129155185852e-12,2.4704096581629353e-12,1.64063810656366e-12,1.0645236592708966e-12,6.730205437344523e-13,4.130634923175978e-13,2.4654394452809254e-13,1.4380154995968082e-13,8.203791085069186e-14,4.563745251015698e-14,2.4924954556667388e-14,1.3074341902189648e-14,2.854673846576316e-09,1.4210572650310488e-09,8.607145904552151e-10,5.736464695209589e-10,3.9651833157978164e-10,2.7815853694842056e-10,1.9666284763010658e-10,1.3837686503060763e-10,9.656083134217835e-11,6.627562480854018e-11,4.434893407823602e-11,2.9202939787215953e-11,1.8788161293521637e-11,1.1795509054652827e-11,7.241197700099037e-12,4.326316777398252e-12,2.5166310919351035e-12,1.4317239054100992e-12,7.997072197261868e-13
0.0,28,28.0,0.0,30.0,0.0,0.0,0.0,0.0,-13.0,0.0,2.0,0.0,0.0,0.0,8.275417931497314e-11,7.523828666770775e-11,6.736104244235885e-11,5.935599777594317e-11,5.1336117518125426e-11,4.369807680833686e-11,3.655942379772484e-11,2.9856141076336857e-11,2.3749851508523967e-11,1.8479387607253772e-11,1.4036161331537235e-11,1.0388565863453543e-11,7.526400886117916e-12,5.325838686397943e-12,3.680833346569759e-12,2.487812935102143e-12,1.649302839593372e-12,1.0689491280579679e-12,6.757587236903399e-13,4.1517267380359463e-13,2.4828101983438613e-13,1.451608639063609e-13,8.303441647056597e-14,4.632597340980432e-14,2.5356285511778768e-14,1.332982973040004e-14,2.8350547612130684e-09,1.425591809556278e-09,8.71864461275873e-10,5.842147950651074e-10,4.0477398980788837e-10,2.841780797435254e-10,2.0092950491668801e-10,1.41336153032788e-10,9.856681478697486e-11,6.760460761159165e-11,4.520017387205975e-11,2.9737047195973324e-11,1.9115501940477623e-11,1.1991200133431033e-11,7.356278904318301e-12,4.3915914945808295e-12,2.551565894196562e-12,1.448588398138456e-12,8.068755839263619e-13
0.0,29,29.0,0.0,30.0,0.0,0.0,0.0,0.0,-13.0,0.0,2.0,0.0,0.0,0.0,8.437379909191176e-11,7.669089679828179e-11,6.864153345138289e-11,6.046149318975804e-11,5.2269068627530635e-11,4.446998257097467e-11,3.7184754801849724e-11,3.034781084793175e-11,2.412415779148396e-11,1.8756930694288748e-11,1.423558957717564e-11,1.0526811745985587e-11,7.618724604006288e-12,5.3843161655825645e-12,3.715320655954104e-12,2.5064817361789076e-12,1.658656114724498e-12,1.0735771850625947e-12,6.784076058687376e-13,4.170894752822532e-13,2.498396450925201e-13,1.463934816378524e-13,8.395108612265129e-14,4.697015449428458e-14,2.5764471938109184e-14,1.3576707705830738e-14,2.8169990971973125e-09,1.431606850676591e-09,8.83923683286269e-10,5.953105877756359e-10,4.133531768062617e-10,2.904057279402034e-10,2.0533157553726088e-10,1.443831652926285e-10,1.0062846509814089e-10,6.896785059649087e-11,4.60717042022717e-11,3.028264546114272e-11,1.9448961362275358e-11,1.2189860817038052e-11,7.47279609095945e-12,4.457812270586452e-12,2.5874244936924785e-12,1.4663354466792372e-12,8.146915762844969e-13
0.0,30,30.0,0.0,30.0,0.0,0.0,0.0,0.0,-13.0,0.0,2.0,0.0,0.0,0.0,8.603759656670152e-11,7.81821121946675e-11,6.995512410512107e-11,6.159468333906883e-11,5.322460914033948e-11,4.5259908487149603e-11,3.7824128496836674e-11,3.0850079431598095e-11,2.4506205199864634e-11,1.904003030892934e-11,1.443898904920994e-11,1.0667988520478611e-11,7.713376810305322e-12,5.444762524013823e-12,3.751449490639822e-12,2.5263694387443486e-12,1.6687313125474167e-12,1.0784773858271629e-12,6.810325745797494e-13,4.1885758931723974e-13,2.512429279490622e-13,1.4751000220337935e-13,8.479255354475045e-14,4.7571144217366314e-14,2.6150314200333197e-14,1.381449639200837e-14,2.8006696711972157e-09,1.4391676086991328e-09,8.969158791736095e-10,6.069480888964128e-10,4.222665590247531e-10,2.9684897402402055e-10,2.0987394924107072e-10,1.475209848032734e-10,1.0274771543912553e-10,7.036652894607982e-11,4.696424109754069e-11,3.084019467679835e-11,1.9788855356198898e-11,1.2391685839269229e-11,7.590794265943179e-12,4.524878860450604e-12,2.624039158043712e-12,1.4848278987139323e-12,8.230909625375377e-13
0.0,31,31.0,0.0,30.0,0.0,0.0,0.0,0.0,-13.0,0.0,2.0,0.0,0.0,0.0,8.774694914697033e-11,7.971311045356643e-11,7.130279706687054e-11,6.275636185090306e-11,5.4203360394131715e-11,4.6068324543692476e-11,3.8477887807362206e-11,3.1363180492891526e-11,2.48961346840716e-11,1.9328746566963815e-11,1.4646341401241007e-11,1.0812000571261126e-11,7.810201637662721e-12,5.50700356910692e-12,3.789083034394456e-12,2.5474150474907674e-12,1.6795410595301107e-12,1.0837028256139854e-12,6.836902929433516e-13,4.205176508898429e-13,2.525133846192258e-13,1.4852108815290746e-13,8.556361567966659e-14,4.81302908544332e-14,2.6514650052008193e-14,1.404279205635413e-14,2.7862335341183453e-09,1.4483383687918322e-09,9.108648080929598e-10,6.19142348462923e-10,4.315254149744895e-10,3.035156557239553e-10,2.1456170746296086e-10,1.5075279252103937e-10,1.0492654389066039e-10,7.180183248003785e-11,4.7878496568006585e-11,3.141013894305727e-11,2.0135482199910594e-11,1.259687072503271e-11,7.71034925745957e-12,4.5927394251745555e-12,2.6612814053876468e-12,1.503944142063375e-12,8.320087497077683e-13
0.0,32,32.0,0.0,30.0,0.0,0.0,0.0,0.0,-13.0,0.0,2.0,0.0,0.0,0.0,8.950328741500359e-11,8.128511327784179e-11,7.268557063887239e-11,6.394735039209579e-11,5.5205965435009237e-11,4.689571766531692e-11,3.914638972386091e-11,3.188736076964349e-11,2.529410198616026e-11,1.962315955920639e-11,1.485765670578417e-11,1.0958788964643842e-11,7.909081348462885e-12,5.570893155081207e-12,3.828093784300104e-12,2.5695492106927065e-12,1.69108152841452e-12,1.0892919013052324e-12,6.864288759962825e-13,4.221069511840037e-13,2.536727434958267e-13,1.4943738259759005e-13,8.626918384063817e-14,4.86491297836491e-14,2.685832658943675e-14,1.426129528416021e-14,2.7738613924061993e-09,1.4591823434466563e-09,9.257945180765376e-10,6.319093308777763e-10,4.4114167572149387e-10,3.1041397609681284e-10,2.1940013784919138e-10,1.5408187763243186e-10,1.0716698054348215e-10,7.327497096418668e-11,4.881518342573823e-11,3.199291118788296e-11,2.0489124203791034e-11,1.2805605639743169e-11,7.831555112286383e-12,4.6613789252439765e-12,2.6990574363651734e-12,1.523579546277183e-12,8.413816213507807e-13
0.0,33,33.0,0.0,30.0,0.0,0.0,0.0,0.0,-13.0,0.0,2.0,0.0,0.0,0.0,9.130809743373104e-11,8.28993882938455e-11,7.410450005499555e-11,6.516849944140808e-11,5.6233089204443636e-11,4.774259126550696e-11,3.9830004082982276e-11,3.242287782112299e-11,2.5700273900322467e-11,1.992336362071183e-11,1.5072965705800067e-11,1.1108323038468137e-11,8.009930007283676e-12,5.636311374586438e-12,3.868366285303387e-12,2.592698978887166e-12,1.7033363342003038e-12,1.0952701776852e-12,6.892882442072831e-13,4.236592418408251e-13,2.547417657421105e-13,1.5026942741216511e-13,8.691423928294765e-14,4.9129368014047386e-14,2.718218154202835e-14,1.4469823472211978e-14,2.7637269718012667e-09,1.4717615731619306e-09,9.417295232206535e-10,6.452660222680267e-10,4.5112796454502534e-10,3.175525236661122e-10,2.24394748534235e-10,1.5751164727564143e-10,1.0947111408758338e-10,7.478717900943192e-11,4.977501944826965e-11,3.2588937432216534e-11,2.0850050217886415e-11,1.3018072347687975e-11,7.954515093124274e-12,4.730809267776455e-12,2.737303108930827e-12,1.5436467457814133e-12,8.511497747309857e-13
0.0,34,34.0,0.0,30.0,0.0,0.0,0.0,0.0,-13.0,0.0,2.0,0.0,0.0,0.0,9.316292326116446e-11,8.455725108265275e-11,7.556067901399209e-11,6.642068936514426e-11,5.728541912890451e-11,4.860946534418447e-11,4.0529113086276657e-11,3.296999879131982e-11,2.611482593512173e-11,2.0229463430671422e-11,1.5292314100610722e-11,1.1260593610982952e-11,8.11268766386607e-12,5.703161998287394e-12,3.90979847830742e-12,2.61679142827858e-12,1.716279960871292e-12,1.1016522709862195e-12,6.923006216920337e-13,4.2520462827711176e-13,2.557400873309827e-13,1.5102758330759959e-13,8.750379237324993e-14,4.957286609984593e-14,2.7487032736693883e-14,1.466831059909687e-14,2.756006332420206e-09,1.4861368745734687e-09,9.586950057091955e-10,6.592305387460992e-10,4.614976359965349e-10,3.249402928739616e-10,2.2955128227662595e-10,1.610456357898455e-10,1.1184109790459981e-10,7.633972057269316e-11,5.075873099884371e-11,3.319864044823924e-11,2.121851845114548e-11,1.3234443202290672e-11,8.079335533329416e-12,4.801061237173436e-12,2.775978889773636e-12,1.5640750664475065e-12,8.612582305084126e-13
0.0,35,35.0,0.0,30.0,0.0,0.0,0.0,0.0,-13.0,0.0,2.0,0.0,0.0,0.0,9.50693696059815e-11,8.62600673396691e-11,7.705524134552729e-11,6.770483165849778e-11,5.836366593497638e-11,4.949687690631426e-11,4.124411127275922e-11,3.352899982673439e-11,2.6537940928511914e-11,2.054157143684553e-11,1.5515758431100426e-11,1.1415607638449344e-11,8.217315234670396e-12,5.771369574885541e-12,3.9523020271320225e-12,2.6417562977037088e-12,1.7298806929452903e-12,1.1084436795718615e-12,6.954911425968721e-13,4.2676954688914997e-13,2.566860861643402e-13,1.5172195298152473e-13,8.804284477423362e-14,4.9981617806213054e-14,2.7773674237497628e-14,1.485679802722799e-14,2.750877147335766e-09,1.5023678454952366e-09,9.767170420927158e-10,6.738222346899394e-10,4.722648146954784e-10,3.325867051169614e-10,2.3487573055746263e-10,1.646875135857398e-10,1.142791557085987e-10,7.793389307892574e-11,5.1767056195235e-11,3.3822442846433073e-11,2.1594779239109768e-11,1.3454881387878655e-11,8.206121877806737e-12,4.872178100370651e-12,2.8150650762015073e-12,1.5848093584282077e-12,8.716576870479828e-13
0.0,36,36.0,0.0,30.0,0.0,0.0,0.0,0.0,-13.0,0.0,2.0,0.0,0.0,0.0,9.702910459436909e-11,8.80092551208662e-11,7.858936275283331e-11,6.902187027603116e-11,5.946856458512183e-11,5.040538056037119e-11,4.1975405759580334e-11,3.4100165903851895e-11,2.6969808294560487e-11,2.0859806216032238e-11,1.5743363188310996e-11,1.1573384110325494e-11,8.32379014935214e-12,5.84087647952385e-12,3.995801931434706e-12,2.6675277972677978e-12,1.7441030560744684e-12,1.115642508699712e-12,6.988785305131069e-13,4.2837681805372604e-13,2.5759677679298147e-13,1.5236230878320605e-13,8.853635427434998e-14,5.0357728039847376e-14,2.804287753459866e-14,1.503541988998808e-14,2.748517960462045e-09,1.520512936257217e-09,9.958228525355758e-10,6.890618102001899e-10,4.834444342936208e-10,3.4050163063640643e-10,2.403743477350219e-10,1.6844109573828233e-10,1.1678758680510053e-10,7.957103119332743e-11,5.2800747699941125e-11,3.446076966182397e-11,2.197907757482039e-11,1.3679541868575816e-11,8.3349763391551e-12,4.944210700475841e-12,2.854557469909387e-12,1.6058084547672823e-12,8.823049905380558e-13
0.0,37,37.0,0.0,30.0,0.0,0.0,0.0,0.0,-13.0,0.0,2.0,0.0,0.0,0.0,9.904386263871495e-11,8.9806287159005e-11,8.016426260648152e-11,7.03727830122292e-11,6.060087527542701e-11,5.1335549211736947e-11,4.2723416632745234e-11,3.468379090345151e-11,2.7410623677396692e-11,2.1184291480309286e-11,1.597519883498778e-11,1.173395096453339e-11,8.432102749499812e-12,5.911640098989946e-12,4.040235673800148e-12,2.6940457436221053e-12,1.75890979276094e-12,1.1232410522736537e-12,7.024758187910734e-13,4.300457648324385e-13,2.5848773403645684e-13,1.5295802635409684e-13,8.898920207493279e-14,5.070338963830648e-14,2.829539618884464e-14,1.5204386075366626e-14,2.749107443438749e-09,1.5406295962830897e-09,1.016041070998972e-09,7.049714169958874e-10,4.950522771277667e-10,3.486954115200888e-10,2.4605366533667593e-10,1.7231035040301145e-10,1.193687710511646e-10,8.125251028177545e-11,5.3860575190393445e-11,3.511405051792122e-11,2.2371655327027088e-11,1.390857267944077e-11,8.465996704848636e-12,5.017213818872717e-12,2.8944635977552918e-12,1.6270434320915758e-12,8.931632893742923e-13
0.0,38,38.0,0.0,30.0,0.0,0.0,0.0,0.0,-13.0,0.0,2.0,0.0,0.0,0.0,1.0111544740920256e-10,9.165269324700271e-11,8.178120578125362e-11,7.175858291525214e-11,6.176138446516582e-11,5.22879748022932e-11,4.348857741528599e-11,3.528017782617002e-11,2.7860588858983185e-11,2.1515155517400855e-11,1.6211340492512196e-11,1.1897342819072242e-11,8.542253380022818e-12,5.983630265919457e-12,4.0855520942001756e-12,2.7212561654841626e-12,1.7742634137432582e-12,1.1312272086164698e-12,7.062910836793668e-13,4.317923861356124e-13,2.593730456061949e-13,1.5351802557235033e-13,8.94061624906631e-14,5.1020859635157527e-14,2.8531972481992155e-14,1.536396511510079e-14,2.75282367522189e-09,1.5627745039709113e-09,1.0374020335843788e-09,7.215747621836868e-10,5.07105015157826e-10,3.571788860494345e-10,2.519205065572904e-10,1.762994071537257e-10,1.2202517360371629e-10,8.297974960361604e-11,5.494732755816892e-11,3.578272144255258e-11,2.2772753132902652e-11,1.4142116326345978e-11,8.599275931776135e-12,5.091243581250307e-12,2.9347995114856093e-12,1.6484958094670069e-12,9.042019371512381e-13
0.0,39,39.0,0.0,30.0,0.0,0.0,0.0,0.0,-13.0,0.0,2.0,0.0,0.0,0.0,1.0324573491426666e-10,9.355006269289058e-11,8.344150453763051e-11,7.318031972954428e-11,6.29509059249457e-11,5.326326907013222e-11,4.4271335570089125e-11,3.5889639082902584e-11,2.831991181839986e-11,2.185253091436483e-11,1.6451867101455464e-11,1.2063599340330167e-11,8.654250089527263e-12,6.056826998299263e-12,4.1317101364699946e-12,2.749111506823629e-12,1.7901273739782482e-12,1.1395857191826427e-12,7.103281668252003e-13,4.3362957270258324e-13,2.602652927594854e-13,1.540507198905588e-13,8.979187512173116e-14,5.131243559791943e-14,2.875334483519937e-14,1.5514468563854108e-14,2.7598434720503287e-09,1.5870038865713835e-09,1.0599380815694068e-09,7.388972095847196e-10,5.196202528466882e-10,3.659634145929147e-10,2.579820010238861e-10,1.8041256533425903e-10,1.247593495414465e-10,8.475421528356245e-11,5.606181487972905e-11,3.64672264007803e-11,2.318261198601344e-11,1.4380311153929064e-11,8.734902252531894e-12,5.166355696359295e-12,2.975587154518607e-12,1.6701557857980282e-12,9.153962034212852e-13
0.0,40,40.0,0.0,30.0,0.0,0.0,0.0,0.0,-13.0,0.0,2.0,0.0,0.0,0.0,1.0543667669790383e-10,9.550004685456162e-11,8.51465204543085e-11,7.463908136957257e-11,6.417028179974679e-11,5.4262064316999235e-11,4.507215301362249e-11,3.6512496819840145e-11,2.87888068762689e-11,2.2196554459608832e-11,1.6696860910971696e-11,1.223276409642927e-11,8.76810684754275e-12,6.131218561459126e-12,4.178677570447066e-12,2.777570536747701e-12,1.8064669256600824e-12,1.1482992286717552e-12,7.145873684360323e-13,4.355673544732094e-13,2.6117555711304434e-13,1.5456397485299623e-13,9.015081961854585e-14,5.158043258335273e-14,2.896025500555335e-14,1.5656237792874695e-14,2.770341799133019e-09,1.6133739348658274e-09,1.0836838750857142e-09,7.569658786264837e-10,5.326165726738837e-10,3.7506090720741087e-10,2.642455998811016e-10,1.8465430251146634e-10,1.275739484396702e-10,8.657742310907261e-11,5.720487019669368e-11,3.7168018600147664e-11,2.3601474555681478e-11,1.46232926042859e-11,8.872959591165207e-12,5.242604339495191e-12,3.0168522555831966e-12,1.6920205856945523e-12,9.267268453970653e-13
0.0,41,41.0,0.0,30.0,0.0,0.0,0.0,0.0,-13.0,0.0,2.0,0.0,0.0,0.0,1.0769030316263542e-10,9.75043617645229e-11,8.68976664204615e-11,7.6135995430119e-11,6.542038368817506e-11,5.528501417900777e-11,4.589150662861221e-11,3.7149083255082264e-11,2.9267494882687023e-11,2.2547367151900822e-11,1.6946407190285472e-11,1.2404883771845643e-11,8.883842187943504e-12,6.206799843927773e-12,4.226429760115863e-12,2.806598056411168e-12,1.823249700604722e-12,1.1573491722749298e-12,7.190660970152361e-13,4.376131686168266e-13,2.6211345105242815e-13,1.5506507624927827e-13,9.048729318669907e-14,5.182716118212504e-14,2.9153454324083924e-14,1.5789633580893238e-14,2.7844912984955725e-09,1.641941315021426e-09,1.1086767129846885e-09,7.758097411979882e-10,5.461135839789272e-10,3.8448385306596266e-10,2.7071909125248225e-10,1.8902928311111752e-10,1.3047171896886638e-10,8.845094119686955e-11,5.837735114022583e-11,3.788556161437472e-11,2.4029586278671038e-11,1.487119433067857e-11,9.013528144768352e-12,5.320041520143619e-12,3.0586226926427407e-12,1.7140929586092479e-12,9.381795872524813e-13
0.0,42,42.0,0.0,30.0,0.0,0.0,0.0,0.0,-13.0,0.0,2.0,0.0,0.0,0.0,1.1000872702738408e-10,9.956479085612912e-11,8.869640869735923e-11,7.76722307397087e-11,6.67021137415385e-11,5.633279440050398e-11,4.672988877079538e-11,3.77997410146937e-11,2.975620342369213e-11,2.2905114269217445e-11,1.7200594085382936e-11,1.258000764514991e-11,9.00147819521772e-12,6.283571022827063e-12,4.2749485219980675e-12,2.8361644755066292e-12,1.840446071657655e-12,1.166716500993989e-12,7.237594658332725e-13,4.397721385116973e-13,2.630871686909949e-13,1.5556070803442677e-13,9.08053909776257e-14,5.205490704024475e-14,2.93337084797837e-14,1.5915028478492116e-14,2.8024619695865633e-09,1.6727637770782374e-09,1.1349568542836566e-09,7.954597173080138e-10,5.601319757962933e-10,3.942453517873994e-10,2.7741061613974645e-10,1.9354236731307867e-10,1.334555135773635e-10,9.03763925680605e-11,5.958014143112412e-11,3.862033036379911e-11,2.4467196263165735e-11,1.5124149156639428e-11,9.1566850327102e-12,5.398716801212886e-12,3.1009272630006707e-12,1.7363798560202395e-12,9.497445468749986e-13
0.0,43,43.0,0.0,30.0,0.0,0.0,0.0,0.0,-13.0,0.0,2.0,0.0,0.0,0.0,1.1239414693012328e-10,1.0168318780379481e-10,9.054426905909106e-11,7.924899896383536e-11,6.801640578710323e-11,5.740610361312937e-11,4.7587807768912583e-11,3.8464823462813286e-11,3.025516703223416e-11,2.3269945467258926e-11,1.745951256683107e-11,1.2758187253951279e-11,9.121039760482793e-12,6.361536486163502e-12,4.324221098289715e-12,2.8662453148335354e-12,1.858029338465455e-12,1.1763822593915635e-12,7.286608300456586e-13,4.420473552049697e-13,2.641035540504304e-13,1.5605693984297782e-13,9.1108989485576e-14,5.2265912156884194e-14,2.95018005699937e-14,1.6032801650020852e-14,2.8244210400772935e-09,1.7059008561855124e-09,1.1625678367558013e-09,8.159487708539919e-10,5.746935742674246e-10,4.043591467048645e-10,2.843286848362786e-10,1.9819862027670867e-10,1.365282933074773e-10,9.23554576664102e-11,6.081415228446553e-11,3.9372811984363886e-11,2.491455804119382e-11,1.5382289886252332e-11,9.30250494946548e-12,5.4786772636048615e-12,3.143794794199715e-12,1.7588912960097275e-12,9.61415643082009e-13
0.0,44,44.0,0.0,30.0,0.0,0.0,0.0,0.0,-13.0,0.0,2.0,0.0,0.0,0.0,1.1484885118608135e-10,1.0386147949064664e-10,9.244282702184893e-11,8.086755626416915e-11,6.936422647981986e-11,5.850566412308868e-11,4.8465788419273955e-11,3.914469502442425e-11,3.076462739661227e-11,2.36420148891296e-11,1.772325643168419e-11,1.2939476189686448e-11,9.242554045382983e-12,6.440703976226689e-12,4.3742392548904975e-12,2.8968206774921503e-12,1.875975777713448e-12,1.186328032064435e-12,7.337622615526883e-13,4.4444015422378733e-13,2.6516818302992696e-13,1.5655922366028159e-13,9.140173303056521e-14,5.246235817112902e-14,2.965853231947866e-14,1.6143335742644842e-14,2.850533063373991e-09,1.7414146591035606e-09,1.1915567887835084e-09,8.373120072669219e-10,5.898214050949183e-10,4.1483966008151996e-10,2.9148219395168084e-10,2.0300332176131832e-10,1.3969313278298278e-10,9.43898768493643e-11,6.208032374496124e-11,4.0143506611578084e-11,2.5371930200779884e-11,1.5645749979649775e-11,9.4510607819198e-12,5.559967633314316e-12,3.1872535332114993e-12,1.7816394131940008e-12,9.73190009670122e-13
0.0,45,45.0,0.0,30.0,0.0,0.0,0.0,0.0,-13.0,0.0,2.0,0.0,0.0,0.0,1.17375221713535e-10,1.0610166911797506e-10,9.43937221706156e-11,8.252920501918899e-11,7.07465764863648e-11,5.963222270993737e-11,4.936437247726926e-11,3.983973150161566e-11,3.12848335636398e-11,2.4021481275503402e-11,1.7991922334869814e-11,1.3123929979897048e-11,9.366050103022453e-12,6.521083918579205e-12,4.4249985044960814e-12,2.927874719523046e-12,1.8942645923270854e-12,1.1965362758851228e-12,7.390549612947599e-13,4.4695038196661755e-13,2.6628545577700776e-13,1.5707239899732003e-13,9.16870233564389e-14,5.264635176957136e-14,2.9804723516960315e-14,1.6247015272169484e-14,2.880960276289907e-09,1.7793707248438652e-09,1.2219747315814985e-09,8.595867752023524e-10,6.055397613437113e-10,4.257020302677667e-10,2.988804441698416e-10,2.0796197619929485e-10,1.4295322539465315e-10,9.648145287693926e-11,6.337962597656902e-11,4.093292810136893e-11,2.5839576924035984e-11,1.591466411139605e-11,9.602424169697335e-12,5.642630508305556e-12,3.231330756865706e-12,1.8046376839690117e-12,9.850674364069352e-13
0.0,46,46.0,0.0,30.0,0.0,0.0,0.0,0.0,-13.0,0.0,2.0,0.0,0.0,0.0,1.1997573814071685e-10,1.0840583947156599e-10,9.639865659124797e-11,8.423529561085705e-11,7.216449170479866e-11,6.078655144023161e-11,5.028411914859249e-11,4.0550320385279005e-11,3.1816042136317e-11,2.440850806969296e-11,1.8265609834326103e-11,1.3311606027446737e-11,9.491558615176482e-12,6.602688903503876e-12,4.476497448397231e-12,2.959395141251229e-12,1.9128777885673233e-12,1.2069905549124607e-12,7.44529610712388e-13,4.4957664721436495e-13,2.674586962371882e-13,1.5760070574865252e-13,9.196801231859337e-14,5.2819912273941005e-14,2.9941209827430826e-14,1.6344226025198388e-14,2.9158632447519965e-09,1.8198389449343754e-09,1.2538768703238182e-09,8.828127747482233e-10,6.218742767042484e-10,4.3696215080004704e-10,3.0653315889100566e-10,2.1308032327051162e-10,1.463118887002437e-10,9.86320534198979e-11,6.471306052734176e-11,4.1741604705889534e-11,2.6317768452709015e-11,1.6189168630237748e-11,9.756665999153364e-12,5.726706639026636e-12,3.2760525532916483e-12,1.8279003118453953e-12,9.970498513593429e-13
0.0,47,47.0,0.0,30.0,0.0,0.0,0.0,0.0,-13.0,0.0,2.0,0.0,0.0,0.0,1.2265298210885163e-10,1.1077615636031449e-10,9.845939741481914e-11,8.598722828113998e-11,7.361904452264912e-11,6.196944849931577e-11,5.122560558300043e-11,4.127686116461365e-11,3.23585174671482e-11,2.4803263515256734e-11,1.8544421440358247e-11,1.3502563585200264e-11,9.619111713844363e-12,6.6855332903116155e-12,4.528737226729144e-12,2.9913727130231788e-12,1.9318000046939086e-12,1.2176756940788706e-12,7.501766656141342e-13,4.523165545157364e-13,2.686902559140194e-13,1.581478037967796e-13,9.224759758092093e-14,5.298496140523254e-14,3.00688392145274e-14,1.6435355032848838e-14,2.9554018171293803e-09,1.8628945260387496e-09,1.2873228745426375e-09,9.070321747661492e-10,6.388520041309751e-10,4.486367114699149e-10,3.144505039351227e-10,2.1836434901577822e-10,1.4977257004640728e-10,1.0084361360595524e-10,6.608166158798827e-11,4.257007971898124e-11,2.68067814985235e-11,1.6469401937850143e-11,9.913856829601744e-12,5.812235229791198e-12,3.321443731474874e-12,1.851441754685632e-12,1.0091408538949927e-12
0.0,48,48.0,0.0,30.0,0.0,0.0,0.0,0.0,-13.0,0.0,2.0,0.0,0.0,0.0,1.2540964178758743e-10,1.132148722422441e-10,1.0057777947974967e-10,8.778645506147333e-11,7.511134511589442e-11,6.318173904446708e-11,5.2189427373307355e-11,4.2019765636841004e-11,3.291253184886079e-11,2.5205920745722845e-11,1.8828462663896063e-11,1.3696863751501823e-11,9.748742862650165e-12,6.76963290893232e-12,4.581721064937989e-12,3.0238008432034715e-12,1.9510183100958865e-12,1.228577866537082e-12,7.559865967508107e-13,4.551669172903259e-13,2.6998161918516637e-13,1.5871679835692968e-13,9.252842119035537e-14,5.314331516850308e-14,3.018846725269816e-14,1.652079075286138e-14,2.9997363937747677e-09,1.9086189759504165e-09,1.3223771503108163e-09,9.322897419279218e-10,6.565014995824968e-10,4.60743241444831e-10,3.2264310850459997e-10,2.2382029751431394e-10,1.5333885241325604e-10,1.0311813862108428e-10,6.748649726009327e-11,4.341891210300386e-11,2.7306899612122672e-11,1.675550480252117e-11,1.0074067255253299e-11,5.899254238745437e-12,3.3675278232794848e-12,1.875276374420152e-12,1.0213453033652446e-12
0.0,49,49.0,0.0,30.0,0.0,0.0,0.0,0.0,-13.0,0.0,2.0,0.0,0.0,0.0,1.2824851661976654e-10,1.1572433005192578e-10,1.0275570811576503e-10,8.963448177772642e-11,7.664254279119376e-11,6.442427608259408e-11,5.31761990621399e-11,4.277945821933927e-11,3.347836570445946e-11,2.5616657867121762e-11,1.9117842061111537e-11,1.3894569476788008e-11,9.880486779695592e-12,6.8550048372767745e-12,4.635453903621363e-12,3.0566751919657376e-12,1.9705219895826787e-12,1.2396846280609153e-12,7.61950082056436e-13,4.581239494397605e-13,2.713335078717895e-13,1.5931027002943332e-13,9.281287085214459e-14,5.329667776074743e-14,3.030095162934861e-14,1.6600923188355344e-14,3.0490295079869355e-09,1.957101093761046e-09,1.359109109008112e-09,9.586329837238346e-10,6.748529104504301e-10,4.733001545964912e-10,3.311220876143537e-10,2.2945468313635017e-10,1.570144604783366e-10,1.0545770638222518e-10,6.892867084738678e-11,4.42886771060902e-11,2.7818413521467675e-11,1.7047620621646866e-11,1.0237368209085171e-11,5.987800662148503e-12,3.414327149067673e-12,1.899418189857922e-12,1.0336689649145933e-12
0.0,50,50.0,0.0,30.0,0.0,0.0,0.0,0.0,-13.0,0.0,2.0,0.0,0.0,0.0,1.3117252231228642e-10,1.1830696724113255e-10,1.0499516205221517e-10,9.153287013291317e-11,7.821382737381141e-11,6.569794137567669e-11,5.4186554658795104e-11,4.355637626610886e-11,3.405630777845057e-11,2.6035658034608832e-11,1.9412671273614523e-11,1.4095745575252822e-11,1.0014379388344414e-11,6.941667236685887e-12,4.6899420991993305e-12,3.089993331311186e-12,1.9903023239280735e-12,1.2509849102859158e-12,7.680581558535044e-13,4.611834350531701e-13,2.727459831233314e-13,1.5993030853603528e-13,9.310308369122798e-14,5.3446637372334706e-14,3.040714613590475e-14,1.667614376095937e-14,3.103447698568283e-09,2.008437946659991e-09,1.397593439662466e-09,9.861123072017288e-10,6.939380682100312e-10,4.863267972815514e-10,3.3989906619074583e-10,2.3527430336825317e-10,1.6080326689625817e-10,1.0786447029750724e-10,7.04093221807295e-11,4.517996687654576e-11,2.8341621448203493e-11,1.734589564479567e-11,1.0403831216121607e-11,6.0779107946437656e-12,3.4618629241420243e-12,1.9238807141497355e-12,1.046118211071017e-12
0.0,51,51.0,0.0,30.0,0.0,0.0,0.0,0.0,-13.0,0.0,2.0,0.0,0.0,0.0,1.3418469608848081e-10,1.2096532004125474e-10,1.0729819645198957e-10,9.348323986986525e-11,7.982643064400041e-11,6.700364637709595e-11,5.5221148168421005e-11,4.4350970390163994e-11,3.464665533082484e-11,2.6463109524737618e-11,1.9713065064491044e-11,1.4300458737969724e-11,1.0150457786224004e-11,7.029639231226603e-12,4.7451931837489614e-12,3.123754449630338e-12,2.010352374744034e-12,1.2624689829441632e-12,7.743023204001622e-13,4.643408764446124e-13,2.7421854304425346e-13,1.60578549155465e-13,9.340095225538602e-14,5.359466372966161e-14,3.050789443071329e-14,1.6746844836723152e-14,3.1631636386971005e-09,2.0627358196215126e-09,1.4379103936481551e-09,1.0147811944820325e-09,7.137905848938204e-10,4.99843498911178e-10,3.4898620501467837e-10,2.412862521960479e-10,1.647092987934581e-10,1.1034066213009544e-10,7.192962898459617e-11,4.6093391079126926e-11,2.887682940865184e-11,1.7650479167073285e-11,1.0573528603882466e-11,6.169620461490226e-12,3.5101553885347046e-12,1.9486768599948035e-12,1.058699775727911e-12
0.0,52,52.0,0.0,30.0,0.0,0.0,0.0,0.0,-13.0,0.0,2.0,0.0,0.0,0.0,1.3728820221486506e-10,1.2370202795152544e-10,1.0966694607140885e-10,9.548727101632608e-11,8.148162782508025e-11,6.83423332018508e-11,5.6280654135704454e-11,4.516370479316684e-11,3.5249714335041886e-11,2.6899205805058125e-11,2.0019141351012045e-11,1.4508777545547038e-11,1.0288760225637598e-11,7.118940819575152e-12,4.801215673530489e-12,3.157959097778886e-12,2.0306667793001166e-12,1.2741283936714762e-12,7.806746250370691e-13,4.675916212707396e-13,2.7575021483715074e-13,1.612562109357177e-13,9.370813249578971e-14,5.374210721233673e-14,3.060402382820992e-14,1.6813418869747682e-14,3.2283584717150136e-09,2.1201111302169925e-09,1.4801460915714263e-09,1.0446963952712277e-09,7.344459532078112e-10,5.138716257228738e-10,3.583962286364071e-10,2.474979340265085e-10,1.6873674448451343e-10,1.1288859498142074e-10,7.349080828975205e-11,4.7029577516309207e-11,2.942435150469606e-11,1.7961523700682582e-11,1.0746533677403378e-11,6.262965221694342e-12,3.5592239471463352e-12,1.9738188975572415e-12,1.071420555790022e-12
0.0,53,53.0,0.0,30.0,0.0,0.0,0.0,0.0,-13.0,0.0,2.0,0.0,0.0,0.0,1.4048633781131136e-10,1.2651983845158885e-10,1.1210362854636782e-10,9.75467062153986e-11,8.318073912699085e-11,6.971497563334162e-11,5.736576820538475e-11,4.599505760344455e-11,3.586579968085374e-11,2.7344145602758255e-11,2.0331021235079305e-11,1.4720772479455724e-11,1.0429326100749696e-11,7.209592810736746e-12,4.858018917071808e-12,3.192608972878301e-12,2.051241558937093e-12,1.2859558924919768e-12,7.871677179281466e-13,4.709309698626118e-13,2.773396405604991e-13,1.6196413583931255e-13,9.402605344724491e-14,5.3890199370117084e-14,3.0696339333302234e-14,1.6876257180874353e-14,3.299224293872051e-09,2.1806913086523153e-09,1.5243928621559566e-09,1.075918135802846e-09,7.559416504877821e-10,5.284336382100571e-10,3.6814245532308e-10,2.539170781258811e-10,1.7288996042620363e-10,1.1551066640827339e-10,7.50941178937025e-11,4.798917275650679e-11,2.9984510208800616e-11,1.827918513093677e-11,1.092292086551658e-11,6.357980542949605e-12,3.609087310926448e-12,1.99931845208697e-12,1.0842874550583199e-12
0.0,54,54.0,0.0,30.0,0.0,0.0,0.0,0.0,-13.0,0.0,2.0,0.0,0.0,0.0,1.4378253894907017e-10,1.294216119306399e-10,1.1461054780585644e-10,9.966335314482098e-11,8.492513134956425e-11,7.112258016884581e-11,5.847720770226986e-11,4.6845521223497595e-11,3.6495235382329586e-11,2.779813297409801e-11,2.0648829032505074e-11,1.4936515931793227e-11,1.057219593848387e-11,7.301616776901007e-12,4.91561297503405e-12,3.2277067357250117e-12,2.0720739431920595e-12,1.2979453467465238e-12,7.937748750248276e-13,4.743542641786348e-13,2.7898515589168674e-13,1.627028280684256e-13,9.435592832683058e-14,5.404005466365189e-14,3.078561810058308e-14,1.6935748426224684e-14,3.3759667195779383e-09,2.2446156521509896e-09,1.5707496216231068e-09,1.1085103430566547e-09,7.783172472099157e-10,5.435531526511965e-10,3.7823882902196154e-10,2.60551753567098e-10,1.7717347843664282e-10,1.1820936168560822e-10,7.674085786753006e-11,4.897284277050185e-11,3.055763664663858e-11,1.860362286155195e-11,1.1102765844192048e-11,6.4547019505006715e-12,3.659763632748438e-12,2.0251865302733384e-12,1.0973072647817999e-12
