Line_number,Fiducial,Easting,Northing,Height,Elevation,tx_pitch,tx_roll,tx_yaw,txrx_dx,txrx_dy,txrx_dz,rx_pitch,rx_roll,rx_yaw,S0Z_time_3.834e-04,S0Z_time_3.924e-04,S0Z_time_4.039e-04,S0Z_time_4.184e-04,S0Z_time_4.364e-04,S0Z_time_4.589e-04,S0Z_time_4.869e-04,S0Z_time_5.224e-04,S0Z_time_5.679e-04,S0Z_time_6.249e-04,S0Z_time_6.969e-04,S0Z_time_7.879e-04,S0Z_time_9.019e-04,S0Z_time_1.046e-03,S0Z_time_1.227e-03,S0Z_time_1.456e-03,S0Z_time_1.744e-03,S0Z_time_2.109e-03,S0Z_time_2.567e-03,S0Z_time_3.145e-03,S0Z_time_3.864e-03,S0Z_time_4.745e-03,S0Z_time_5.821e-03,S0Z_time_7.140e-03,S0Z_time_8.754e-03,S0Z_time_1.073e-02,S1Z_time_2.057e-05,S1Z_time_2.607e-05,S1Z_time_3.307e-05,S1Z_time_4.206e-05,S1Z_time_5.356e-05,S1Z_time_6.807e-05,S1Z_time_8.607e-05,S1Z_time_1.086e-04,S1Z_time_1.366e-04,S1Z_time_1.721e-04,S1Z_time_2.176e-04,S1Z_time_2.746e-04,S1Z_time_3.466e-04,S1Z_time_4.376e-04,S1Z_time_5.516e-04,S1Z_time_6.956e-04,S1Z_time_8.771e-04,S1Z_time_1.106e-03,S1Z_time_1.394e-03
0.0,0,0.0,0.0,30.0,0.0,0.0,0.0,0.0,-13.0,0.0,2.0,0.0,0.0,0.0,1.4422711649808479e-11,1.3552167499042645e-11,1.2805156387444186e-11,1.2336074423756493e-11,1.1134455090528723e-11,1.0084319933802501e-11,9.373123900740555e-12,8.495942262697434e-12,7.96201927139706e-12,7.112488738265094e-12,5.926265810960256e-12,5.080465869786417e-12,3.883850122874778e-12,3.358521253661078e-12,3.0124130662870972e-12,2.3231017651033743e-12,1.6763807072911364e-12,1.2237812426611106e-12,9.74177452167349e-13,7.191264768449533e-13,4.949285349941967e-13,3.389855287113431e-13,2.377893719008167e-13,1.5534096116031347e-13,1.0345393880165653e-13,6.296569651425812e-14,1.3885821391430154e-10,7.000550152641207e-11,4.762834936843489e-11,3.696093376003468e-11,2.9023856833381698e-11,2.2229537248631895e-11,1.81657002271263e-11,1.4550233439859656e-11,1.0494566306016918e-11,9.008427047543459e-12,6.774795845784159e-12,5.177720825464919e-12,3.867003017628022e-12,2.983211540183843e-12,2.1601648036194765e-12,1.5745863942841876e-12,1.1047351942344456e-12,7.851336029063046e-13,5.131083773312085e-13
0.0,1,1.0,0.0,30.0,0.0,0.0,0.0,0.0,-13.0,0.0,2.0,0.0,0.0,0.0,1.0963441355713409e-11,1.0791980647182499e-11,1.092992576246028e-11,1.01422065609603e-11,9.646798494752092e-12,9.177842155522688e-12,7.992595357730292e-12,7.301532152258065e-12,6.413557611281821e-12,6.048086809911377e-12,4.96514435771455e-12,4.222814715638387e-12,3.55292254611364e-12,3.0507156536425444e-12,2.4328120358078792e-12,1.8816822562220863e-12,1.3494631690783964e-12,1.121157645803987e-12,8.418448270424833e-13,6.095055200809173e-13,4.225327935011479e-13,2.998454088419257e-13,1.9542610427067653e-13,1.391106147235015e-13,8.808517947026298e-14,5.643867690725287e-14,2.0352290272261637e-10,7.978870055326536e-11,4.879207061257109e-11,3.2998675164571615e-11,2.5809690305219327e-11,1.9956373958206556e-11,1.5608867589510303e-11,1.2931702498445025e-11,9.656629909819888e-12,7.934069429013023e-12,5.8086607449853375e-12,4.290355771899425e-12,3.402102410195344e-12,2.5852807987620044e-12,1.854979977156662e-12,1.3337959219090039e-12,9.67771301035395e-13,6.483396930577939e-13,4.3002199216307445e-13
0.0,2,2.0,0.0,30.0,0.0,0.0,0.0,0.0,-13.0,0.0,2.0,0.0,0.0,0.0,1.0545377614681936e-11,9.563120456184486e-12,8.894384868040185e-12,8.524190449443305e-12,8.243686748211499e-12,7.632951938589945e-12,6.680481184142129e-12,6.083965584536348e-12,5.395591045193143e-12,4.845403504058854e-12,4.002110974106602e-12,3.7429725031535865e-12,3.0123250614677496e-12,2.504682873360013e-12,2.0025227498545012e-12,1.6082548991221408e-12,1.3253097734658728e-12,1.0272989206602551e-12,7.582376470562581e-13,5.595409624433599e-13,3.765444843382179e-13,2.5870485653413374e-13,1.7960831464008797e-13,1.2608582703272192e-13,8.07778860893494e-14,5.233184848389853e-14,3.1052729407524734e-10,1.2304779047074312e-10,6.352186041067785e-11,3.314821235322769e-11,2.326961340620246e-11,1.670034597711448e-11,1.3230696147161745e-11,1.0616618631097682e-11,7.962647005413891e-12,6.332770549973463e-12,4.638203051230797e-12,3.867652455663818e-12,2.764661961740482e-12,2.0347641494813792e-12,1.5841974652955409e-12,1.143013987299296e-12,7.704594147897704e-13,5.853777889159034e-13,3.814795113933687e-13
0.0,3,3.0,0.0,30.0,0.0,0.0,0.0,0.0,-13.0,0.0,2.0,0.0,0.0,0.0,8.825287179040948e-12,8.491568754505127e-12,7.910102249982798e-12,7.502623235282711e-12,6.875938711042403e-12,6.329822365375177e-12,5.792861473457078e-12,5.326557210259728e-12,4.841315080286525e-12,4.1936574043313045e-12,3.6082873117356244e-12,3.157579312820888e-12,2.6535799681943934e-12,2.111871852136877e-12,1.848666849941428e-12,1.3984686616842333e-12,1.0842066230279113e-12,8.440060488709446e-13,6.478802020131644e-13,4.589751271580904e-13,3.4369875319794333e-13,2.447112947277737e-13,1.5767502674534559e-13,1.0889898317124537e-13,7.499535487265167e-14,4.686756295609661e-14,3.9878661981776137e-10,1.8671585057145638e-10,7.982577020887821e-11,4.054396667468478e-11,2.2950653177796305e-11,1.6125308086208107e-11,1.1714678259936452e-11,8.795140382915501e-12,6.926433637594247e-12,5.28501227386823e-12,4.2802718682673385e-12,3.2848412789589566e-12,2.2922974019477308e-12,1.873477025099357e-12,1.3331458404066663e-12,9.81849138994949e-13,7.178947760329633e-13,4.945125469145401e-13,3.4410137600541214e-13
0.0,4,4.0,0.0,30.0,0.0,0.0,0.0,0.0,-13.0,0.0,2.0,0.0,0.0,0.0,7.636348053554407e-12,7.405040340360433e-12,6.643932243170448e-12,6.347970102663441e-12,6.077349187753958e-12,5.17316322097896e-12,5.199121011600043e-12,4.7022543100154864e-12,4.267357026046325e-12,3.543911464090421e-12,3.2476544068770394e-12,2.742273612436514e-12,2.2743360561149762e-12,1.9573391838503763e-12,1.5159514623556496e-12,1.2769779739131874e-12,9.756793242020273e-13,7.374953861563611e-13,5.62683365221865e-13,4.3429919039607844e-13,2.9591792881528407e-13,1.981518754022965e-13,1.4981678784230154e-13,1.024079506317942e-13,6.691530422737529e-14,4.45918734426787e-14,4.540640440284246e-10,2.3141651126559906e-10,1.0481175642872993e-10,5.2737931749875574e-11,2.6050158755662736e-11,1.4748695108444535e-11,1.054870281761825e-11,7.949455594824832e-12,6.473692045305566e-12,4.776510643919392e-12,3.747080312274641e-12,2.6899069250502028e-12,2.262361177171685e-12,1.5247543526852488e-12,1.0781294447880552e-12,8.562136200003381e-13,5.931414893177913e-13,4.091107199989083e-13,2.954992867002479e-13
0.0,5,5.0,0.0,30.0,0.0,0.0,0.0,0.0,-13.0,0.0,2.0,0.0,0.0,0.0,6.952887517111329e-12,6.582274583068476e-12,5.7914317435874934e-12,5.359190351911778e-12,5.410409206062346e-12,4.863307807440059e-12,4.269260378388899e-12,4.08052686778861e-12,3.684670214284879e-12,3.2643118459005346e-12,2.7524250713460066e-12,2.3660788464982323e-12,1.968466212951343e-12,1.5592873553186593e-12,1.3415383276453034e-12,1.0995045545077734e-12,8.90816204195813e-13,6.603395659608392e-13,5.173559904479787e-13,3.506804225711514e-13,2.641918180225857e-13,1.8494760437708916e-13,1.3489706873829387e-13,9.415980599787256e-14,5.842822652401727e-14,3.8167454121264867e-14,5.137688400020046e-10,2.749062999070278e-10,1.4172627811570227e-10,7.234788340082288e-11,3.306612485405467e-11,1.638330881288554e-11,1.0353858530304141e-11,7.350998161213201e-12,5.722575826238272e-12,4.358891261182007e-12,3.2334608111218318e-12,2.4030372179624304e-12,1.8679357334771034e-12,1.3291722021249274e-12,9.915916259368634e-13,7.093299212868253e-13,5.345397305482735e-13,3.30974592675912e-13,2.63611862160966e-13
0.0,6,6.0,0.0,30.0,0.0,0.0,0.0,0.0,-13.0,0.0,2.0,0.0,0.0,0.0,6.330123573242733e-12,5.9086200020166166e-12,5.441194892010273e-12,4.9457968823132775e-12,4.4493346964769686e-12,4.097309472858571e-12,3.931505276717967e-12,3.5445261405532232e-12,2.986739752482992e-12,2.6178478691654102e-12,2.2605694761763203e-12,2.1813143921344493e-12,1.8056941478874162e-12,1.4451816583840836e-12,1.2074058897212573e-12,9.653612098599946e-13,7.159692412643161e-13,5.900770321081769e-13,4.192806518561158e-13,3.2211806048595055e-13,2.357515119174447e-13,1.6847143145168223e-13,1.1680786617096292e-13,7.966038185968187e-14,5.5984459416791236e-14,3.62506814204034e-14,5.612759234159475e-10,3.186570038095254e-10,1.6359647175461404e-10,8.098102331330618e-11,3.945795987988948e-11,1.8232263410636233e-11,1.077647235944613e-11,6.981888654387558e-12,4.933167662945263e-12,3.5758171235553953e-12,2.854226056000497e-12,2.172345397379992e-12,1.6145249623311155e-12,1.1757672438024133e-12,8.839714914421992e-13,5.940351196465144e-13,4.4950413278959357e-13,3.349364908590732e-13,2.1119441455355655e-13
0.0,7,7.0,0.0,30.0,0.0,0.0,0.0,0.0,-13.0,0.0,2.0,0.0,0.0,0.0,5.829483002636742e-12,5.42564794075937e-12,5.085869043995651e-12,4.501619222442624e-12,4.3085445500955215e-12,3.684120081116169e-12,3.213154641384087e-12,3.042491997283777e-12,2.7848345193895115e-12,2.5378132059448387e-12,2.1106707018661598e-12,1.8361603017880812e-12,1.5066259653952865e-12,1.305868703811649e-12,1.0375589277755485e-12,8.897068437772712e-13,6.621475257080768e-13,4.998701245613175e-13,4.0219970903449585e-13,2.9236121247034193e-13,2.1514879275275022e-13,1.5509468530721054e-13,1.0595717432242818e-13,6.903926819304429e-14,5.156868670467455e-14,3.2427453853809374e-14,6.159303518879481e-10,3.4440510411605093e-10,1.9431985165612184e-10,9.584949961043555e-11,4.7992980647800844e-11,2.2850466771039924e-11,1.2057133902550115e-11,7.520819499112382e-12,4.85039540750637e-12,3.3974668427491866e-12,2.3867638832619426e-12,1.8571659819900893e-12,1.3684560125390315e-12,1.0349559066735596e-12,7.906666077853229e-13,5.758355167880822e-13,3.63575952033611e-13,2.6760131749227475e-13,1.941140094677237e-13
0.0,8,8.0,0.0,30.0,0.0,0.0,0.0,0.0,-13.0,0.0,2.0,0.0,0.0,0.0,5.746907240527137e-12,5.301854458913784e-12,4.5291233294154666e-12,4.097415174017471e-12,3.910913779230472e-12,3.3591377454271473e-12,3.0734875100135147e-12,2.7851594999818258e-12,2.418319025102586e-12,2.2006638742224993e-12,1.8338285076832267e-12,1.4471231964177058e-12,1.3385053386274765e-12,1.1286160061788639e-12,9.256119480605275e-13,7.194782782388495e-13,6.15780751636797e-13,4.4652337959953035e-13,3.655876943065072e-13,2.593717367300108e-13,1.9175917778099729e-13,1.372307377980099e-13,9.789840448029925e-14,6.474391331916822e-14,4.4666212392634116e-14,3.081263025371606e-14,6.044700685403011e-10,3.63655022760209e-10,2.1628876105629237e-10,1.1647789756522478e-10,5.733922861611197e-11,2.6928723003650168e-11,1.4003420331454015e-11,7.214993769337396e-12,4.4687508063388025e-12,3.169401593101605e-12,2.206839805611373e-12,1.6413673649979742e-12,1.2460831261736589e-12,9.093348927028524e-13,6.704597159298216e-13,4.523998056761501e-13,3.712233811230589e-13,2.0751366294059985e-13,1.7193512091321842e-13
0.0,9,9.0,0.0,30.0,0.0,0.0,0.0,0.0,-13.0,0.0,2.0,0.0,0.0,0.0,5.723535575142233e-12,4.95188293783755e-12,4.309612533356252e-12,3.862782698502676e-12,3.3669329994832805e-12,3.115950692534283e-12,2.69938878981782e-12,2.450360333473329e-12,2.2254133503575902e-12,1.91606922475828e-12,1.7110689688831132e-12,1.4074100538948809e-12,1.1677539429265082e-12,1.0595109648917141e-12,8.295091271771468e-13,6.341940165903647e-13,5.316198483530799e-13,4.106264137669433e-13,3.2202223975154146e-13,2.43964052846564e-13,1.758383431049803e-13,1.2545606054393924e-13,8.720028372777012e-14,6.061654110354409e-14,3.966687975778135e-14,2.818101567531935e-14,6.769503579393252e-10,4.0561756210654026e-10,2.4046242616960636e-10,1.3144141006432708e-10,6.540369317794602e-11,3.47694006484793e-11,1.6666935868404994e-11,8.221592900353793e-12,4.868409116333944e-12,2.8508363511558867e-12,2.102901869004936e-12,1.5688167550312725e-12,1.1641738089208816e-12,8.625073002286781e-13,6.250787865336827e-13,4.280129111994779e-13,3.298706901173879e-13,2.1185678913737202e-13,1.4565240363479349e-13
0.0,10,10.0,0.0,30.0,0.0,0.0,0.0,0.0,-13.0,0.0,2.0,0.0,0.0,0.0,5.708529575589741e-12,5.230939487568932e-12,4.267786923632334e-12,3.670845819588015e-12,3.206392050691942e-12,2.9057955833327577e-12,2.2395588702097607e-12,2.2218747455819557e-12,1.9383043279322418e-12,1.7232232027652214e-12,1.5054404245454264e-12,1.268556150133904e-12,1.0576882354864284e-12,9.026537146136767e-13,7.665398060398905e-13,5.657684039723868e-13,5.036397621733217e-13,3.754317290541679e-13,2.872110950161179e-13,2.0231810371102243e-13,1.5122432936345678e-13,1.047927516071291e-13,7.751487175608378e-14,5.3590224721063725e-14,3.6745302319632253e-14,2.6604145226508222e-14,6.859827936967415e-10,3.9477149711370823e-10,2.4559878047037455e-10,1.4143518636363077e-10,7.627471814578941e-11,3.812831790806294e-11,1.999266954327263e-11,9.187324466794364e-12,4.872347084930447e-12,2.978308594925098e-12,1.9883948823003885e-12,1.498666859149341e-12,1.0301299679871962e-12,7.504807921491594e-13,5.176356054349837e-13,3.8055413937826256e-13,2.853343514308474e-13,2.045740038305474e-13,1.330523782111628e-13
0.0,11,11.0,0.0,30.0,0.0,0.0,0.0,0.0,-13.0,0.0,2.0,0.0,0.0,0.0,6.196588079744847e-12,5.514223976403855e-12,4.284788205141703e-12,3.5560724319723203e-12,3.0169105400953493e-12,2.7837062158527257e-12,2.1554845367808672e-12,1.871719265268371e-12,1.7168098131553982e-12,1.5665711678314738e-12,1.3088315881732284e-12,1.0776823317930635e-12,9.061250525971736e-13,8.033978388783338e-13,6.749047721519349e-13,5.248250887137207e-13,4.247900920794645e-13,3.1309810533268247e-13,2.6115705386121825e-13,1.8115220238596408e-13,1.468924356340169e-13,9.874036802880024e-14,7.660193014403601e-14,5.0339713346544644e-14,3.0607451954745706e-14,2.48232733228907e-14,6.714437597001105e-10,4.228859831685179e-10,2.564641045238373e-10,1.6086422013344538e-10,8.853931198813729e-11,4.520999542426956e-11,2.1974541796904962e-11,1.150389267314263e-11,5.8986851293954364e-12,3.1127609402228394e-12,1.9626075382330287e-12,1.2617204473784704e-12,9.51938022762742e-13,6.577770236086936e-13,4.783568402462089e-13,3.459217541477336e-13,2.37912107882579e-13,1.6461589757494281e-13,1.3146752051690194e-13
0.0,12,12.0,0.0,30.0,0.0,0.0,0.0,0.0,-13.0,0.0,2.0,0.0,0.0,0.0,6.659245250399515e-12,5.643694876650005e-12,4.624477133446251e-12,3.5578613573080994e-12,3.1619214046185197e-12,2.4218024543560828e-12,2.1098271403299413e-12,1.800418585953549e-12,1.6047181112013815e-12,1.341450064413317e-12,1.1328958332046076e-12,1.0364633039630262e-12,8.311993014147512e-13,7.557593170693762e-13,5.990149887638754e-13,4.824325908974163e-13,3.7499084136596706e-13,2.946337908162196e-13,2.2653114325284547e-13,1.7721587564134924e-13,1.255833483163491e-13,9.184351520485113e-14,6.291190995348958e-14,4.712429570020509e-14,3.2952881241938736e-14,1.9837840762873828e-14,6.879283428362016e-10,4.339828392462245e-10,2.7277584681856434e-10,1.6003758998010578e-10,9.272439928513443e-11,4.8177580498644365e-11,2.5588441864510867e-11,1.2627840931662668e-11,6.072136477914808e-12,2.826973296325338e-12,1.934734714349378e-12,1.1979694038017637e-12,8.126989615531038e-13,6.349538001364838e-13,4.3986316781554715e-13,3.063633197626188e-13,2.0593167639532012e-13,1.4950082972434078e-13,1.0462307882537821e-13
0.0,13,13.0,0.0,30.0,0.0,0.0,0.0,0.0,-13.0,0.0,2.0,0.0,0.0,0.0,7.1321819182276654e-12,5.925450443799004e-12,4.286021010231155e-12,3.6568236910537245e-12,3.007536191091934e-12,2.3365112446847523e-12,1.9529252970402278e-12,1.6075960657757082e-12,1.4691820814912433e-12,1.2581966557330302e-12,1.117548928662637e-12,9.048723346375444e-13,7.923637617613201e-13,6.392123018748862e-13,5.351654656568826e-13,4.420325430707413e-13,3.4849006820308897e-13,2.7321738451305195e-13,2.1408566415761357e-13,1.4907897476146714e-13,1.155978739069836e-13,7.76368986929481e-14,5.860348984053866e-14,4.1280098676612104e-14,3.0146721241722714e-14,1.8644864258936317e-14,7.197337732031166e-10,4.358039356258139e-10,2.8160989805516163e-10,1.8191884559687192e-10,1.0178246978226333e-10,5.460031999767778e-11,2.8677515225092125e-11,1.454430461476111e-11,6.88220502236923e-12,3.3155985317465785e-12,1.8759470818993812e-12,1.1407749290905087e-12,8.037584794126276e-13,5.400690698174222e-13,3.7451286443336956e-13,2.8161465197461503e-13,2.0405529114553877e-13,1.4955185512470463e-13,8.666069431288367e-14
0.0,14,14.0,0.0,30.0,0.0,0.0,0.0,0.0,-13.0,0.0,2.0,0.0,0.0,0.0,7.621962872247595e-12,6.1510534586519765e-12,4.756239561541316e-12,3.738869457299837e-12,2.911587505263257e-12,2.409943546950888e-12,2.0190698556412725e-12,1.5723242684273068e-12,1.3038329524663486e-12,1.1142124930417068e-12,9.668924270936298e-13,8.071407995346785e-13,7.090365047933439e-13,5.917670200755227e-13,4.765508596601231e-13,3.583547273567114e-13,3.1692708814269235e-13,2.435687955663388e-13,1.8391566499974444e-13,1.3568495416311693e-13,1.0526672818223373e-13,7.263695532129282e-14,5.15076378980119e-14,3.6334964106107204e-14,2.7596364148716568e-14,1.88160220628044e-14,7.309510867748253e-10,4.415653463612569e-10,2.882830334399247e-10,1.741092020045834e-10,1.0691427410272179e-10,5.745114473299986e-11,3.2450882970409456e-11,1.6198351609117428e-11,8.136321389310254e-12,3.7057344328307564e-12,1.9253355092803176e-12,1.0784954384863358e-12,7.091191250819421e-13,5.114620646680168e-13,3.4761485061747533e-13,2.631239199480201e-13,1.7198887576823558e-13,1.1785969916332528e-13,8.483456990347402e-14
0.0,15,15.0,0.0,30.0,0.0,0.0,0.0,0.0,-13.0,0.0,2.0,0.0,0.0,0.0,8.074799204319134e-12,6.720696386319166e-12,5.269388540642064e-12,4.19470630904752e-12,3.0862907093650632e-12,2.3096101114491033e-12,1.8229744087884e-12,1.5639329666920276e-12,1.2513972747731146e-12,1.0725703765068627e-12,8.815769064028254e-13,7.298555718704812e-13,6.67696328416646e-13,5.17567915010935e-13,4.2477029367716326e-13,3.5312582791376147e-13,2.8499527088372445e-13,2.26914751112784e-13,1.7712170384909843e-13,1.27878134509956e-13,9.096693400069622e-14,7.028914019165575e-14,5.127069522430167e-14,3.517139551486788e-14,2.4514490583512934e-14,1.561069839783283e-14,7.217325010607257e-10,4.828996815864986e-10,2.987846401720277e-10,1.8742673320769054e-10,1.0939837097476719e-10,6.453709223240856e-11,3.5361337296119645e-11,1.8387665738730797e-11,8.61847901935833e-12,4.285102141118889e-12,2.0445295684472757e-12,1.1773027666920809e-12,7.077006453918316e-13,4.623400793540962e-13,3.318188808601715e-13,2.303131143297728e-13,1.4518893335290006e-13,1.2846432997545171e-13,8.966136501853116e-14
0.0,16,16.0,0.0,30.0,0.0,0.0,0.0,0.0,-13.0,0.0,2.0,0.0,0.0,0.0,8.78707823887974e-12,6.781993618039524e-12,5.850786533342334e-12,4.333758828385388e-12,3.156060608906249e-12,2.4555356596975668e-12,1.9269991063216584e-12,1.4370525992187666e-12,1.1718794142430742e-12,9.77448323760486e-13,8.392009877923151e-13,6.789084017843215e-13,5.763963732762745e-13,4.929805637178753e-13,4.0002434860796987e-13,3.293804732652384e-13,2.5323431248372037e-13,2.015777399415976e-13,1.5802283428293734e-13,1.227475065239019e-13,8.28381744093365e-14,6.436102944030942e-14,4.433879237463663e-14,3.262080440673252e-14,2.230088842833669e-14,1.3632455827634429e-14,7.664340700354565e-10,4.627611819371369e-10,2.9785307749292473e-10,1.856699647653065e-10,1.1556864995519672e-10,6.777315978016211e-11,3.765489721582141e-11,1.9976171845886783e-11,9.981856330815256e-12,4.713992492521215e-12,2.3856070339841115e-12,1.215242986054972e-12,6.791149135610736e-13,4.390551806887913e-13,2.8332325378579766e-13,1.9344123446545015e-13,1.6432947455133297e-13,8.69268901649281e-14,8.771115165465898e-14
0.0,17,17.0,0.0,30.0,0.0,0.0,0.0,0.0,-13.0,0.0,2.0,0.0,0.0,0.0,9.692796135390072e-12,7.48600482343178e-12,6.329164456255754e-12,4.3111661936975464e-12,3.3919458700791925e-12,2.49979871853838e-12,1.9160953173012237e-12,1.5322331433658572e-12,1.0868884840808392e-12,9.173718039797127e-13,7.500079340471516e-13,6.439835903916767e-13,5.270085266738206e-13,4.4139690649451437e-13,3.6141254518189213e-13,2.833771386482542e-13,2.247230896972413e-13,1.8232300627859028e-13,1.3343836232138003e-13,1.1372662694235983e-13,8.311365435411851e-14,5.699151689184864e-14,4.295407482485936e-14,2.8413608444261754e-14,2.052955264586665e-14,1.3316639264350873e-14,7.716890872309453e-10,4.786053841917896e-10,3.115981196463723e-10,1.8807561425500828e-10,1.2454869494751087e-10,6.761088244721176e-11,4.072862479121377e-11,2.1328380557239698e-11,1.1508633818683969e-11,5.820082128988267e-12,2.4165926474347156e-12,1.2603183107455373e-12,7.281562645157548e-13,4.4058672244906993e-13,2.750690571057171e-13,1.9837635009573888e-13,1.2351824055887622e-13,9.209176520190801e-14,4.5906115690898e-14
0.0,18,18.0,0.0,30.0,0.0,0.0,0.0,0.0,-13.0,0.0,2.0,0.0,0.0,0.0,1.0043510427404247e-11,7.597348142845199e-12,6.630687198235889e-12,4.87943214522558e-12,3.871459167858215e-12,2.6953187080306207e-12,2.0238104439899616e-12,1.4099469352744872e-12,1.064104030397113e-12,8.773073472873248e-13,6.928536317687592e-13,5.885935766023209e-13,4.883019870725447e-13,4.013354667507427e-13,3.1739415825662233e-13,2.7107769906305885e-13,2.1530868075815746e-13,1.788750778911947e-13,1.2731207438554667e-13,9.750113775139447e-14,6.840257066761322e-14,5.502168513935389e-14,3.402146959809621e-14,2.667141188516718e-14,1.9781215961479727e-14,1.3231225063243343e-14,7.933403409343738e-10,5.135667224369951e-10,3.0406604867271715e-10,1.9388780276996727e-10,1.2115961283352117e-10,7.76602941677112e-11,4.4429729926709195e-11,2.3630315649954314e-11,1.2266145165550806e-11,6.0222963479211625e-12,2.7322832337989144e-12,1.4107512001464299e-12,6.618485494249429e-13,4.249549015584282e-13,2.826793685797548e-13,1.6689980026218872e-13,1.1175325735623298e-13,6.812386029575183e-14,4.112607168128266e-14
0.0,19,19.0,0.0,30.0,0.0,0.0,0.0,0.0,-13.0,0.0,2.0,0.0,0.0,0.0,1.0850466984164617e-11,8.602174955624662e-12,6.5192101740178395e-12,5.1435805162398125e-12,3.881482811647089e-12,2.9263869735403638e-12,2.021321626052861e-12,1.4982053162701435e-12,1.1137416379534058e-12,8.476036881238658e-13,6.549357201707894e-13,5.957328714033795e-13,4.710366504143309e-13,3.8052430913869957e-13,3.0518431042858685e-13,2.410278883782832e-13,2.0177188179173586e-13,1.5108852767185545e-13,1.1609863653200686e-13,9.485645589033422e-14,6.252241556791846e-14,4.78659221619018e-14,3.5109399094479386e-14,2.442990542388962e-14,1.7271823719668497e-14,1.1996638225885875e-14,8.044361216855427e-10,5.101688790806618e-10,3.257384712303792e-10,2.0322317864615375e-10,1.3189122135048335e-10,7.236390818922784e-11,4.7354399953245584e-11,2.6765400010821428e-11,1.3002402797625041e-11,6.20687961571447e-12,3.073065553479501e-12,1.5301541798666494e-12,7.312952990465906e-13,3.9945973313049773e-13,2.475038953390806e-13,1.5968092237891544e-13,1.3255320689884186e-13,4.9431482770476706e-14,5.3136781614914116e-14
0.0,20,20.0,0.0,30.0,0.0,0.0,0.0,0.0,-13.0,0.0,2.0,0.0,0.0,0.0,1.1005467536782016e-11,8.988929584048037e-12,7.54967046479174e-12,5.613674858036345e-12,4.320686015461943e-12,3.1433296623983896e-12,1.9160465743039143e-12,1.4402829326178383e-12,1.0699982874917778e-12,8.355868265871885e-13,6.079115069403835e-13,5.049789452166813e-13,4.4354345230504346e-13,3.4838316112100816e-13,2.8847050236092146e-13,2.2885230481899243e-13,1.8642200519564719e-13,1.4588970774837452e-13,1.1123305800886268e-13,8.222664097088723e-14,6.102658320667445e-14,4.246682998742478e-14,3.152446416762046e-14,2.231241923815178e-14,1.7046920167124606e-14,9.32161719090349e-15,7.663339717334551e-10,5.092219288165023e-10,3.204827304976147e-10,2.043295768299275e-10,1.2932103344760053e-10,7.912045923915784e-11,4.588499109612161e-11,2.7533662051293507e-11,1.3790273926721218e-11,7.1462583484703065e-12,3.423092632038955e-12,1.6015037550813456e-12,7.596044298453082e-13,3.859320984375766e-13,2.280710642605411e-13,1.5953313409639235e-13,1.0200793826911445e-13,6.029275932449171e-14,6.25217638665173e-14
0.0,21,21.0,0.0,30.0,0.0,0.0,0.0,0.0,-13.0,0.0,2.0,0.0,0.0,0.0,1.2017128982918048e-11,9.64895695659242e-12,7.405814690394432e-12,6.191991382891416e-12,4.3852715775564175e-12,3.2354347245999212e-12,2.2753099113365114e-12,1.5563693661001213e-12,1.1148336929915314e-12,8.207515606180506e-13,6.066991871948777e-13,4.828517399124348e-13,3.898554504083209e-13,3.3084622280858867e-13,2.5625210202257827e-13,2.064796905814041e-13,1.6224317110868937e-13,1.2434795094662733e-13,9.506182160099615e-14,7.736373374929137e-14,5.806012236612488e-14,4.2215084083314936e-14,3.139440848054047e-14,2.2032974636556388e-14,1.4453073269314396e-14,9.7880918424021e-15,8.856015374687763e-10,5.016633714446053e-10,3.156562235772811e-10,2.0189122741437466e-10,1.3644180937728755e-10,8.102301632671295e-11,4.9718428794212316e-11,2.7919480003128894e-11,1.512946559313725e-11,8.020713049745918e-12,3.6072815215010583e-12,1.7224297961159345e-12,7.965077077887421e-13,4.002583041237967e-13,2.53647110627596e-13,1.5914488045060169e-13,1.0773431390197335e-13,6.836364867976345e-14,5.086720492028095e-14
0.0,22,22.0,0.0,30.0,0.0,0.0,0.0,0.0,-13.0,0.0,2.0,0.0,0.0,0.0,1.2167366991886624e-11,1.0064562612408456e-11,7.896909555897518e-12,6.114808384483616e-12,4.835836495011456e-12,3.516304209415889e-12,2.438721429632581e-12,1.6266764423449554e-12,1.1262321188624557e-12,8.219435407104519e-13,6.087133352516824e-13,4.518851468481112e-13,3.613155797756695e-13,2.843436575495603e-13,2.408724198557734e-13,1.8659571539379104e-13,1.477386347755849e-13,1.1608221488584815e-13,9.39107420703904e-14,7.428763286074315e-14,5.3730757282834647e-14,3.808932004599868e-14,2.9455050315224504e-14,1.9878894217000202e-14,1.471678654442097e-14,1.0026881050196926e-14,8.347718307488055e-10,5.171820345086179e-10,3.279290706114143e-10,2.1575393591655045e-10,1.1850228149953416e-10,8.040790025655197e-11,4.969462732050604e-11,2.928808873213393e-11,1.681554887579774e-11,8.534136112530819e-12,4.126475844542762e-12,1.9649556179122484e-12,8.332220021815e-13,4.337445895402157e-13,2.3298503954806165e-13,1.3981335417010378e-13,8.23066712630687e-14,4.51345038120549e-14,5.4372871967306436e-14
0.0,23,23.0,0.0,30.0,0.0,0.0,0.0,0.0,-13.0,0.0,2.0,0.0,0.0,0.0,1.2545220422801204e-11,9.92509847537786e-12,8.593323910997312e-12,6.470784080449782e-12,4.80221876418727e-12,3.55031101481766e-12,2.559219537911684e-12,1.6565299180294737e-12,1.191003995985811e-12,7.897627138264577e-13,5.777136606254088e-13,4.0928688478792987e-13,3.5265074708649903e-13,2.694339061476812e-13,2.2923002410170825e-13,1.7528597872100638e-13,1.3921474219701208e-13,1.08250123335954e-13,8.266891451030508e-14,6.694874107865826e-14,4.951957352736092e-14,3.725151537460463e-14,2.6502596407586766e-14,1.91520616030747e-14,1.3682836232838175e-14,8.751287110733286e-15,9.11541873969353e-10,5.362164378093377e-10,3.426548142959241e-10,2.1520213424976147e-10,1.3824056874130458e-10,8.339220117521901e-11,5.264353944149363e-11,3.0009315724061105e-11,1.752990888370428e-11,8.584819408327167e-12,4.092593301425834e-12,2.0854756453547924e-12,9.563143224392963e-13,4.537067446696526e-13,2.1961274979891694e-13,1.4130087126829623e-13,7.642878546823366e-14,5.974358166120372e-14,3.169902635945642e-14
0.0,24,24.0,0.0,30.0,0.0,0.0,0.0,0.0,-13.0,0.0,2.0,0.0,0.0,0.0,1.3133114666597006e-11,1.0702469643950053e-11,8.894194038142234e-12,6.604056847871268e-12,4.904309428977292e-12,3.882993126899474e-12,2.700939216586752e-12,1.8842027490582944e-12,1.2549701835556532e-12,8.082183560523498e-13,5.7428215553523e-13,4.2218942145982693e-13,3.102310312708756e-13,2.492886841214451e-13,2.0476268444060214e-13,1.6699425764975632e-13,1.316454604552344e-13,1.0109366095803903e-13,7.899723861111832e-14,6.051999932055618e-14,4.556041376428232e-14,3.3480079866389484e-14,2.446936716509588e-14,1.7481568898995108e-14,1.1162697932256649e-14,7.37725799704978e-15,9.258471972535565e-10,5.536112818552038e-10,3.460420908348051e-10,2.1729325518317253e-10,1.367482841876541e-10,9.023817117613056e-11,5.280590346336984e-11,3.2119216596425844e-11,1.7800699305610872e-11,9.090485276679415e-12,4.6787087887442825e-12,2.235331270087966e-12,1.0078793670145173e-12,4.835114534873999e-13,2.3878922174496517e-13,1.2996468569172551e-13,7.815447936613709e-14,5.103453595921279e-14,3.3097051015929967e-14
0.0,25,25.0,0.0,30.0,0.0,0.0,0.0,0.0,-13.0,0.0,2.0,0.0,0.0,0.0,1.3658188484725978e-11,1.2275058145868589e-11,9.407742848927827e-12,7.232197110666055e-12,5.583220555065199e-12,3.9771278298380695e-12,2.8461331179435188e-12,1.8004829725346448e-12,1.320651919019394e-12,8.71787923528346e-13,5.668646328420153e-13,4.0609184004271684e-13,3.123034920065485e-13,2.394219017064687e-13,1.8615920679883788e-13,1.4406823319586742e-13,1.1942116904426148e-13,9.494640688676356e-14,7.54426792330662e-14,5.590137971071488e-14,4.093210078834442e-14,2.861067668985558e-14,2.2220669928008972e-14,1.5895553829615315e-14,1.179170421209131e-14,1.0261605686099266e-14,9.208731581562238e-10,5.879730219782241e-10,3.4845095524518495e-10,2.2861658330415657e-10,1.396068125755469e-10,8.520443216712004e-11,5.828797645237268e-11,3.0337196464476046e-11,1.759983352797714e-11,1.034035509028836e-11,5.0230962516008406e-12,2.438504826164366e-12,1.1370239026601482e-12,4.945079816504127e-13,2.3031938082138157e-13,1.2638876819578796e-13,8.08902873044024e-14,3.8852904613609574e-14,4.051090745750071e-14
0.0,26,26.0,0.0,30.0,0.0,0.0,0.0,0.0,-13.0,0.0,2.0,0.0,0.0,0.0,1.3915783471837946e-11,1.1557791378466248e-11,9.127561576992882e-12,7.945611329634583e-12,5.412472905045955e-12,4.1371906808359475e-12,3.0000252027557318e-12,1.9926527997765926e-12,1.3802461391987599e-12,9.16912095186264e-13,5.75858411049184e-13,4.048291293657812e-13,2.951220011985423e-13,2.370129027260981e-13,1.7348624239682438e-13,1.4797031934469745e-13,1.0969950223233066e-13,8.771165629870335e-14,6.635208849445038e-14,5.4143120729292545e-14,3.86537269715919e-14,3.0085979836559676e-14,1.9548396566512392e-14,1.6727135560794026e-14,7.263019139053625e-15,6.459967051933437e-15,9.890856899448332e-10,5.701485926796217e-10,3.4763948441976054e-10,2.2910630719929642e-10,1.3674351291446957e-10,8.384058236046436e-11,5.4062451695227415e-11,3.3846020035243776e-11,1.9191447405200067e-11,1.0671111174149451e-11,5.3718122993510534e-12,2.4973870935939963e-12,1.2013818479385507e-12,5.253848582128076e-13,2.5515711295240766e-13,1.3689062761654983e-13,7.555033854958876e-14,4.199405868670818e-14,4.510038881200048e-14
0.0,27,27.0,0.0,30.0,0.0,0.0,0.0,0.0,-13.0,0.0,2.0,0.0,0.0,0.0,1.3876002710193887e-11,1.1992449837086044e-11,9.669295464640534e-12,7.559110257755204e-12,6.125477166911161e-12,4.4265277973776735e-12,3.2601996834148845e-12,2.143494396001074e-12,1.3788599787615538e-12,8.844580787523945e-13,6.250159867611154e-13,4.097798529901751e-13,2.876048747599021e-13,2.266895827198768e-13,1.6707043984676682e-13,1.3486550464033005e-13,9.98581511296722e-14,8.210520450876121e-14,6.441030626203963e-14,5.35489070159543e-14,3.53827260180453e-14,2.7360517775831758e-14,1.962012624644287e-14,1.4501626335413505e-14,8.62019525066579e-15,7.277108500195887e-15,9.848217882239167e-10,5.6578294176356e-10,3.638364695216918e-10,2.401511072634735e-10,1.4002636940629959e-10,8.555217701497304e-11,5.745896943451648e-11,3.400652960059918e-11,2.077901548906354e-11,1.1132603307308076e-11,5.7658335390849515e-12,2.9320092893507554e-12,1.308929031628359e-12,5.826505652282654e-13,2.672251767422463e-13,1.5273535506379146e-13,7.454081399044681e-14,4.1740338412100997e-14,4.1710162786153764e-14
0.0,28,28.0,0.0,30.0,0.0,0.0,0.0,0.0,-13.0,0.0,2.0,0.0,0.0,0.0,1.4466839223169433e-11,1.3037515560135416e-11,1.0167415852022437e-11,8.105891358705375e-12,6.369632883328806e-12,4.673504106920742e-12,3.1041434322801104e-12,2.3033015612423666e-12,1.5479856969424542e-12,9.292269630449068e-13,5.970225835933394e-13,3.9399091698274704e-13,2.724019964134886e-13,2.038590231550415e-13,1.7099793777005766e-13,1.2312807846145387e-13,9.830586147229828e-14,8.081701139353076e-14,6.040006506142262e-14,4.714638971997203e-14,3.238900624588671e-14,2.6876825287189358e-14,1.6821319022012842e-14,1.2946716646025716e-14,7.495997927991147e-15,5.899276908728571e-15,9.683334767334998e-10,6.016860466975542e-10,3.762639534186518e-10,2.414279463904895e-10,1.4244275801304922e-10,9.611453190938015e-11,5.448179273657786e-11,3.4465320207208716e-11,2.0488168022360457e-11,1.1956878640414837e-11,6.326586922485041e-12,3.0173904403693387e-12,1.3904443159833306e-12,6.241636790983747e-13,2.7185727141173433e-13,1.4599721674808571e-13,5.338407275651901e-14,3.3465722414338647e-14,2.801816612881471e-14
0.0,29,29.0,0.0,30.0,0.0,0.0,0.0,0.0,-13.0,0.0,2.0,0.0,0.0,0.0,1.4929952380186593e-11,1.2885274531044489e-11,1.012938909259491e-11,8.427208812098435e-12,6.8712168116850975e-12,4.835420603126999e-12,3.4352278860241944e-12,2.435572070507755e-12,1.5475086831408068e-12,9.345848442904614e-13,6.410197680612882e-13,3.9797033017010835e-13,2.7894932873366594e-13,1.9761520136490024e-13,1.5004189124321418e-13,1.11519920181511e-13,9.114521880553595e-14,7.300566544069636e-14,5.5556342676787734e-14,4.41345894056377e-14,2.973220894569014e-14,2.32040850987231e-14,1.7638366506526358e-14,1.104825954343491e-14,6.75995928012658e-15,4.86530664058368e-15,1.0297788916016636e-09,6.211644350921254e-10,3.833620664622487e-10,2.3319714827991013e-10,1.490705819259388e-10,8.737973071362612e-11,5.6808087641688155e-11,3.513499543012794e-11,1.959065763726218e-11,1.2027082833454023e-11,6.208161644239444e-12,3.0753509410528324e-12,1.3926994066498649e-12,6.928282174614534e-13,3.0573205900390163e-13,1.3833571494569407e-13,7.834159586966275e-14,5.995472738791913e-14,3.564461542974473e-14
0.0,30,30.0,0.0,30.0,0.0,0.0,0.0,0.0,-13.0,0.0,2.0,0.0,0.0,0.0,1.5424355789840074e-11,1.2962650931415599e-11,1.090574843219739e-11,8.501802374761687e-12,6.761908782814625e-12,5.134257339401904e-12,3.7600428287323914e-12,2.4904165558247618e-12,1.528116486136977e-12,1.0280464709545085e-12,6.385558140952621e-13,3.968317020871394e-13,2.761311219777123e-13,1.9759309356306452e-13,1.47641272457133e-13,1.077293321283738e-13,8.173333340166747e-14,7.004327302362112e-14,5.404967961448906e-14,4.1359362813673775e-14,2.950072885876487e-14,2.3210776523998643e-14,1.457911727328451e-14,1.1003072825763411e-14,8.519781169476571e-15,5.007717225239092e-15,1.0463519948693573e-09,5.997950206294833e-10,3.870548379704129e-10,2.498869247908432e-10,1.4760970487115362e-10,9.259931836498962e-11,5.64503434563187e-11,3.4352695156121456e-11,2.1288470210814024e-11,1.2540693067843157e-11,6.682205717039332e-12,3.4574846372418213e-12,1.6099616381041576e-12,7.279617770102596e-13,3.043692103879992e-13,1.496841961950077e-13,7.993182121508549e-14,4.634453409109429e-14,2.981089234651506e-14
0.0,31,31.0,0.0,30.0,0.0,0.0,0.0,0.0,-13.0,0.0,2.0,0.0,0.0,0.0,1.5885500319358207e-11,1.3165889852067637e-11,1.0656716749273729e-11,9.305684561006418e-12,7.0471890400259065e-12,4.961426512845046e-12,4.03757214695008e-12,2.586825855026745e-12,1.761650733787735e-12,1.111015440391452e-12,6.815909717030164e-13,4.246139903820386e-13,2.652066977910625e-13,1.938792417860059e-13,1.303971815950526e-13,1.0222768493846209e-13,8.124491195967785e-14,6.480743130158058e-14,4.7682855536509744e-14,3.6775878429652934e-14,3.112722794476319e-14,2.0015601895573628e-14,1.4439856672412966e-14,9.49364051411357e-15,6.418779613294255e-15,4.004510563731801e-15,1.0725027476968798e-09,6.543286691597593e-10,4.074015648919662e-10,2.3647966823620115e-10,1.5202092188922197e-10,9.056224901013585e-11,5.6895364471733127e-11,3.6584883822054e-11,2.2160868167300443e-11,1.1875132856579295e-11,6.231700667654999e-12,3.2578773040897856e-12,1.731081479986112e-12,7.306923648927114e-13,3.4015839447576387e-13,1.4948631365091564e-13,8.23595131321945e-14,2.642146251383187e-14,3.5677632206105565e-14
0.0,32,32.0,0.0,30.0,0.0,0.0,0.0,0.0,-13.0,0.0,2.0,0.0,0.0,0.0,1.591207685376373e-11,1.4433017890129475e-11,1.171512936716409e-11,9.15571621571446e-12,7.0937853902027775e-12,5.5131950352189924e-12,3.849539502833824e-12,2.7436271847956583e-12,1.7684435797032794e-12,1.1319616409788e-12,7.181542307659664e-13,4.3340059922180323e-13,2.741792706242606e-13,1.8347501962525912e-13,1.3386084161937424e-13,1.0177406250420363e-13,7.572226187693697e-14,5.691600315034012e-14,4.738676206197505e-14,3.416670984200008e-14,2.4767634355564375e-14,2.074244248518433e-14,1.4243419995645444e-14,7.785430522631168e-15,8.472549672564465e-15,5.428058454685017e-15,1.1042391949405986e-09,6.534570803137681e-10,4.105771202624669e-10,2.4729345332050315e-10,1.4829145911753382e-10,9.858585325667581e-11,6.026958698424416e-11,3.8904822447635943e-11,2.1987453382206844e-11,1.2156238980282121e-11,7.052977920863464e-12,3.291883372023426e-12,1.7484022680149555e-12,8.264690100369851e-13,3.671914147859668e-13,1.5143426824902085e-13,8.267814068175175e-14,4.24427708128057e-14,1.6467857414022046e-14
0.0,33,33.0,0.0,30.0,0.0,0.0,0.0,0.0,-13.0,0.0,2.0,0.0,0.0,0.0,1.706845090232292e-11,1.443273963957939e-11,1.1117135115801177e-11,9.814170982533132e-12,7.368623635634689e-12,5.567241061937266e-12,4.0783776419869246e-12,2.835014235346585e-12,1.8572778275954968e-12,1.1155089325894303e-12,7.387678445983429e-13,4.565132849448034e-13,2.6485393329356735e-13,1.7647812936694452e-13,1.2582651302044967e-13,9.40182862283261e-14,7.33166703120579e-14,5.552177477186768e-14,4.501165626227764e-14,3.1340669024741115e-14,2.5210376541543304e-14,1.7746892908217745e-14,1.0897676750100504e-14,9.799524853155308e-15,4.688342331849243e-15,6.4353041692691435e-15,1.104424692771493e-09,6.856866717533837e-10,4.1462806883501e-10,2.6593730452702475e-10,1.6323217138579262e-10,9.847028990666311e-11,6.341328078633495e-11,3.6744232816729154e-11,2.286597415503559e-11,1.3068930763720194e-11,7.367796103234554e-12,3.926888156894e-12,1.8461568709714217e-12,8.693245451132822e-13,3.8355608152786725e-13,1.6102780875826238e-13,6.662505358890467e-14,4.681597753708158e-14,7.021161880776839e-15
0.0,34,34.0,0.0,30.0,0.0,0.0,0.0,0.0,-13.0,0.0,2.0,0.0,0.0,0.0,1.6997100061454213e-11,1.4431202240327644e-11,1.1678837286378564e-11,8.984368846331953e-12,7.993971293784657e-12,5.657900016066479e-12,4.186055786508787e-12,3.0565539351071795e-12,2.07390645032515e-12,1.2522362277579857e-12,7.678915319805502e-13,4.435409616932384e-13,2.7079961720494713e-13,1.8007375603785352e-13,1.2632099288710386e-13,9.2604749301687e-14,6.94756421581215e-14,5.139203344954809e-14,3.815986862320074e-14,3.153948502612452e-14,2.4619007787464917e-14,1.6210140854592176e-14,1.5251744059657644e-14,8.963444129255134e-15,5.965043775796559e-15,4.5223238398258856e-15,1.128060406055561e-09,6.746432789899416e-10,4.1505834237921247e-10,2.6042999181725843e-10,1.57306294094183e-10,9.786712115401103e-11,6.128450137667449e-11,3.756203736984021e-11,2.2945350247787184e-11,1.4003176468051377e-11,7.65667216239846e-12,3.762632894351755e-12,1.9236793227506578e-12,9.116532146729581e-13,4.1089562436470963e-13,1.733909583651348e-13,9.00651177497839e-14,3.767680515322747e-14,2.4615165553362533e-14
0.0,35,35.0,0.0,30.0,0.0,0.0,0.0,0.0,-13.0,0.0,2.0,0.0,0.0,0.0,1.705290373952344e-11,1.4451370155290518e-11,1.187294911932031e-11,1.0033574839752121e-11,7.500709155633928e-12,5.570564848650989e-12,4.367583758757069e-12,3.0655865514832246e-12,1.9415560523394782e-12,1.2521768483808283e-12,8.027811341937678e-13,5.028687449382125e-13,3.066009193115053e-13,1.8881067875882398e-13,1.1619218856844475e-13,8.747670979637189e-14,6.512323190271277e-14,5.0482564134210195e-14,3.9728771557822875e-14,2.6608033933997996e-14,2.2249347477576096e-14,1.550327965078774e-14,1.0611588542138745e-14,7.993616813526669e-15,4.045879426342285e-15,3.460360472196895e-15,1.2026006581285188e-09,6.559586440613289e-10,4.347057112068049e-10,2.586939997683544e-10,1.6585742874323232e-10,9.78397122401406e-11,6.012410985871958e-11,3.706407335142824e-11,2.3406234719274123e-11,1.3882382890918128e-11,7.917350845403064e-12,4.3440763999380694e-12,2.139671009049445e-12,9.248705152791602e-13,3.8942083655395317e-13,1.957446812348037e-13,1.031582317403966e-13,4.611813146145269e-14,2.574435122527263e-15
0.0,36,36.0,0.0,30.0,0.0,0.0,0.0,0.0,-13.0,0.0,2.0,0.0,0.0,0.0,1.7695671601039307e-11,1.500576620079209e-11,1.2598591824602933e-11,9.921117942126585e-12,7.86989619386235e-12,6.192888388342423e-12,4.465189059509155e-12,3.06446205897567e-12,2.2092910267235737e-12,1.336393088177309e-12,8.450278954348364e-13,4.893406349866855e-13,2.90833512978054e-13,1.7543554604194434e-13,1.1573045431214505e-13,8.665759105912741e-14,6.267732245391802e-14,4.570154271031683e-14,3.76123639857159e-14,2.876042390453167e-14,1.9670383617301613e-14,1.4683319166827013e-14,9.19755207412669e-15,7.585089679784516e-15,4.958926268195758e-15,3.0908412711115036e-15,1.2470925481684125e-09,7.159284980992952e-10,4.574639979458922e-10,2.687546051596705e-10,1.7146563079882902e-10,1.0432844350740168e-10,6.18957951922184e-11,3.6523781798560285e-11,2.2714388044738553e-11,1.3923939179612825e-11,7.775261845669856e-12,4.233467258525359e-12,2.0951375896893905e-12,1.0138750824722645e-12,4.513739003527889e-13,2.080111068471545e-13,8.641302410444485e-14,1.936745545471051e-14,1.677847910114175e-14
0.0,37,37.0,0.0,30.0,0.0,0.0,0.0,0.0,-13.0,0.0,2.0,0.0,0.0,0.0,1.8266960093789213e-11,1.5455007031410288e-11,1.2631837342208797e-11,1.00131945322768e-11,8.053907660320263e-12,6.0915246882652044e-12,4.381618447515894e-12,3.1929286404769445e-12,2.2145702986463954e-12,1.3803973150204124e-12,8.537740191502911e-13,5.200465888748331e-13,2.940430038051099e-13,1.809936503665076e-13,1.0958641829754411e-13,8.395754208085438e-14,6.1687421872549e-14,4.666018616747814e-14,3.498106706022084e-14,2.5983927428391268e-14,1.805111689429944e-14,1.326502917396877e-14,1.0533574925193592e-14,8.469884788601359e-15,6.238449713391577e-15,5.48356956209287e-15,1.3186619369230193e-09,7.932979211720822e-10,4.494341142833551e-10,2.864709323476973e-10,1.7417198113723074e-10,1.0582791507791656e-10,6.350122236334437e-11,3.973595758826879e-11,2.4426031561213433e-11,1.3518749417286019e-11,7.290963907056396e-12,4.301406201890002e-12,2.1997055906988003e-12,1.093473230248713e-12,4.853333335401816e-13,2.2190328090513103e-13,8.839002405964205e-14,4.3259894009217894e-14,7.250343590584876e-15
0.0,38,38.0,0.0,30.0,0.0,0.0,0.0,0.0,-13.0,0.0,2.0,0.0,0.0,0.0,1.7965986191683862e-11,1.5844721736274987e-11,1.3009496844811515e-11,1.0328080188538303e-11,8.381906716240294e-12,6.162019054339262e-12,4.694303809775038e-12,3.4083725855473338e-12,2.1885393932308276e-12,1.5258004365813694e-12,9.46476568124165e-13,5.120825755778987e-13,3.1024379025714516e-13,1.9690537618573594e-13,1.2255755537092768e-13,7.93577665031155e-14,5.457349366141259e-14,4.4262864936130534e-14,3.1902108832689014e-14,2.442093474146444e-14,1.8055810746911306e-14,1.3275265401098386e-14,9.737061081858034e-15,6.989506845297512e-15,5.472938796660628e-15,2.2232768668468534e-15,1.2300389044101588e-09,7.173297192858477e-10,4.660183573205838e-10,2.6289643029185394e-10,1.7219823555136324e-10,1.0788782642040094e-10,6.371377017352222e-11,3.8383200166704235e-11,2.298732980437139e-11,1.4221685043537382e-11,8.275422670358093e-12,4.581171685775446e-12,2.3293094211129765e-12,1.1319699190379788e-12,5.016464423751007e-13,2.1446031950106804e-13,9.257143979217193e-14,4.92822835107338e-14,2.6396426726239867e-14
0.0,39,39.0,0.0,30.0,0.0,0.0,0.0,0.0,-13.0,0.0,2.0,0.0,0.0,0.0,1.8660292349064914e-11,1.542061081803018e-11,1.3920628231544847e-11,1.0530810953007135e-11,8.630998833705959e-12,6.681837567756365e-12,4.6842500882838344e-12,3.2544619942075912e-12,2.417185653611394e-12,1.5286057084814932e-12,9.398718158348107e-13,5.302735811899796e-13,3.0258989024922964e-13,1.9398370197096767e-13,1.1627268079400255e-13,7.785098600442974e-14,5.4477931363153284e-14,3.8664765004200795e-14,3.1503748184477273e-14,2.1644103786574647e-14,1.694817002060968e-14,1.3929879245105822e-14,7.71065245829628e-15,7.683739527279412e-15,5.125989443753597e-15,5.423825208161214e-15,1.2949923240554185e-09,7.692165920384473e-10,4.3123162624340494e-10,2.860946303544218e-10,1.7663765914253748e-10,1.0436984848146194e-10,6.305489033635394e-11,4.115896481077284e-11,2.3661221453230122e-11,1.4682882398973082e-11,8.404761186731353e-12,4.695361638664249e-12,2.3983137188620923e-12,1.142431649544768e-12,5.484701452484087e-13,2.342222301510486e-13,1.1264373840945398e-13,4.300093108123251e-14,3.106496805460606e-14
0.0,40,40.0,0.0,30.0,0.0,0.0,0.0,0.0,-13.0,0.0,2.0,0.0,0.0,0.0,1.7827164193710926e-11,1.5702409147114637e-11,1.3439427348130517e-11,1.0444209122524857e-11,8.294691240020047e-12,6.567404678969881e-12,5.018342240782722e-12,3.5347613205212457e-12,2.426620571871685e-12,1.577946027409434e-12,1.0198492717051305e-12,5.850721861444074e-13,3.4189977906690907e-13,2.0120694735443963e-13,1.16561627032084e-13,7.86202368151288e-14,5.538568907993897e-14,3.719345302224883e-14,2.913049170948696e-14,2.2881751223045754e-14,1.5990020675864005e-14,1.197894113256708e-14,8.715057276994627e-15,6.0408453413249996e-15,2.8039046805234285e-15,1.5038465083722374e-15,1.2675093281489842e-09,7.81862980764053e-10,4.531962903080946e-10,2.9035031039279604e-10,1.682731024369499e-10,1.1016753976983868e-10,6.246206410807539e-11,4.1425767084669605e-11,2.3489551370033822e-11,1.441374146499712e-11,8.907984599260482e-12,4.4234907505413136e-12,2.346381546637571e-12,1.237375124900121e-12,5.523429278569433e-13,2.5758744405582106e-13,1.0939399017305451e-13,3.3040720723861304e-14,2.143879337743845e-14
0.0,41,41.0,0.0,30.0,0.0,0.0,0.0,0.0,-13.0,0.0,2.0,0.0,0.0,0.0,1.9383402498867407e-11,1.6041843863898357e-11,1.3129718618355215e-11,1.0802634327330627e-11,8.494618486566377e-12,6.610443723955598e-12,4.918781319281373e-12,3.710156980302671e-12,2.55818576993318e-12,1.6709246217288652e-12,1.0093351748236274e-12,6.085498796208371e-13,3.499476705614724e-13,2.022303711867272e-13,1.2317244488005982e-13,7.535585043044367e-14,5.038937660941884e-14,3.716995671326466e-14,2.6237993400883577e-14,1.86744370425885e-14,1.4617336804712552e-14,9.867271274995454e-15,7.31136061749257e-15,5.886397336330728e-15,6.046806092397465e-15,2.79432084202207e-15,1.3590041675176284e-09,7.890155535972293e-10,4.802503081959253e-10,2.9625920895653044e-10,1.7464722364289304e-10,1.1388785510577627e-10,6.731975731929544e-11,4.006411065369369e-11,2.469324942536143e-11,1.4512299535653268e-11,8.772341025773654e-12,5.0487316821474885e-12,2.5584639888187055e-12,1.2264538050622723e-12,6.13141373943767e-13,2.628450820607229e-13,1.0304890332957301e-13,4.652399763826727e-14,2.5322067446774945e-14
0.0,42,42.0,0.0,30.0,0.0,0.0,0.0,0.0,-13.0,0.0,2.0,0.0,0.0,0.0,1.9957111655077144e-11,1.5991579042110287e-11,1.398578534078647e-11,1.1344072716623471e-11,8.847781710029466e-12,6.866797172951155e-12,5.038002979117647e-12,3.912499821712743e-12,2.5837918313514386e-12,1.7188549678460147e-12,1.0494440132287167e-12,6.443971858519644e-13,3.5748215442118767e-13,2.163779254633356e-13,1.284394221799344e-13,7.886187368006054e-14,4.9195141097567224e-14,3.235311486154463e-14,2.7607176224527202e-14,2.0602755326405523e-14,1.5298343616419774e-14,1.1059972504377622e-14,8.743044800695166e-15,5.8005026253276966e-15,6.150684393149875e-15,3.5390338342184297e-15,1.4049011284337913e-09,7.918395261030458e-10,5.172854297901065e-10,3.1032006913313676e-10,1.9011304431433156e-10,1.1345416158718249e-10,6.827823952269696e-11,3.986790579462351e-11,2.5931062945027012e-11,1.4886968254551974e-11,8.616162141464447e-12,4.9945285797407325e-12,2.610313174969193e-12,1.2729885214055549e-12,6.196942384881931e-13,2.831970482508613e-13,1.1647754028670546e-13,3.577018560752484e-14,3.002970733140988e-14
0.0,43,43.0,0.0,30.0,0.0,0.0,0.0,0.0,-13.0,0.0,2.0,0.0,0.0,0.0,1.89785038695836e-11,1.7180021452083287e-11,1.3715532890474035e-11,1.1293271717338711e-11,9.074757810698858e-12,7.2534563328909686e-12,4.96757908297039e-12,4.0849696371147426e-12,2.692135247137518e-12,1.639241773001194e-12,1.0489751197671697e-12,6.513615112080362e-13,3.757694635274672e-13,2.219531835469429e-13,1.2236027651617983e-13,7.131802951358142e-14,5.0866583980816776e-14,3.5736863653028155e-14,2.3877536639304017e-14,1.93753354228398e-14,1.3953764113754546e-14,9.871197478228123e-15,7.426455376903808e-15,4.423804552681042e-15,2.0355036170903873e-15,3.460295990254595e-15,1.4018032766838468e-09,8.132050554716223e-10,4.741623562386573e-10,2.906834942423827e-10,1.935363467218111e-10,1.1434591218848606e-10,6.583370948602064e-11,4.211472794187476e-11,2.483457808286318e-11,1.486000589793975e-11,8.490733012255092e-12,5.0414150076876135e-12,2.6040224041796166e-12,1.326177763504866e-12,6.340233149446221e-13,2.8901276192485515e-13,1.3572510639940273e-13,6.013005773697433e-14,3.049295541125887e-14
0.0,44,44.0,0.0,30.0,0.0,0.0,0.0,0.0,-13.0,0.0,2.0,0.0,0.0,0.0,1.91043724205529e-11,1.6520800129659648e-11,1.4315635958838064e-11,1.148189719774386e-11,9.486048440940906e-12,7.382181590803326e-12,5.3382432012539266e-12,3.884282388634179e-12,2.639987426010487e-12,1.7954702318228544e-12,1.1035613056276075e-12,6.721520019166879e-13,4.0445717552026557e-13,2.2172215662971942e-13,1.2664549495272485e-13,7.904411855884794e-14,4.8838328871597314e-14,3.530153210382368e-14,2.361835628681833e-14,1.8623140929281078e-14,1.2194311872006496e-14,9.59151041419314e-15,7.162520457867433e-15,3.8191391474202625e-15,4.9600408984661395e-15,2.21096742011774e-15,1.5118981560697839e-09,8.440507334159648e-10,5.413804182571071e-10,2.955061305634576e-10,1.9493230723980228e-10,1.1218647861805877e-10,6.986587367840148e-11,4.1904886742880874e-11,2.567567527150379e-11,1.470267481041212e-11,8.27085095996468e-12,5.252452498229122e-12,2.7971496349924955e-12,1.4040077202330368e-12,6.745060385123468e-13,2.964440034439439e-13,1.187829734787369e-13,5.643924160764909e-14,3.3437899195151686e-14
0.0,45,45.0,0.0,30.0,0.0,0.0,0.0,0.0,-13.0,0.0,2.0,0.0,0.0,0.0,1.9482575047771645e-11,1.6867522346993724e-11,1.4107741656483133e-11,1.0943874382535151e-11,9.149797659351036e-12,7.092908205252512e-12,5.398984156041295e-12,4.301850727546661e-12,2.650759041109837e-12,1.8842933522968978e-12,1.1014643562886728e-12,7.228640132941186e-13,4.061462129316825e-13,2.4121749542014493e-13,1.2993113559192438e-13,7.699456618848921e-14,4.679240306550607e-14,3.4371708016976266e-14,2.1538528312827095e-14,1.7135954875145504e-14,1.3861480050907482e-14,7.776945128732989e-15,6.341228592247158e-15,4.934131063712386e-15,4.6768501391883405e-15,2.6389309380362088e-15,1.5047356224665693e-09,9.031122422502665e-10,5.194257977655854e-10,3.200955540543017e-10,1.9014018778472672e-10,1.1794229864757667e-10,6.847198741830954e-11,4.2010261970977795e-11,2.561053664886075e-11,1.572707458300473e-11,9.781206517833739e-12,4.915860452346275e-12,2.7882547976170836e-12,1.4384206290309935e-12,6.665635453481353e-13,3.2468993378088537e-13,1.4143941874715214e-13,5.368693650401945e-14,5.72755766602654e-15
0.0,46,46.0,0.0,30.0,0.0,0.0,0.0,0.0,-13.0,0.0,2.0,0.0,0.0,0.0,2.0388267498540978e-11,1.667303864415859e-11,1.4488598760694577e-11,1.2074088105806037e-11,9.740504349667227e-12,7.236393320760266e-12,5.311028248829276e-12,3.869646566693479e-12,2.927995505031795e-12,1.7780967002812824e-12,1.1727257956557526e-12,7.555858902348554e-13,4.2358332215582736e-13,2.427980598440594e-13,1.2733125795375635e-13,7.770780535909831e-14,4.852441478596974e-14,3.040433142532099e-14,2.4903810550981296e-14,1.6187271952914528e-14,1.1898545595519182e-14,8.113419645144079e-15,6.780837166642912e-15,5.713264977777573e-15,2.8479233141668656e-15,6.152654514042662e-16,1.540384143842703e-09,9.082310866611828e-10,5.132626090585131e-10,3.1772691956410407e-10,1.927464018888366e-10,1.1794246878877783e-10,7.480538781608961e-11,4.323390849068428e-11,2.5930725460178743e-11,1.5118521105281078e-11,9.084136697587335e-12,5.1802724878923085e-12,2.8524308771440617e-12,1.3020180873652152e-12,7.00672926079607e-13,3.4982360138199795e-13,1.4115603405993474e-13,5.781375580399578e-14,2.845775419160448e-14
0.0,47,47.0,0.0,30.0,0.0,0.0,0.0,0.0,-13.0,0.0,2.0,0.0,0.0,0.0,2.006471618801902e-11,1.8125797621587883e-11,1.4419855213789829e-11,1.2072455578504816e-11,9.515396979229616e-12,7.193584724148642e-12,5.4053424808435006e-12,4.1005865855099945e-12,2.8193741458406922e-12,1.89788747102283e-12,1.2186150481164408e-12,7.428914779190383e-13,4.536684840098892e-13,2.4418998784833254e-13,1.3087406873048883e-13,7.914004158018944e-14,4.751197738016135e-14,2.9967639702973996e-14,1.989662681541829e-14,1.581736764908746e-14,1.2103125813292768e-14,8.315869738986522e-15,6.706139254910819e-15,2.1909671153959245e-15,2.078376212928261e-15,2.545909365134686e-15,1.5995802099724072e-09,8.905739224737e-10,5.563395061063089e-10,3.2164660895629873e-10,2.002612614655038e-10,1.2194598398586918e-10,7.194859510849091e-11,4.474796155485674e-11,2.71437139178716e-11,1.594060454908699e-11,9.205550031799373e-12,5.2698934225352876e-12,2.8771674865219665e-12,1.5193306729378144e-12,7.242559865337129e-13,3.4273871348793257e-13,1.4154762435122711e-13,6.06151513336572e-14,1.864925807337608e-14
0.0,48,48.0,0.0,30.0,0.0,0.0,0.0,0.0,-13.0,0.0,2.0,0.0,0.0,0.0,2.1233265521672105e-11,1.732677744000536e-11,1.4706423745531233e-11,1.2061125050521492e-11,9.647740145012842e-12,7.533751340581673e-12,5.797614628070842e-12,4.093691206062185e-12,2.8728539291046985e-12,1.88682903169071e-12,1.2571025268745003e-12,7.898237578737109e-13,4.64743348380209e-13,2.650553288857731e-13,1.3676074871806056e-13,8.121938862892519e-14,4.52550766675496e-14,2.97199963878848e-14,2.1565235042019976e-14,1.7415304927581688e-14,1.1065644566950365e-14,9.497940688097303e-15,5.825239664092026e-15,3.965254573177567e-15,3.8515676602302535e-15,2.439175936835814e-15,1.6098842409799734e-09,9.639122450665291e-10,5.621643755581379e-10,3.356148313255667e-10,2.0207923774830786e-10,1.2392657104468334e-10,7.308556766929588e-11,4.583530207127399e-11,2.596741790489931e-11,1.5774744469403885e-11,9.25028590124447e-12,5.1121326771365274e-12,2.939231825945366e-12,1.494735238730195e-12,7.582089502663456e-13,3.516081522542877e-13,1.5418039714968125e-13,6.621764098820521e-14,2.840222429807945e-14
0.0,49,49.0,0.0,30.0,0.0,0.0,0.0,0.0,-13.0,0.0,2.0,0.0,0.0,0.0,2.110474603897737e-11,1.779173137094347e-11,1.4900607210402394e-11,1.2396598948250003e-11,1.0304407373292644e-11,7.314854931277201e-12,5.6765064171535315e-12,4.059381934612574e-12,2.858733664636354e-12,2.055752530029023e-12,1.3071129524235822e-12,7.904426878328295e-13,4.490564827985852e-13,2.622529121840249e-13,1.38652123862799e-13,7.952289916295762e-14,4.428522787542066e-14,2.934833304978712e-14,2.044546616400639e-14,1.2545441121250644e-14,9.61241819137455e-15,8.123026151465814e-15,3.3493830005034844e-15,2.1319373905782565e-15,1.6800939916357689e-15,1.6064724830502879e-15,1.7079427511230824e-09,9.080655245781895e-10,5.722390756393024e-10,3.4219951817536e-10,1.9640144538073768e-10,1.2418267508801538e-10,7.640460894904737e-11,4.7429635607389936e-11,2.7847234976488218e-11,1.626491248215974e-11,9.571945998800174e-12,5.2556498903429936e-12,2.883502300286261e-12,1.5359205242085615e-12,8.046372769326272e-13,3.7281704225697073e-13,1.7272502819191794e-13,4.942407967986086e-14,3.29233147975162e-14
0.0,50,50.0,0.0,30.0,0.0,0.0,0.0,0.0,-13.0,0.0,2.0,0.0,0.0,0.0,2.0722227371865303e-11,1.7666611629835175e-11,1.5122997900753772e-11,1.224033696383169e-11,1.0592840078976355e-11,7.867168207289773e-12,5.909336424008688e-12,4.2788117420681896e-12,3.0967066185773623e-12,2.081824418237775e-12,1.4247550878985141e-12,8.104354981067524e-13,5.103549557310918e-13,2.860255999679275e-13,1.4878328993265907e-13,7.841595521757324e-14,4.9883917652896847e-14,3.1325740054485185e-14,2.0229381235335908e-14,1.2147550078222389e-14,8.342674953043724e-15,6.920447008044296e-15,6.482618394756315e-15,4.342327624173118e-15,2.856421973342742e-15,2.252148352439859e-15,1.729597299064789e-09,1.0167594874231205e-09,5.734107741256215e-10,3.3368911533712015e-10,2.2227044446874658e-10,1.2542918220874224e-10,7.282514387097824e-11,4.6752287056249983e-11,2.6625622996621532e-11,1.6603874023046916e-11,9.35621625976978e-12,4.975132563049248e-12,3.0229140399785053e-12,1.63365452528181e-12,7.797552236942461e-13,3.7018902195246256e-13,1.7733410257198668e-13,7.542021287627574e-14,4.072334239603351e-14
0.0,51,51.0,0.0,30.0,0.0,0.0,0.0,0.0,-13.0,0.0,2.0,0.0,0.0,0.0,2.1795106113332724e-11,1.822914153137925e-11,1.530447462984132e-11,1.2680304533856795e-11,9.864558859324715e-12,8.04042821546226e-12,5.8102582969603004e-12,4.510340671035485e-12,3.085987919013502e-12,2.092617151160449e-12,1.3616949319120838e-12,8.445680859191426e-13,5.200082220137052e-13,2.9504411809767497e-13,1.4471796630717407e-13,8.517515800988439e-14,4.345085720023691e-14,2.8313434462634778e-14,1.7964989809401784e-14,1.1505001916569915e-14,8.251393630654951e-15,7.232791337273394e-15,6.999975550078949e-15,2.8687584483824423e-15,3.084981473942305e-15,3.11113064291722e-15,1.786685674028101e-09,1.0668728470936229e-09,5.829538031829845e-10,3.43763009884992e-10,2.0605287519119446e-10,1.293943564864818e-10,7.701793021028208e-11,4.704351460688757e-11,2.7310868684088584e-11,1.5848330977104243e-11,9.400947145175437e-12,5.575596130524772e-12,3.029169501255306e-12,1.5740222150126153e-12,8.545755814544952e-13,3.841058008252607e-13,1.8369141277536484e-13,6.245968493119498e-14,3.9294003119323695e-14
0.0,52,52.0,0.0,30.0,0.0,0.0,0.0,0.0,-13.0,0.0,2.0,0.0,0.0,0.0,2.216807879245266e-11,1.94315757302204e-11,1.5298675780683733e-11,1.2845041569782871e-11,1.0289988734309204e-11,8.092703490490264e-12,6.102782296064887e-12,4.19015720415683e-12,3.0721507568583306e-12,2.197859566952681e-12,1.4524180117230006e-12,8.557687090946286e-13,5.338282322100822e-13,2.996111618989333e-13,1.6684615200516034e-13,8.269959902550875e-14,4.810622143368722e-14,2.656315412989585e-14,1.782849752954998e-14,1.1434884674658722e-14,9.875216531844864e-15,5.0736673143320415e-15,5.7110108276161234e-15,3.79091590022441e-15,2.6093598326963537e-15,9.54157222098174e-16,1.77338650312962e-09,1.0064261180253725e-09,6.089278235334653e-10,3.823871047080215e-10,2.0949334795907504e-10,1.3114275387611153e-10,8.095651257760515e-11,4.844842640830547e-11,2.6960961392806646e-11,1.606475644924447e-11,9.96535963781194e-12,5.648373884238741e-12,3.1345904948358446e-12,1.6792998131086563e-12,7.999392064456397e-13,3.928874832063655e-13,1.816263030131837e-13,5.287407431225368e-14,2.7301653666140932e-14
0.0,53,53.0,0.0,30.0,0.0,0.0,0.0,0.0,-13.0,0.0,2.0,0.0,0.0,0.0,2.122420993811912e-11,1.8624591974996218e-11,1.5706715064876742e-11,1.2534944515389717e-11,1.0554080650467144e-11,7.937105195449371e-12,6.017859262427943e-12,4.2667627356863446e-12,3.241870466661772e-12,2.300914720329888e-12,1.483377583015603e-12,9.078685061892994e-13,5.239061233409126e-13,3.0500644774445684e-13,1.6419770779841277e-13,8.398752473201454e-14,4.636524654524187e-14,2.7546626429069923e-14,1.902107855603931e-14,1.158910316697027e-14,9.057145260013572e-15,4.55354524438275e-15,3.8157116658222734e-15,2.3666851119645744e-15,2.332252388350917e-15,2.3113658121036036e-15,1.7923621276645407e-09,1.0824306841100862e-09,6.001148862703472e-10,3.644294465540672e-10,2.243043340487072e-10,1.3088066347916385e-10,8.214764599257569e-11,4.998877183091466e-11,2.8435353549880914e-11,1.7322168838764918e-11,9.733585712572133e-12,5.580268363295531e-12,3.0104060943501897e-12,1.6531158352456066e-12,8.48325165432381e-13,4.0566301933956444e-13,2.1051250085492639e-13,8.7777681039708e-14,1.9938791114703412e-14
0.0,54,54.0,0.0,30.0,0.0,0.0,0.0,0.0,-13.0,0.0,2.0,0.0,0.0,0.0,2.2483890281099575e-11,1.9813181196264386e-11,1.605855867837671e-11,1.2808351513586356e-11,1.0451332317695476e-11,8.023311594722183e-12,6.262267740787028e-12,4.750092589913001e-12,3.3159326987475786e-12,2.3007488866124336e-12,1.5234403258402146e-12,8.736241120916856e-13,5.607437402218903e-13,3.256959178654398e-13,1.6712926129575942e-13,8.76631001899265e-14,4.716983215744588e-14,2.96956904671027e-14,1.4474695023314655e-14,1.1937720372538705e-14,6.860635583712611e-15,7.091240874629284e-15,5.89096177534811e-15,3.012500809619056e-15,2.3407536151078232e-15,1.0258160908577222e-15,1.9879153349115606e-09,1.0880225436885473e-09,6.295927344811296e-10,3.726599673243731e-10,2.2013434188260708e-10,1.392643653615538e-10,8.10854431159563e-11,4.503777007684426e-11,2.9073612216700402e-11,1.6654831918821657e-11,1.0117196584053622e-11,5.9241330483095e-12,3.1866427729808285e-12,1.694109599506492e-12,9.069281166182179e-13,4.446119651726859e-13,1.9167026339181246e-13,8.469545319385857e-14,3.8028174265713663e-14
