Line_number,Fiducial,Easting,Northing,Height,Elevation,tx_pitch,tx_roll,tx_yaw,txrx_dx,txrx_dy,txrx_dz,rx_pitch,rx_roll,rx_yaw,S0Z_time_3.834e-04,S0Z_time_3.924e-04,S0Z_time_4.039e-04,S0Z_time_4.184e-04,S0Z_time_4.364e-04,S0Z_time_4.589e-04,S0Z_time_4.869e-04,S0Z_time_5.224e-04,S0Z_time_5.679e-04,S0Z_time_6.249e-04,S0Z_time_6.969e-04,S0Z_time_7.879e-04,S0Z_time_9.019e-04,S0Z_time_1.046e-03,S0Z_time_1.227e-03,S0Z_time_1.456e-03,S0Z_time_1.744e-03,S0Z_time_2.109e-03,S0Z_time_2.567e-03,S0Z_time_3.145e-03,S0Z_time_3.864e-03,S0Z_time_4.745e-03,S0Z_time_5.821e-03,S0Z_time_7.140e-03,S0Z_time_8.754e-03,S0Z_time_1.073e-02,S1Z_time_2.057e-05,S1Z_time_2.607e-05,S1Z_time_3.307e-05,S1Z_time_4.206e-05,S1Z_time_5.356e-05,S1Z_time_6.807e-05,S1Z_time_8.607e-05,S1Z_time_1.086e-04,S1Z_time_1.366e-04,S1Z_time_1.721e-04,S1Z_time_2.176e-04,S1Z_time_2.746e-04,S1Z_time_3.466e-04,S1Z_time_4.376e-04,S1Z_time_5.516e-04,S1Z_time_6.956e-04,S1Z_time_8.771e-04,S1Z_time_1.106e-03,S1Z_time_1.394e-03
0.0,0,0.0,0.0,30.0,0.0,0.0,0.0,0.0,-13.0,0.0,2.0,0.0,0.0,0.0,5.706585178080474e-11,5.2160566096214406e-11,4.69235897907819e-11,4.151972318539573e-11,3.597451904686567e-11,3.0568849892943486e-11,2.5410163129435904e-11,2.0502799970050625e-11,1.6002938297999505e-11,1.2128651407692398e-11,8.909615568994683e-12,6.331163986233493e-12,4.37478788435449e-12,2.9339004297543604e-12,1.9096123940846103e-12,1.207568247962349e-12,7.459444371553533e-13,4.4858820526488735e-13,2.6354775616834953e-13,1.5105636689818193e-13,8.522094492794858e-14,4.7507466308456503e-14,2.6354881257383987e-14,1.4463960173882143e-14,7.96821801250203e-15,4.169763141709323e-15,3.5404501165181596e-09,1.6263312943960554e-09,8.133589437777904e-10,4.4821074362514745e-10,2.751138296113444e-10,1.8569807872141524e-10,1.329107740065698e-10,9.658000043043893e-11,6.96744089180335e-11,4.893308542936303e-11,3.31163760491931e-11,2.171884449048743e-11,1.3730856950625295e-11,8.369662759131237e-12,4.933040016731837e-12,2.811166961929019e-12,1.5457636811552779e-12,8.264776903847377e-13,4.301288824581802e-13
0.0,1,1.0,0.0,30.0,0.0,0.0,0.0,0.0,-13.0,0.0,2.0,0.0,0.0,0.0,5.700802182595706e-11,5.2265552800511665e-11,4.722306120534547e-11,4.203265868746384e-11,3.669338064853098e-11,3.145286173107504e-11,2.6397660765099063e-11,2.152225385930329e-11,1.6980873375338088e-11,1.3005364633446363e-11,9.64657467332329e-12,6.9137512880998364e-12,4.8105286889521165e-12,3.2425807412623326e-12,2.1171584595102673e-12,1.3405589470476527e-12,8.27463047044882e-13,4.965773284611146e-13,2.9066055099941897e-13,1.659021040963558e-13,9.312072382521769e-14,5.1625435017798045e-14,2.846708137384967e-14,1.5561011750496318e-14,8.523966639312232e-15,4.432530568827799e-15,3.518643866295954e-09,1.6137954031922026e-09,8.085587302709017e-10,4.4606650067162073e-10,2.7199898612924274e-10,1.8115455165863513e-10,1.2829616821597662e-10,9.313477163686255e-11,6.779598993244279e-11,4.8366727213119544e-11,3.336232378702887e-11,2.2314177504881826e-11,1.4375197115430086e-11,8.912260435388907e-12,5.331053308919859e-12,3.0733430352455047e-12,1.7048884853836786e-12,9.172317825667453e-13,4.777654734257447e-13
0.0,2,2.0,0.0,30.0,0.0,0.0,0.0,0.0,-13.0,0.0,2.0,0.0,0.0,0.0,5.681127932878423e-11,5.2129663904052023e-11,4.718417049058283e-11,4.212836086790498e-11,3.6949514193567614e-11,3.186942561314568e-11,2.6949828884741105e-11,2.2167046850751596e-11,1.766096855283517e-11,1.3662221487984931e-11,1.0233941313743842e-11,7.403073203429851e-12,5.193394470094712e-12,3.5245080179128554e-12,2.313095722424052e-12,1.4697182402875598e-12,9.084686235642019e-13,5.45193964416996e-13,3.1850940765854887e-13,1.8132779686268242e-13,1.0138457040965479e-13,5.5971420021849715e-14,3.069220580627756e-14,1.6720560214455826e-14,9.100077331604498e-15,4.710828277386467e-15,3.4962359232987495e-09,1.601375467203161e-09,8.047703998265435e-10,4.4636659662185583e-10,2.725565331717412e-10,1.802476033413387e-10,1.2613564558693593e-10,9.071414966233079e-11,6.593656157977878e-11,4.7360521556973485e-11,3.3088922898602466e-11,2.2482942013265723e-11,1.4725118870622283e-11,9.277412471596291e-12,5.632871034733212e-12,3.2888515012294623e-12,1.844100941464788e-12,1.0004681180196575e-12,5.231408795483214e-13
0.0,3,3.0,0.0,30.0,0.0,0.0,0.0,0.0,-13.0,0.0,2.0,0.0,0.0,0.0,5.669532909726356e-11,5.2003476589933437e-11,4.7073304591567346e-11,4.206808700959667e-11,3.697718588556946e-11,3.2010787762876454e-11,2.7211388970002e-11,2.2535899069192138e-11,1.810295261782192e-11,1.4130238588221755e-11,1.0683450352582424e-11,7.79984590869474e-12,5.519219494806027e-12,3.7745133443783826e-12,2.4931072139904232e-12,1.5920330477632432e-12,9.871589974864375e-13,5.93442565644217e-13,3.466176922682065e-13,1.971082332912397e-13,1.0991900784689409e-13,6.050438436921562e-14,3.301863673368689e-14,1.79346914411936e-14,9.696458827134069e-15,5.004660380851039e-15,3.4732335577681428e-09,1.5890070731833924e-09,8.013275650067261e-10,4.4743274670175144e-10,2.746447117116942e-10,1.8145214088565628e-10,1.2597615581973038e-10,8.961701317069506e-11,6.462386673242943e-11,4.63599339062925e-11,3.258046942054482e-11,2.2381131257912826e-11,1.4856835159329348e-11,9.495809433932421e-12,5.846890730371403e-12,3.457738634497419e-12,1.961221832692147e-12,1.0742106796268573e-12,5.651635849666173e-13
0.0,4,4.0,0.0,30.0,0.0,0.0,0.0,0.0,-13.0,0.0,2.0,0.0,0.0,0.0,5.674160927444617e-11,5.199897439311482e-11,4.70303302200809e-11,4.2010292039294646e-11,3.693803171311774e-11,3.2025105863661193e-11,2.7304967385428118e-11,2.272005302176078e-11,1.8367742933081392e-11,1.444596384575735e-11,1.1013932861554916e-11,8.11144292349554e-12,5.788918718533841e-12,3.990718365487068e-12,2.6547076386334975e-12,1.7053899512991033e-12,1.062104986691757e-12,6.404575088728111e-13,3.745362119172573e-13,2.1301964539692163e-13,1.1862581099556208e-13,6.517890706469804e-14,3.5431805826131014e-14,1.9195141133438038e-14,1.0312982987900636e-14,5.3126870332429e-15,3.4496432160568374e-09,1.5767218995374763e-09,7.981739045260818e-10,4.488266864138234e-10,2.773067199644828e-10,1.8366766476056783e-10,1.270913150548965e-10,8.96587151488641e-11,6.402926069722434e-11,4.563324742177289e-11,3.205218874122724e-11,2.2141717686482405e-11,1.4841778592223697e-11,9.600928442351024e-12,5.9864110810604175e-12,3.5837437857143012e-12,2.0562070380344404e-12,1.1375362330818814e-12,6.031430030718507e-13
0.0,5,5.0,0.0,30.0,0.0,0.0,0.0,0.0,-13.0,0.0,2.0,0.0,0.0,0.0,5.6964829825975416e-11,5.215080005184548e-11,4.711311462014881e-11,4.203564824380447e-11,3.692921006627606e-11,3.2014490976072006e-11,2.7325293673116557e-11,2.2797158895376444e-11,1.8511753875607436e-11,1.4646197475518457e-11,1.1246773973996411e-11,8.348562636000078e-12,6.006541065072769e-12,4.173608552934295e-12,2.796903487893664e-12,1.8085008957600834e-12,1.1322659475671413e-12,6.855363868929058e-13,4.0186740382477894e-13,2.2885178300103715e-13,1.2740706773286692e-13,6.994782241071438e-14,3.7914846833535535e-14,2.0493488864959038e-14,1.0949035588865049e-14,5.632537040130203e-15,3.42548158424232e-09,1.564548343135486e-09,7.953313851613064e-10,4.504818035652001e-10,2.802224305466762e-10,1.8631868166364327e-10,1.288968649328961e-10,9.049415720824192e-11,6.409298338939419e-11,4.528937474002985e-11,3.164598126792027e-11,2.1871446371699475e-11,1.4743006005964795e-11,9.624861583895756e-12,6.066192890526373e-12,3.6724553667595856e-12,2.1304277326571804e-12,1.1903413369895842e-12,6.367518907472763e-13
0.0,6,6.0,0.0,30.0,0.0,0.0,0.0,0.0,-13.0,0.0,2.0,0.0,0.0,0.0,5.735284296263725e-11,5.245724386576385e-11,4.7334561832010393e-11,4.217498712924035e-11,3.699948863137759e-11,3.204061130637663e-11,2.7338361749344956e-11,2.28281225423991e-11,1.858377648706018e-11,1.4765399711654605e-11,1.1403610738011024e-11,8.523246212480674e-12,6.177836186748519e-12,4.325201443157301e-12,2.9198141919715993e-12,1.9007689777409437e-12,1.1969598333485411e-12,7.281469296630767e-13,4.282780957757554e-13,2.444164612535736e-13,1.3616952058348472e-13,7.476437224826413e-14,4.044941011213318e-14,2.1821256378768048e-14,1.1603414411151326e-14,5.962665480625886e-15,3.4007733306475097e-09,1.5525189958407117e-09,7.928210504702718e-10,4.524043114913027e-10,2.833154531464049e-10,1.891669749436201e-10,1.3104031712055614e-10,9.181048536707725e-11,6.465693053320495e-11,4.5323123740736566e-11,3.143326748184868e-11,2.164709012462968e-11,1.4613516542000437e-11,9.597011587707875e-12,6.1007997925797875e-12,3.7301296272418e-12,2.186068225458674e-12,1.233113685262385e-12,6.659166349136911e-13
0.0,7,7.0,0.0,30.0,0.0,0.0,0.0,0.0,-13.0,0.0,2.0,0.0,0.0,0.0,5.788494828975098e-11,5.290236358266378e-11,4.768651712531225e-11,4.243155685588658e-11,3.716618727173108e-11,3.213442679598367e-11,2.7384715186875143e-11,2.28564334347321e-11,1.86230699650985e-11,1.48340214837579e-11,1.1505063526796593e-11,8.647819355068042e-12,6.309354645475765e-12,4.4484151990954095e-12,3.0243249281254537e-12,1.982135668844179e-12,1.2558132920143939e-12,7.679178285625201e-13,4.535030108039236e-13,2.5955250173808975e-13,1.4482782911761755e-13,7.958393032933409e-14,4.3016485698700286e-14,2.3170010286130158e-14,1.2274348335487115e-14,6.303491768459132e-15,3.3755481152460457e-09,1.540671955194084e-09,7.906633326443826e-10,4.5460556871193804e-10,2.865785111936045e-10,1.9213477098336323e-10,1.3334718508457623e-10,9.339185947604289e-11,6.555618992968476e-11,4.566922991193506e-11,3.1429430576750876e-11,2.151447023689221e-11,1.4494364129322099e-11,9.543310370565749e-12,6.103946335583842e-12,3.763091223383458e-12,2.225699605225168e-12,1.2667216813615153e-12,6.907142566806978e-13
0.0,8,8.0,0.0,30.0,0.0,0.0,0.0,0.0,-13.0,0.0,2.0,0.0,0.0,0.0,5.853929210285611e-11,5.3466313440107204e-11,4.815284729992788e-11,4.279555223466624e-11,3.7428769647343095e-11,3.230639660946067e-11,2.7485101755824875e-11,2.2909757414744624e-11,1.8658691858073182e-11,1.4877325223784937e-11,1.156982127968926e-11,8.734267502839496e-12,6.407929689764938e-12,4.546651770775005e-12,3.11181004578723e-12,2.052933826303155e-12,1.3087048265623893e-12,8.046208751590019e-13,4.773425854792844e-13,2.7412761299257293e-13,1.533065900129464e-13,8.436530074249293e-14,4.559715268490771e-14,2.4531490083354228e-14,1.295956797300409e-14,6.65672914362411e-15,3.3498400392984597e-09,1.5290488866368543e-09,7.888808026302348e-10,4.5709516675059e-10,2.900170214151684e-10,1.9520490373071243e-10,1.3574541174903765e-10,9.511342179800368e-11,6.666111773380137e-11,4.624538561149361e-11,3.161434362572468e-11,2.1492265412962386e-11,1.4413534717951327e-11,9.485283174730324e-12,6.088136951823253e-12,3.7774729205423864e-12,2.252025568973477e-12,1.292241777660346e-12,7.113161244536931e-13
0.0,9,9.0,0.0,30.0,0.0,0.0,0.0,0.0,-13.0,0.0,2.0,0.0,0.0,0.0,5.929568024245648e-11,5.412972745010363e-11,4.871581982981552e-11,4.32524053732412e-11,3.777807075440876e-11,3.25549413683885e-11,2.7646588924793477e-11,2.3002989793306796e-11,1.8710073000494246e-11,1.491479829433956e-11,1.1613924154139683e-11,8.79375547551083e-12,6.4803536397425925e-12,4.62354248183762e-12,3.1839380712570287e-12,2.1137633930983863e-12,1.3557082100699825e-12,8.381487722850093e-13,4.99657802556835e-13,2.8803809411478227e-13,1.6154126890445075e-13,8.907157893637023e-14,4.817320119794515e-14,2.5897743419213333e-14,1.3656420470124027e-14,7.0236647860842145e-15,3.323687943900931e-09,1.5176938956964096e-09,7.874978803702474e-10,4.5988269912211384e-10,2.9363661732761655e-10,1.9837802295898057e-10,1.3821145163777328e-10,9.691285926733144e-11,6.788550638379888e-11,4.697731409763719e-11,3.195155783290503e-11,2.157923359599762e-11,1.4386504489464906e-11,9.439261597980833e-12,6.064288828232411e-12,3.779066261678261e-12,2.2677474299791624e-12,1.310837494478883e-12,7.27971317185702e-13
0.0,10,10.0,0.0,30.0,0.0,0.0,0.0,0.0,-13.0,0.0,2.0,0.0,0.0,0.0,6.01366273095354e-11,5.487544915878494e-11,4.935893542987671e-11,4.378704316369166e-11,3.820184823311305e-11,3.287247776603793e-11,2.786787428481449e-11,2.3141787607137594e-11,1.8788507024143785e-11,1.4960229802646034e-11,1.1650313015713255e-11,8.836217004786664e-12,6.533125439094118e-12,4.682784107959664e-12,3.242544638311092e-12,2.1653977226973618e-12,1.3970415335855943e-12,8.684916162422015e-13,5.20363447454033e-13,3.0120715316979655e-13,1.694783708506245e-13,9.367061060100203e-14,5.0727598431385076e-14,2.7261248593923683e-14,1.436200351991187e-14,7.403702204436616e-15,3.2971357150058772e-09,1.5066532506416818e-09,7.865399766587195e-10,4.6297855779896724e-10,2.9744229006562006e-10,2.0165823577910945e-10,1.4074103437844587e-10,9.876369204937537e-11,6.917896669568892e-11,4.780863388281136e-11,3.2402002338284505e-11,2.1762231655733145e-11,1.4418371003069816e-11,9.4161424122066e-12,6.041360921052773e-12,3.773168615159253e-12,2.2754853609347713e-12,1.3236865203133819e-12,7.410056347468629e-13
0.0,11,11.0,0.0,30.0,0.0,0.0,0.0,0.0,-13.0,0.0,2.0,0.0,0.0,0.0,6.104768517833705e-11,5.568911756129808e-11,5.0068034814593015e-11,4.438584352146912e-11,3.868778324382526e-11,3.324925024629172e-11,2.8143278618364297e-11,2.3325836287077703e-11,1.889907002746338e-11,1.5022340937989143e-11,1.1688710133665764e-11,8.870047351148937e-12,6.572227020425216e-12,4.7280115396295125e-12,3.2895484766758673e-12,2.2087188678982106e-12,1.4330254160085e-12,8.957145446059292e-13,5.394205129879825e-13,3.135823848704143e-13,1.7707514952025674e-13,9.81351311486032e-14,5.324479939686994e-14,2.861501478611784e-14,1.5073279095646664e-14,7.793908885965051e-15,3.270232481306104e-09,1.4959753765993037e-09,7.860329887789206e-10,4.663937669161519e-10,3.0143911037954165e-10,2.0504968775761174e-10,1.4333612070011776e-10,1.0065724521681644e-10,7.051545543365992e-11,4.870143655859021e-11,3.2931607026603285e-11,2.2023025639335608e-11,1.4506813120267986e-11,9.421799148126261e-12,6.0261157790837585e-12,3.764416017118347e-12,2.2777137419094706e-12,1.3319404036131644e-12,7.508178499170171e-13
0.0,12,12.0,0.0,30.0,0.0,0.0,0.0,0.0,-13.0,0.0,2.0,0.0,0.0,0.0,6.201740622583293e-11,5.655922877023978e-11,5.0831588096899355e-11,4.503737270511751e-11,3.922490496550467e-11,3.367551039133683e-11,2.8465424682179174e-11,2.3551464723487446e-11,1.9042544209609178e-11,1.5105747530153132e-11,1.1735811717292447e-11,8.901943357665901e-12,6.602936383294221e-12,4.7626828783659854e-12,3.326888052903951e-12,2.2446741110261616e-12,1.4640513126315712e-12,9.199384052464951e-13,5.568283317998155e-13,3.251327688045324e-13,1.8429903971019858e-13,1.0244268177086851e-13,5.571092582898967e-14,2.995265788552383e-14,1.5787143067239794e-14,8.189541947032507e-15,3.24303276426306e-09,1.485710846417993e-09,7.860031042817651e-10,4.701396418451276e-10,3.0563255482951716e-10,2.0855632053148952e-10,1.4600010741343878e-10,1.0259255739632734e-10,7.188342857127676e-11,4.963273934690603e-11,3.351420862613808e-11,2.2343024946084098e-11,1.4645083407584808e-11,9.457988427533105e-12,6.023096447900091e-12,3.7566391885292905e-12,2.2766958522007154e-12,1.3367003728771861e-12,7.578661086809778e-13
0.0,13,13.0,0.0,30.0,0.0,0.0,0.0,0.0,-13.0,0.0,2.0,0.0,0.0,0.0,6.303708887100091e-11,5.7476931944817125e-11,5.164059401985385e-11,4.5732507427371665e-11,3.980411689306037e-11,3.414259584274011e-11,2.8826847744044636e-11,2.3813515245677143e-11,1.921707470736008e-11,1.5212026130757698e-11,1.1795705865398119e-11,8.936902639994775e-12,6.6296990888972246e-12,4.789975461796152e-12,3.356465654014168e-12,2.274244784978573e-12,1.4905585651295529e-12,9.413243505419147e-13,5.726170156287928e-13,3.358454672681248e-13,1.9112690015038313e-13,1.0657538198145048e-13,5.811384609556875e-14,3.1268451737844725e-14,1.650045493273194e-14,8.58509632544393e-15,3.215596624029259e-09,1.4759123166633006e-09,7.86476725202282e-10,4.742275646617274e-10,3.1002848304859696e-10,2.1218214547014904e-10,1.4873648743290845e-10,1.0457150596231603e-10,7.327907508084003e-11,5.05900297028542e-11,3.413157301126589e-11,2.2705962765207075e-11,1.482450035017748e-11,9.523486422046164e-12,6.034817828910711e-12,3.752780635507138e-12,2.274421572085476e-12,1.3389983380035501e-12,7.626456402252158e-13
0.0,14,14.0,0.0,30.0,0.0,0.0,0.0,0.0,-13.0,0.0,2.0,0.0,0.0,0.0,6.410040098080468e-11,5.843568949880577e-11,5.24882956919193e-11,4.6464262214445907e-11,4.0418247275452246e-11,3.464334027149194e-11,2.922084158374158e-11,2.4106547417285947e-11,1.9419444234054972e-11,1.5340711256905844e-11,1.1870406464661682e-11,8.978358294388995e-12,6.65607169407498e-12,4.8127013262423876e-12,3.3800948566820982e-12,2.2984205490058845e-12,1.5130176545201357e-12,9.600623012713111e-13,5.868406893567489e-13,3.4572266570955634e-13,1.9754411067711025e-13,1.1051961292589644e-13,6.044318679485947e-14,3.2557354379106563e-14,1.721005069761428e-14,8.975379930548001e-15,3.1879898137440466e-09,1.4666344268125687e-09,7.874804101322482e-10,4.786688832749611e-10,3.146330161868029e-10,2.15931401214342e-10,1.5154867054463885e-10,1.0659677634594173e-10,7.470228215621423e-11,5.156741825618443e-11,3.477205660551748e-11,2.3098990766920164e-11,1.503622246990532e-11,9.615213865151614e-12,6.0621127172041065e-12,3.754889765433226e-12,2.2725582682000208e-12,1.3397786215824108e-12,7.656625056503794e-13
0.0,15,15.0,0.0,30.0,0.0,0.0,0.0,0.0,-13.0,0.0,2.0,0.0,0.0,0.0,6.520295690687928e-11,5.943088355335327e-11,5.336982293975626e-11,4.722749126934549e-11,4.106187037698312e-11,3.517211121274102e-11,2.9641808814630225e-11,2.442552493881149e-11,1.9645961152897263e-11,1.5490125481502905e-11,1.1960405629346168e-11,9.0284052370847e-12,6.6847359664319034e-12,4.833250764377913e-12,3.3994530811257092e-12,2.318175519545597e-12,1.5319170869323295e-12,9.76362561386595e-13,5.995718056230145e-13,3.5477865688555407e-13,2.035435662396534e-13,1.142656450870422e-13,6.269029884777095e-14,3.381500927505564e-14,1.791276405774429e-14,9.356292027951536e-15,3.1602839380989466e-09,1.457933681996815e-09,7.890408054298297e-10,4.834748783960841e-10,3.194524383534821e-10,2.1980857182235445e-10,1.5444006591257646e-10,1.0867116452081752e-10,7.615448992403625e-11,5.2562849034277544e-11,3.5428895234115484e-11,2.3512756399985233e-11,1.5272319226983165e-11,9.729190741859909e-12,6.104551869775182e-12,3.764190698174785e-12,2.272423314082419e-12,1.3398805088264657e-12,7.674082879622464e-13
0.0,16,16.0,0.0,30.0,0.0,0.0,0.0,0.0,-13.0,0.0,2.0,0.0,0.0,0.0,6.634190432717609e-11,6.045942431680424e-11,5.428182533627548e-11,4.801855560171379e-11,4.173103681229733e-11,3.5724663557866183e-11,3.008531893149385e-11,2.4766141479303228e-11,1.9893017440352444e-11,1.5658007670010975e-11,1.206517620551036e-11,9.08807051857859e-12,6.717570806747952e-12,4.853567964715338e-12,3.4160429555130523e-12,2.3344454307367526e-12,1.5477520228259562e-12,9.904496003196512e-13,6.108965931917933e-13,3.6303730552792373e-13,2.0912462250150628e-13,1.1780723274375184e-13,6.484819258364049e-14,3.503772333805998e-14,1.8605471096437363e-14,9.725190823377806e-15,3.132556607987933e-09,1.4498683284739571e-09,7.911845676472686e-10,4.886567576250295e-10,3.244931461788511e-10,2.2381834541092139e-10,1.5741415562787292e-10,1.1079741139809604e-10,7.76376714896051e-11,5.357629658569043e-11,3.609863700356863e-11,2.3940946233943234e-11,1.5526276539530166e-11,9.861249992673703e-12,6.160865394367137e-12,3.7812031907312865e-12,2.274981571850267e-12,1.340023731587392e-12,7.683391587476217e-13
0.0,17,17.0,0.0,30.0,0.0,0.0,0.0,0.0,-13.0,0.0,2.0,0.0,0.0,0.0,6.751555602629241e-11,6.151939532903911e-11,5.522213326276945e-11,4.8835003976568055e-11,4.2422987487921725e-11,3.629791987864465e-11,3.054801307634227e-11,2.512491710063858e-11,2.0157395114479832e-11,1.5841947546480148e-11,1.2183587022956026e-11,9.157587280064413e-12,6.755762817109726e-12,4.875157262908745e-12,3.4311656578865457e-12,2.348106662195833e-12,1.5610136527435625e-12,1.002557082852701e-12,6.209115078098699e-13,3.705299538330747e-13,2.1429205450178466e-13,1.211411934401914e-13,6.691145033381647e-14,3.62224258161853e-14,1.928516011133608e-14,1.008089026931751e-14,3.1048915847326523e-09,1.442498223766867e-09,7.939382857207673e-10,4.942256591901346e-10,3.297616358457343e-10,2.2796556805757985e-10,1.6047451817459562e-10,1.1297820497350065e-10,7.915390817811097e-11,5.46087035838484e-11,3.677991609858757e-11,2.4379632573120306e-11,1.5793110858338196e-11,1.0007506499485057e-11,6.229314611968175e-12,3.805892123335337e-12,2.2808660541859474e-12,1.3407991316553983e-12,7.68860948761303e-13
0.0,18,18.0,0.0,30.0,0.0,0.0,0.0,0.0,-13.0,0.0,2.0,0.0,0.0,0.0,6.872308322252428e-11,6.260975333143986e-11,5.61894662737467e-11,4.9675291925636605e-11,4.313588887748261e-11,3.688973905457393e-11,3.1027443065055764e-11,2.549916357554e-11,2.04363981646513e-11,1.6039657516966214e-11,1.2314218966858223e-11,9.236644179716116e-12,6.799935907899238e-12,4.899114460992631e-12,3.4459076527189286e-12,2.3599585471222766e-12,1.5721790833059848e-12,1.0129234746527876e-12,6.297204544184343e-13,3.772937576876502e-13,2.1905508418670518e-13,1.2426698966640343e-13,6.887612188787599e-14,3.7366614010250086e-14,1.994901742854917e-14,1.0423402499813225e-14,3.077378909179144e-09,1.435884700682738e-09,7.973284096394813e-10,5.001926615781157e-10,3.352645125017034e-10,2.3225521402867633e-10,1.6362482100763153e-10,1.1521621164239824e-10,8.070524516468795e-11,5.566140647035569e-11,3.7472586679833315e-11,2.4826622253499304e-11,1.6069250358838122e-11,1.0164616922966272e-11,6.3079876532262244e-12,3.837822888571999e-12,2.290416523738349e-12,1.3426658657418337e-12,7.693203855588361e-13
0.0,19,19.0,0.0,30.0,0.0,0.0,0.0,0.0,-13.0,0.0,2.0,0.0,0.0,0.0,6.996427349514736e-11,6.373008769638206e-11,5.71831954344898e-11,5.053854832666427e-11,4.386860619770656e-11,3.7498704108755505e-11,3.1521895537940335e-11,2.5886885517759777e-11,2.072787415294e-11,1.624912041762306e-11,1.245558696390054e-11,9.324594525255523e-12,6.850283341887165e-12,4.926175627086977e-12,3.4611403497413584e-12,2.3707101941765736e-12,1.581701978532963e-12,1.0217878494585537e-12,6.374325310175394e-13,3.833703928728383e-13,2.2342651682888908e-13,1.2718632877301767e-13,7.073960710406823e-14,3.846829254968976e-14,2.0594514907223396e-14,1.0753556507620556e-14,3.0501150111278406e-09,1.4300904236712188e-09,8.013811892069975e-10,5.065688003508397e-10,3.4100851182299014e-10,2.366923747028738e-10,1.6686880437716034e-10,1.1751409765588306e-10,8.229366208145244e-11,5.673585287951778e-11,3.817715789039417e-11,2.5280903088716785e-11,1.6352304541911984e-11,1.0329881926025354e-11,6.395011905621618e-12,3.876305554064815e-12,2.303729290473102e-12,1.3459553444828669e-12,7.700017510689401e-13
0.0,20,20.0,0.0,30.0,0.0,0.0,0.0,0.0,-13.0,0.0,2.0,0.0,0.0,0.0,7.123934806298921e-11,6.488043607568839e-11,5.820315812576177e-11,5.142439014887503e-11,4.462051904632126e-11,3.812394218301442e-11,3.2030227918235795e-11,2.6286659213287497e-11,2.103017352174775e-11,1.6468650368036767e-11,1.260628221556448e-11,9.42061951628681e-12,6.9066902140189335e-12,4.956775542297924e-12,3.477530761075643e-12,2.3809725004906663e-12,1.5900043999261741e-12,1.0293857818889363e-12,6.44160082521086e-13,3.888050444460477e-13,2.2742200622182436e-13,1.2990279446094664e-13,7.250052995035855e-14,3.952591255152315e-14,2.1219485032146216e-14,1.1072601574786337e-14,3.0232027938963126e-09,1.425179235902136e-09,8.061226242624245e-10,5.13365094018596e-10,3.470005284706379e-10,2.4128226189245343e-10,1.702102688925886e-10,1.1987453787556949e-10,8.392108161583316e-11,5.783347905082925e-11,3.889445051279132e-11,2.5742217656801314e-11,1.6640803211337908e-11,1.050124267743779e-11,6.488689765635229e-12,3.920517200488999e-12,2.3207115698465584e-12,1.3508810892917441e-12,7.711277993371714e-13
0.0,21,21.0,0.0,30.0,0.0,0.0,0.0,0.0,-13.0,0.0,2.0,0.0,0.0,0.0,7.254882914613201e-11,6.606114854732076e-11,5.924951921566048e-11,5.2332780965746216e-11,4.539137754713756e-11,3.876497953847751e-11,3.255172793942923e-11,2.6697513027041573e-11,2.1342079592427115e-11,1.6696897878331e-11,1.276505237749369e-11,9.523847078607273e-12,6.968839111406823e-12,4.991108934377881e-12,3.4955604124916122e-12,2.391255396618124e-12,1.5974702737042804e-12,1.03594538681764e-12,6.50016918342894e-13,3.936455886432718e-13,2.3105944958334277e-13,1.3242151905675415e-13,7.41586084440012e-14,4.053831568558801e-14,2.1822173235996612e-14,1.1381867768423843e-14,2.9967516882875875e-09,1.4212159957895406e-09,8.115784266540788e-10,5.205925799368364e-10,3.532476491151706e-10,2.46030220478953e-10,1.7365307109054809e-10,1.2230021794011783e-10,8.558938533284715e-11,5.895566748506761e-11,3.9625402907745553e-11,2.6210758466394144e-11,1.6933951782181612e-11,1.0677215559172102e-11,6.5875712627598485e-12,3.969597721266176e-12,2.34113487219133e-12,1.3575530434077305e-12,7.728637066516787e-13
0.0,22,22.0,0.0,30.0,0.0,0.0,0.0,0.0,-13.0,0.0,2.0,0.0,0.0,0.0,7.389344706639092e-11,6.727279099021848e-11,6.032267055687937e-11,5.3263926509860924e-11,4.61811938855587e-11,3.9421629275683234e-11,3.30859999000246e-11,2.7118821282114934e-11,2.1662730090576763e-11,1.693282292505785e-11,1.2930836987571297e-11,9.633431915207369e-12,7.0362957471097354e-12,5.0291892289408805e-12,3.5155495330780524e-12,2.401969826767061e-12,1.6044407740015662e-12,1.0416836572599342e-12,6.551166164048654e-13,3.9794188856528665e-13,2.343584988228033e-13,1.3474890098427137e-13,7.571452488140211e-14,4.150468640952761e-14,2.2401262300937474e-14,1.1682519883115227e-14,2.9708776700800208e-09,1.4182664023353182e-09,8.177739940573626e-10,5.282623602473512e-10,3.597571889773484e-10,2.5094174644711793e-10,1.772011268020114e-10,1.2479383542766847e-10,8.730042726504775e-11,6.010374072665068e-11,4.037097047210588e-11,2.6686963183551738e-11,1.723142516843833e-11,1.0856798029634771e-11,6.6904794559660584e-12,4.022718839812903e-12,2.3646834474728945e-12,1.3659946122030746e-12,7.753229512960141e-13
0.0,23,23.0,0.0,30.0,0.0,0.0,0.0,0.0,-13.0,0.0,2.0,0.0,0.0,0.0,7.527407739339493e-11,6.851607863987565e-11,6.142316057214661e-11,5.4218199959486855e-11,4.6990162989364746e-11,4.0093907163789846e-11,3.363287627039052e-11,2.7550216111637084e-11,2.1991542125265962e-11,1.717565266652274e-11,1.3102773046723709e-11,9.748604219469052e-12,7.108574367681634e-12,5.070901287601643e-12,3.5376837535851984e-12,2.4134336076313666e-12,1.6112117242434712e-12,1.0468032731312922e-12,6.595708938222089e-13,4.017451452922016e-13,2.373401664995489e-13,1.3689236727758467e-13,7.716980026467524e-14,4.2424513834824005e-14,2.2955868709863197e-14,1.1975412713791514e-14,2.9457032352150114e-09,1.4163968094362322e-09,8.247343959710707e-10,5.363856573050379e-10,3.665367312134452e-10,2.5602250776674953e-10,1.8085842043440398e-10,1.273581030290513e-10,8.905604414907656e-11,6.127896897563371e-11,4.113207988601601e-11,2.7171385102547354e-11,1.75332066319563e-11,1.1039367862969297e-11,6.7965037432526745e-12,4.079128998981848e-12,2.3909953962307455e-12,1.376160760707761e-12,7.785742264811683e-13
0.0,24,24.0,0.0,30.0,0.0,0.0,0.0,0.0,-13.0,0.0,2.0,0.0,0.0,0.0,7.669169991538067e-11,6.979183192592548e-11,6.25516464857777e-11,5.5196090091475105e-11,4.781860615913811e-11,4.078197031657369e-11,3.419235122575003e-11,2.7991517581881312e-11,2.23281465073094e-11,1.7424834630997306e-11,1.3280182502828181e-11,9.868694720365912e-12,7.185184680614112e-12,5.1160461849154225e-12,3.5620410128645445e-12,2.4258801354265593e-12,1.6180329396063266e-12,1.0514900259882577e-12,6.634880640926183e-13,4.051072686637879e-13,2.40026502041003e-13,1.3886017732753955e-13,7.8526676005014e-14,4.3297563138501034e-14,2.3485514674837185e-14,1.2261036650338518e-14,2.921357327023227e-09,1.415674030085437e-09,8.324843725950421e-10,5.449738777813586e-10,3.735941685080811e-10,2.61278366593824e-10,1.8462901808562687e-10,1.2999575463187012e-10,9.08580635688191e-11,6.248258141308508e-11,4.1909613274118585e-11,2.7664616428583472e-11,1.78394690534772e-11,1.1224589072426045e-11,6.904973825924246e-12,4.13817829637361e-12,2.419695427735598e-12,1.3879557547888628e-12,7.826487093728436e-13
0.0,25,25.0,0.0,30.0,0.0,0.0,0.0,0.0,-13.0,0.0,2.0,0.0,0.0,0.0,7.814737292054116e-11,7.110094818548284e-11,6.37088629947874e-11,5.619816639382069e-11,4.866693211750619e-11,4.1486073685821396e-11,3.476453205912877e-11,2.8442680267454036e-11,2.2672333490893097e-11,1.7679991795860403e-11,1.346255024737602e-11,9.993143004816441e-12,7.2656630924604734e-12,5.164377347965045e-12,3.5886169527164708e-12,2.4394688936191704e-12,1.6251092921118545e-12,1.0559109523016689e-12,6.669716216318604e-13,4.0808025241857797e-13,2.4244031529562647e-13,1.4066126165239794e-13,7.978800497799265e-14,4.412385530353057e-14,2.3990081904141165e-14,1.2539532618197047e-14,2.8979752101171345e-09,1.4161651321994248e-09,8.410483476355989e-10,5.540386845801278e-10,3.809377462010973e-10,2.6671540190466997e-10,1.885170827939805e-10,1.3270955401873498e-10,9.270831134530322e-11,6.371577732156469e-11,4.2704407351140894e-11,2.8167246517200534e-11,1.815049196895411e-11,1.1412331214736595e-11,7.015424088358969e-12,4.1993281145204025e-12,2.450419288364109e-12,1.4012494905343907e-12,7.875472067659594e-13
0.0,26,26.0,0.0,30.0,0.0,0.0,0.0,0.0,-13.0,0.0,2.0,0.0,0.0,0.0,7.964221788617763e-11,7.244438433264045e-11,6.489560249540872e-11,5.722505635956048e-11,4.953561086523803e-11,4.2206539991562313e-11,3.5349604568711535e-11,2.8903753614609574e-11,2.3024009832204406e-11,1.7940882875357295e-11,1.3649498505559154e-11,1.0121494884266115e-11,7.349591416809136e-12,5.215628298545019e-12,3.6173476632943228e-12,2.4542968082578595e-12,1.6326031882889691e-12,1.0602132077255565e-12,6.701189999151795e-13,4.107155543013651e-13,2.4460492867534633e-13,1.4230508836197836e-13,8.095715299318066e-14,4.490365329461683e-14,2.446975405399268e-14,1.2810752381799757e-14,2.8756982860532644e-09,1.4179372286537415e-09,8.504504563634451e-10,5.635920757350856e-10,3.885761062739515e-10,2.7233993205145766e-10,1.9252689073652532e-10,1.3550230540974746e-10,9.460861896841695e-11,6.49797359057728e-11,4.3517259167046116e-11,2.867984199588192e-11,1.8466606565237403e-11,1.1602604326614528e-11,7.1275552535280655e-12,4.262149879450178e-12,2.482830581150782e-12,1.4158917309299034e-12,7.932468603348003e-13
0.0,27,27.0,0.0,30.0,0.0,0.0,0.0,0.0,-13.0,0.0,2.0,0.0,0.0,0.0,8.117741103759127e-11,7.38231468680147e-11,6.611270319345163e-11,5.827743127607281e-11,5.042515668668154e-11,4.294373949676365e-11,3.594780900792679e-11,2.937485330512733e-11,2.338316594659524e-11,1.8207369107445845e-11,1.3840761333280912e-11,1.0253393276838522e-11,7.436606127547335e-12,5.269532820984769e-12,3.6481291551862714e-12,2.4704096581629216e-12,1.6406381065636185e-12,1.0645236592710196e-12,6.730205437344653e-13,4.130634923176383e-13,2.465439445281264e-13,1.4380154995968945e-13,8.203791085068878e-14,4.5637452510190413e-14,2.492495455664269e-14,1.3074341902184495e-14,2.854673846576312e-09,1.4210572650310474e-09,8.607145904552198e-10,5.736464695209565e-10,3.9651833157978205e-10,2.7815853694842133e-10,1.966628476301061e-10,1.3837686503060776e-10,9.656083134217774e-11,6.627562480854077e-11,4.434893407823551e-11,2.9202939787216296e-11,1.8788161293521443e-11,1.179550905465282e-11,7.2411977000990256e-12,4.326316777398255e-12,2.516631091935119e-12,1.4317239054100275e-12,7.997072197261644e-13
0.0,28,28.0,0.0,30.0,0.0,0.0,0.0,0.0,-13.0,0.0,2.0,0.0,0.0,0.0,8.275417931497394e-11,7.523828666770719e-11,6.73610424423527e-11,5.935599777594494e-11,5.133611751812769e-11,4.3698076808333266e-11,3.6559423797725574e-11,2.985614107633692e-11,2.3749851508525473e-11,1.84793876072521e-11,1.4036161331536984e-11,1.0388565863453938e-11,7.526400886117722e-12,5.325838686397744e-12,3.68083334657017e-12,2.487812935102123e-12,1.6493028395933155e-12,1.0689491280580884e-12,6.757587236903533e-13,4.1517267380363906e-13,2.4828101983441895e-13,1.451608639063682e-13,8.303441647056501e-14,4.632597340983533e-14,2.5356285511752723e-14,1.3329829730395868e-14,2.8350547612130618e-09,1.4255918095562764e-09,8.718644612758785e-10,5.842147950651059e-10,4.047739898078884e-10,2.841780797435259e-10,2.0092950491668763e-10,1.4133615303278832e-10,9.856681478697436e-11,6.760460761159196e-11,4.520017387205925e-11,2.9737047195973744e-11,1.9115501940477517e-11,1.1991200133431062e-11,7.356278904318204e-12,4.3915914945808425e-12,2.551565894196569e-12,1.448588398138423e-12,8.068755839263197e-13
0.0,29,29.0,0.0,30.0,0.0,0.0,0.0,0.0,-13.0,0.0,2.0,0.0,0.0,0.0,8.437379909191255e-11,7.669089679828124e-11,6.864153345137673e-11,6.04614931897598e-11,5.226906862753289e-11,4.446998257097108e-11,3.7184754801850454e-11,3.034781084793182e-11,2.4124157791485464e-11,1.8756930694287078e-11,1.4235589577175387e-11,1.0526811745985981e-11,7.6187246040061e-12,5.3843161655823715e-12,3.715320655954519e-12,2.5064817361788825e-12,1.658656114724439e-12,1.0735771850627127e-12,6.784076058687534e-13,4.170894752822965e-13,2.4983964509255444e-13,1.463934816378577e-13,8.395108612265081e-14,4.69701544943169e-14,2.5764471938082877e-14,1.3576707705825722e-14,2.816999097197305e-09,1.4316068506765885e-09,8.839236832862747e-10,5.953105877756344e-10,4.133531768062617e-10,2.90405727940204e-10,2.053315755372603e-10,1.4438316529262888e-10,1.0062846509814036e-10,6.896785059649141e-11,4.6071704202271144e-11,3.02826454611432e-11,1.944896136227521e-11,1.2189860817038075e-11,7.472796090959471e-12,4.457812270586447e-12,2.5874244936924886e-12,1.4663354466791808e-12,8.146915762844427e-13
0.0,30,30.0,0.0,30.0,0.0,0.0,0.0,0.0,-13.0,0.0,2.0,0.0,0.0,0.0,8.603759656670233e-11,7.818211219466697e-11,6.995512410511491e-11,6.159468333907059e-11,5.322460914034173e-11,4.525990848714603e-11,3.782412849683742e-11,3.0850079431598166e-11,2.4506205199866134e-11,1.904003030892766e-11,1.4438989049209676e-11,1.0667988520479004e-11,7.713376810305127e-12,5.444762524013624e-12,3.7514494906402355e-12,2.526369438744332e-12,1.668731312547362e-12,1.0784773858272796e-12,6.810325745797661e-13,4.1885758931728346e-13,2.5124292794909535e-13,1.4751000220338627e-13,8.479255354475003e-14,4.757114421739787e-14,2.6150314200308118e-14,1.3814496392003236e-14,2.8006696711972074e-09,1.4391676086991307e-09,8.969158791736149e-10,6.069480888964105e-10,4.222665590247529e-10,2.9684897402402107e-10,2.0987394924106994e-10,1.4752098480327357e-10,1.0274771543912505e-10,7.036652894608048e-11,4.696424109754027e-11,3.084019467679878e-11,1.9788855356198737e-11,1.2391685839269249e-11,7.590794265943154e-12,4.524878860450625e-12,2.6240391580437164e-12,1.4848278987138754e-12,8.23090962537517e-13
0.0,31,31.0,0.0,30.0,0.0,0.0,0.0,0.0,-13.0,0.0,2.0,0.0,0.0,0.0,8.774694914697112e-11,7.971311045356585e-11,7.130279706686435e-11,6.275636185090481e-11,5.4203360394133996e-11,4.606832454368889e-11,3.847788780736293e-11,3.1363180492891565e-11,2.4896134684073097e-11,1.9328746566962148e-11,1.4646341401240765e-11,1.0812000571261535e-11,7.810201637662535e-12,5.507003569106727e-12,3.789083034394864e-12,2.5474150474907456e-12,1.6795410595300542e-12,1.0837028256141018e-12,6.836902929433698e-13,4.2051765088988783e-13,2.5251338461925934e-13,1.4852108815291246e-13,8.556361567966558e-14,4.813029085446441e-14,2.6514650051984527e-14,1.4042792056349161e-14,2.7862335341183375e-09,1.4483383687918295e-09,9.108648080929648e-10,6.191423484629204e-10,4.3152541497449043e-10,3.0351565572395616e-10,2.1456170746296018e-10,1.507527925210395e-10,1.0492654389065977e-10,7.180183248003852e-11,4.787849656800623e-11,3.1410138943057786e-11,2.0135482199910355e-11,1.2596870725032655e-11,7.710349257459544e-12,4.592739425174549e-12,2.661281405387645e-12,1.5039441420632985e-12,8.320087497077289e-13
0.0,32,32.0,0.0,30.0,0.0,0.0,0.0,0.0,-13.0,0.0,2.0,0.0,0.0,0.0,8.950328741500439e-11,8.12851132778412e-11,7.26855706388662e-11,6.394735039209752e-11,5.520596543501146e-11,4.6895717665313306e-11,3.914638972386164e-11,3.188736076964355e-11,2.5294101986161766e-11,1.9623159559204723e-11,1.485765670578393e-11,1.0958788964644246e-11,7.909081348462699e-12,5.570893155081013e-12,3.8280937843005145e-12,2.569549210692683e-12,1.6910815284144636e-12,1.0892919013053455e-12,6.864288759962971e-13,4.2210695118405034e-13,2.53672743495862e-13,1.4943738259759641e-13,8.626918384063912e-14,4.8649129783679583e-14,2.6858326589410293e-14,1.4261295284157386e-14,2.7738613924061947e-09,1.4591823434466532e-09,9.257945180765405e-10,6.319093308777742e-10,4.411416757214945e-10,3.104139760968135e-10,2.1940013784919091e-10,1.5408187763243212e-10,1.0716698054348159e-10,7.32749709641873e-11,4.8815183425737826e-11,3.1992911187883334e-11,2.048912420379088e-11,1.2805605639743155e-11,7.831555112286291e-12,4.6613789252440016e-12,2.699057436365168e-12,1.5235795462771089e-12,8.413816213507504e-13
0.0,33,33.0,0.0,30.0,0.0,0.0,0.0,0.0,-13.0,0.0,2.0,0.0,0.0,0.0,9.130809743373184e-11,8.289938829384494e-11,7.410450005498937e-11,6.516849944140984e-11,5.6233089204445885e-11,4.774259126550337e-11,3.9830004082983007e-11,3.242287782112305e-11,2.570027390032395e-11,1.992336362071015e-11,1.5072965705799818e-11,1.1108323038468536e-11,8.0099300072835e-12,5.636311374586262e-12,3.8683662853038075e-12,2.592698978887144e-12,1.703336334200231e-12,1.0952701776853055e-12,6.892882442072947e-13,4.2365924184087104e-13,2.5474176574214334e-13,1.502694274121722e-13,8.691423928295259e-14,4.912936801408147e-14,2.7182181542004195e-14,1.446982347220451e-14,2.7637269718012584e-09,1.4717615731619288e-09,9.417295232206583e-10,6.452660222680248e-10,4.511279645450256e-10,3.1755252366611303e-10,2.2439474853423482e-10,1.5751164727564153e-10,1.0947111408758282e-10,7.478717900943259e-11,4.9775019448269196e-11,3.258893743221692e-11,2.08500502178862e-11,1.3018072347687942e-11,7.954515093124287e-12,4.730809267776433e-12,2.7373031089308278e-12,1.543646745781348e-12,8.511497747309735e-13
0.0,34,34.0,0.0,30.0,0.0,0.0,0.0,0.0,-13.0,0.0,2.0,0.0,0.0,0.0,9.316292326116531e-11,8.455725108265218e-11,7.55606790139859e-11,6.642068936514597e-11,5.728541912890672e-11,4.860946534418088e-11,4.052911308627738e-11,3.296999879131989e-11,2.611482593512323e-11,2.022946343066976e-11,1.5292314100610454e-11,1.1260593610983329e-11,8.112687663865861e-12,5.703161998287196e-12,3.909798478307834e-12,2.6167914282785633e-12,1.7162799608712347e-12,1.1016522709863377e-12,6.923006216920517e-13,4.2520462827715654e-13,2.557400873310141e-13,1.5102758330760607e-13,8.750379237325043e-14,4.957286609987504e-14,2.7487032736669264e-14,1.46683105990928e-14,2.7560063324201984e-09,1.4861368745734644e-09,9.586950057092002e-10,6.592305387460981e-10,4.614976359965352e-10,3.249402928739619e-10,2.295512822766256e-10,1.61045635789846e-10,1.1184109790459924e-10,7.633972057269365e-11,5.075873099884323e-11,3.319864044823978e-11,2.1218518451145346e-11,1.3234443202290634e-11,8.079335533329397e-12,4.801061237173463e-12,2.775978889773612e-12,1.5640750664474451e-12,8.61258230508396e-13
0.0,35,35.0,0.0,30.0,0.0,0.0,0.0,0.0,-13.0,0.0,2.0,0.0,0.0,0.0,9.506936960598232e-11,8.626006733966855e-11,7.705524134552113e-11,6.77048316584995e-11,5.836366593497862e-11,4.949687690631068e-11,4.124411127275997e-11,3.352899982673446e-11,2.6537940928513407e-11,2.0541571436843888e-11,1.551575843110022e-11,1.141560763844976e-11,8.217315234670197e-12,5.771369574885329e-12,3.952302027132413e-12,2.6417562977036845e-12,1.7298806929452335e-12,1.1084436795719827e-12,6.954911425968883e-13,4.2676954688919647e-13,2.566860861643708e-13,1.5172195298153097e-13,8.804284477423414e-14,4.9981617806244103e-14,2.7773674237471757e-14,1.4856798027222007e-14,2.7508771473357607e-09,1.5023678454952337e-09,9.767170420927202e-10,6.738222346899375e-10,4.722648146954788e-10,3.3258670511696183e-10,2.348757305574623e-10,1.6468751358574012e-10,1.1427915570859816e-10,7.793389307892619e-11,5.176705619523465e-11,3.382244284643349e-11,2.159477923910957e-11,1.3454881387878658e-11,8.206121877806787e-12,4.8721781003706606e-12,2.8150650762014916e-12,1.584809358428155e-12,8.716576870479509e-13
0.0,36,36.0,0.0,30.0,0.0,0.0,0.0,0.0,-13.0,0.0,2.0,0.0,0.0,0.0,9.702910459436994e-11,8.800925512086562e-11,7.858936275282717e-11,6.902187027603292e-11,5.946856458512411e-11,5.040538056036761e-11,4.1975405759581096e-11,3.410016590385196e-11,2.6969808294561967e-11,2.0859806216030564e-11,1.5743363188310737e-11,1.1573384110325882e-11,8.323790149351947e-12,5.840876479523665e-12,3.995801931435106e-12,2.6675277972677857e-12,1.7441030560744171e-12,1.1156425086998288e-12,6.988785305131235e-13,4.2837681805376613e-13,2.5759677679301585e-13,1.5236230878321136e-13,8.853635427435014e-14,5.035772803987964e-14,2.8042877534572866e-14,1.5035419889985397e-14,2.748517960462039e-09,1.5205129362572143e-09,9.958228525355802e-10,6.890618102001889e-10,4.834444342936214e-10,3.405016306364069e-10,2.403743477350214e-10,1.684410957382828e-10,1.1678758680510002e-10,7.957103119332794e-11,5.2800747699940633e-11,3.446076966182446e-11,2.1979077574820278e-11,1.3679541868575814e-11,8.334976339155065e-12,4.944210700475847e-12,2.854557469909377e-12,1.6058084547671983e-12,8.823049905380624e-13
0.0,37,37.0,0.0,30.0,0.0,0.0,0.0,0.0,-13.0,0.0,2.0,0.0,0.0,0.0,9.90438626387158e-11,8.980628715900439e-11,8.016426260647531e-11,7.037278301223092e-11,6.060087527542925e-11,5.133554921173338e-11,4.272341663274601e-11,3.4683790903451596e-11,2.7410623677398198e-11,2.1184291480307625e-11,1.5975198834987523e-11,1.173395096453378e-11,8.432102749499615e-12,5.911640098989763e-12,4.040235673800555e-12,2.694045743622087e-12,1.7589097927608837e-12,1.1232410522737783e-12,7.024758187910939e-13,4.300457648324829e-13,2.5848773403648375e-13,1.529580263541001e-13,8.898920207493371e-14,5.070338963833364e-14,2.8295396188820092e-14,1.5204386075366285e-14,2.7491074434387466e-09,1.5406295962830883e-09,1.016041070998976e-09,7.04971416995885e-10,4.950522771277669e-10,3.486954115200897e-10,2.4605366533667557e-10,1.7231035040301155e-10,1.1936877105116414e-10,8.125251028177606e-11,5.3860575190392844e-11,3.5114050517921654e-11,2.2371655327026855e-11,1.3908572679440795e-11,8.465996704848611e-12,5.017213818872738e-12,2.8944635977552812e-12,1.6270434320915263e-12,8.931632893742662e-13
0.0,38,38.0,0.0,30.0,0.0,0.0,0.0,0.0,-13.0,0.0,2.0,0.0,0.0,0.0,1.0111544740920342e-10,9.165269324700209e-11,8.178120578124746e-11,7.175858291525384e-11,6.176138446516807e-11,5.228797480228964e-11,4.348857741528677e-11,3.5280177826170094e-11,2.786058885898467e-11,2.1515155517399197e-11,1.621134049251194e-11,1.1897342819072626e-11,8.542253380022623e-12,5.983630265919256e-12,4.085552094200563e-12,2.7212561654841428e-12,1.7742634137432029e-12,1.1312272086165833e-12,7.062910836793833e-13,4.3179238613565836e-13,2.5937304560622977e-13,1.5351802557235333e-13,8.940616249066519e-14,5.10208596351875e-14,2.8531972481966887e-14,1.5363965115096645e-14,2.7528236752218874e-09,1.56277450397091e-09,1.0374020335843824e-09,7.215747621836836e-10,5.071050151578259e-10,3.5717888604943463e-10,2.5192050655729036e-10,1.7629940715372632e-10,1.2202517360371564e-10,8.297974960361657e-11,5.494732755816838e-11,3.578272144255306e-11,2.2772753132902407e-11,1.414211632634597e-11,8.599275931776151e-12,5.091243581250331e-12,2.9347995114855984e-12,1.6484958094669382e-12,9.042019371511748e-13
0.0,39,39.0,0.0,30.0,0.0,0.0,0.0,0.0,-13.0,0.0,2.0,0.0,0.0,0.0,1.0324573491426757e-10,9.355006269288995e-11,8.344150453762435e-11,7.318031972954603e-11,6.295090592494792e-11,5.326326907012867e-11,4.427133557008988e-11,3.588963908290266e-11,2.8319911818401334e-11,2.1852530914363156e-11,1.6451867101455195e-11,1.2063599340330537e-11,8.654250089527055e-12,6.056826998299068e-12,4.1317101364703904e-12,2.749111506823611e-12,1.7901273739781953e-12,1.1395857191827588e-12,7.103281668252131e-13,4.3362957270262974e-13,2.602652927595141e-13,1.5405071989056061e-13,8.979187512173373e-14,5.1312435597948325e-14,2.8753344835177297e-14,1.5514468563848248e-14,2.7598434720503225e-09,1.5870038865713818e-09,1.059938081569411e-09,7.388972095847169e-10,5.196202528466884e-10,3.6596341459291543e-10,2.5798200102388586e-10,1.8041256533425937e-10,1.2475934954144585e-10,8.475421528356294e-11,5.60618148797286e-11,3.646722640078082e-11,2.3182611986013242e-11,1.4380311153929079e-11,8.734902252531943e-12,5.166355696359291e-12,2.9755871545186112e-12,1.670155785797965e-12,9.153962034212499e-13
0.0,40,40.0,0.0,30.0,0.0,0.0,0.0,0.0,-13.0,0.0,2.0,0.0,0.0,0.0,1.0543667669790472e-10,9.550004685456098e-11,8.514652045430232e-11,7.46390813695743e-11,6.4170281799749e-11,5.4262064316995674e-11,4.507215301362327e-11,3.6512496819840236e-11,2.878880687627039e-11,2.2196554459607184e-11,1.6696860910971447e-11,1.223276409642967e-11,8.768106847542558e-12,6.1312185614589384e-12,4.178677570447462e-12,2.777570536747682e-12,1.806466925660022e-12,1.1482992286718713e-12,7.145873684360466e-13,4.3556735447325307e-13,2.6117555711307387e-13,1.545639748530025e-13,9.015081961854972e-14,5.158043258338407e-14,2.896025500552817e-14,1.5656237792871173e-14,2.7703417991330137e-09,1.6133739348658241e-09,1.083683875085718e-09,7.56965878626482e-10,5.326165726738837e-10,3.750609072074114e-10,2.642455998811016e-10,1.846543025114667e-10,1.275739484396697e-10,8.657742310907309e-11,5.720487019669312e-11,3.7168018600148084e-11,2.360147455568127e-11,1.4623292604285947e-11,8.872959591165207e-12,5.24260433949519e-12,3.0168522555831804e-12,1.6920205856944701e-12,9.267268453970206e-13
0.0,41,41.0,0.0,30.0,0.0,0.0,0.0,0.0,-13.0,0.0,2.0,0.0,0.0,0.0,1.076903031626363e-10,9.750436176452221e-11,8.689766642045529e-11,7.613599543012067e-11,6.542038368817724e-11,5.5285014179004186e-11,4.5891506628612985e-11,3.714908325508235e-11,2.926749488268853e-11,2.2547367151899177e-11,1.6946407190285223e-11,1.2404883771846031e-11,8.883842187943305e-12,6.206799843927587e-12,4.226429760116249e-12,2.8065980564111496e-12,1.8232497006046656e-12,1.1573491722750433e-12,7.190660970152517e-13,4.3761316861687365e-13,2.6211345105245995e-13,1.5506507624928196e-13,9.048729318670051e-14,5.182716118215505e-14,2.91534543240583e-14,1.57896335808897e-14,2.784491298495567e-09,1.6419413150214266e-09,1.1086767129846945e-09,7.758097411979852e-10,5.461135839789267e-10,3.8448385306596297e-10,2.707190912524822e-10,1.8902928311111788e-10,1.3047171896886563e-10,8.845094119686995e-11,5.837735114022527e-11,3.788556161437521e-11,2.4029586278671006e-11,1.4871194330678698e-11,9.013528144768282e-12,5.320041520143608e-12,3.058622692642753e-12,1.7140929586091972e-12,9.381795872524556e-13
0.0,42,42.0,0.0,30.0,0.0,0.0,0.0,0.0,-13.0,0.0,2.0,0.0,0.0,0.0,1.1000872702738501e-10,9.956479085612842e-11,8.869640869735301e-11,7.767223073971038e-11,6.67021137415407e-11,5.633279440050042e-11,4.672988877079618e-11,3.779974101469378e-11,2.975620342369361e-11,2.290511426921579e-11,1.7200594085382675e-11,1.2580007645150293e-11,9.00147819521752e-12,6.283571022826886e-12,4.274948521998462e-12,2.8361644755066195e-12,1.8404460716576003e-12,1.166716500994105e-12,7.23759465833284e-13,4.3977213851173794e-13,2.630871686910283e-13,1.5556070803443204e-13,9.080539097762735e-14,5.205490704027443e-14,2.9333708479757694e-14,1.5915028478490674e-14,2.8024619695865583e-09,1.672763777078236e-09,1.1349568542836623e-09,7.954597173080123e-10,5.601319757962929e-10,3.942453517873996e-10,2.774106161397462e-10,1.9354236731307898e-10,1.3345551357736285e-10,9.037639256806092e-11,5.958014143112369e-11,3.862033036379957e-11,2.44671962631656e-11,1.512414915663943e-11,9.1566850327102e-12,5.398716801212897e-12,3.100927263000658e-12,1.7363798560201834e-12,9.497445468749766e-13
0.0,43,43.0,0.0,30.0,0.0,0.0,0.0,0.0,-13.0,0.0,2.0,0.0,0.0,0.0,1.1239414693012429e-10,1.0168318780379411e-10,9.054426905908487e-11,7.924899896383702e-11,6.801640578710546e-11,5.740610361312578e-11,4.758780776891336e-11,3.8464823462813363e-11,3.025516703223561e-11,2.326994546725727e-11,1.7459512566830817e-11,1.2758187253951676e-11,9.121039760482609e-12,6.361536486163328e-12,4.324221098290102e-12,2.866245314833514e-12,1.8580293384654e-12,1.1763822593916816e-12,7.286608300456716e-13,4.420473552050117e-13,2.64103554050458e-13,1.560569398429822e-13,9.110898948557895e-14,5.226591215691356e-14,2.950180056996833e-14,1.603280165001899e-14,2.8244210400772894e-09,1.7059008561855075e-09,1.1625678367558046e-09,8.159487708539907e-10,5.746935742674253e-10,4.043591467048647e-10,2.843286848362781e-10,1.9819862027670898e-10,1.3652829330747677e-10,9.235545766641059e-11,6.081415228446501e-11,3.937281198436428e-11,2.4914558041193668e-11,1.5382289886252407e-11,9.302504949465518e-12,5.478677263604925e-12,3.1437947941997205e-12,1.7588912960096936e-12,9.614156430819491e-13
0.0,44,44.0,0.0,30.0,0.0,0.0,0.0,0.0,-13.0,0.0,2.0,0.0,0.0,0.0,1.1484885118608241e-10,1.0386147949064594e-10,9.244282702184274e-11,8.086755626417083e-11,6.936422647982205e-11,5.85056641230851e-11,4.8465788419274776e-11,3.914469502442434e-11,3.0764627396613744e-11,2.3642014889127947e-11,1.7723256431683916e-11,1.2939476189686829e-11,9.24255404538278e-12,6.440703976226518e-12,4.374239254890894e-12,2.896820677492141e-12,1.8759757777133954e-12,1.1863280320645442e-12,7.33762261552702e-13,4.4444015422383377e-13,2.651681830299563e-13,1.5655922366028426e-13,9.140173303056913e-14,5.24623581711575e-14,2.965853231945309e-14,1.6143335742642545e-14,2.850533063373985e-09,1.7414146591035572e-09,1.191556788783514e-09,8.373120072669204e-10,5.898214050949187e-10,4.1483966008152033e-10,2.914821939516802e-10,2.030033217613185e-10,1.3969313278298206e-10,9.438987684936471e-11,6.20803237449609e-11,4.014350661157853e-11,2.537193020077976e-11,1.5645749979649794e-11,9.451060781919771e-12,5.559967633314337e-12,3.1872535332114742e-12,1.7816394131939346e-12,9.73190009670092e-13
0.0,45,45.0,0.0,30.0,0.0,0.0,0.0,0.0,-13.0,0.0,2.0,0.0,0.0,0.0,1.1737522171353612e-10,1.0610166911797432e-10,9.439372217060943e-11,8.252920501919063e-11,7.0746576486367e-11,5.96322227099338e-11,4.93643724772701e-11,3.983973150161572e-11,3.128483356364126e-11,2.4021481275501764e-11,1.7991922334869533e-11,1.3123929979897422e-11,9.366050103022255e-12,6.521083918579029e-12,4.424998504496468e-12,2.9278747195230332e-12,1.8942645923270232e-12,1.1965362758852397e-12,7.390549612947754e-13,4.4695038196666183e-13,2.6628545577703765e-13,1.5707239899732482e-13,9.168702335643887e-14,5.2646351769601714e-14,2.980472351693503e-14,1.624701527216736e-14,2.880960276289899e-09,1.7793707248438629e-09,1.2219747315815036e-09,8.595867752023502e-10,6.055397613437115e-10,4.257020302677672e-10,2.9888044416984125e-10,2.0796197619929498e-10,1.4295322539465255e-10,9.648145287693963e-11,6.337962597656853e-11,4.093292810136943e-11,2.5839576924035784e-11,1.5914664111396055e-11,9.602424169697296e-12,5.642630508305561e-12,3.231330756865701e-12,1.8046376839689444e-12,9.850674364069211e-13
0.0,46,46.0,0.0,30.0,0.0,0.0,0.0,0.0,-13.0,0.0,2.0,0.0,0.0,0.0,1.1997573814071797e-10,1.0840583947156522e-10,9.639865659124179e-11,8.423529561085872e-11,7.216449170480084e-11,6.078655144022801e-11,5.028411914859331e-11,4.055032038527908e-11,3.1816042136318476e-11,2.4408508069691344e-11,1.826560983432586e-11,1.3311606027447145e-11,9.49155861517629e-12,6.6026889035036905e-12,4.476497448397613e-12,2.9593951412512093e-12,1.912877788567259e-12,1.2069905549125796e-12,7.445296107124032e-13,4.495766472144099e-13,2.674586962372174e-13,1.5760070574865103e-13,9.196801231859684e-14,5.28199122739703e-14,2.994120982740541e-14,1.634422602519711e-14,2.9158632447519924e-09,1.819838944934375e-09,1.2538768703238227e-09,8.828127747482206e-10,6.218742767042484e-10,4.3696215080004766e-10,3.065331588910053e-10,2.13080323270512e-10,1.4631188870024301e-10,9.863205341989836e-11,6.471306052734126e-11,4.1741604705889915e-11,2.631776845270877e-11,1.6189168630237774e-11,9.756665999153364e-12,5.7267066390266685e-12,3.2760525532916338e-12,1.8279003118453513e-12,9.970498513592847e-13
0.0,47,47.0,0.0,30.0,0.0,0.0,0.0,0.0,-13.0,0.0,2.0,0.0,0.0,0.0,1.226529821088528e-10,1.1077615636031368e-10,9.845939741481289e-11,8.59872282811416e-11,7.361904452265132e-11,6.196944849931221e-11,5.122560558300129e-11,4.127686116461373e-11,3.2358517467149665e-11,2.480326351525511e-11,1.8544421440357988e-11,1.3502563585200658e-11,9.619111713844154e-12,6.685533290311429e-12,4.528737226729525e-12,2.9913727130231654e-12,1.9318000046938553e-12,1.2176756940789877e-12,7.501766656141509e-13,4.523165545157794e-13,2.686902559140436e-13,1.581478037967839e-13,9.224759758092648e-14,5.2984961405259066e-14,3.006883921450192e-14,1.643535503284858e-14,2.9554018171293745e-09,1.862894526038749e-09,1.287322874542644e-09,9.070321747661479e-10,6.388520041309749e-10,4.4863671146991524e-10,3.1445050393512254e-10,2.183643490157787e-10,1.497725700464067e-10,1.008436136059556e-10,6.608166158798773e-11,4.2570079718981584e-11,2.6806781498523297e-11,1.6469401937850198e-11,9.913856829601721e-12,5.812235229791192e-12,3.3214437314748865e-12,1.8514417546855862e-12,1.0091408538949556e-12
0.0,48,48.0,0.0,30.0,0.0,0.0,0.0,0.0,-13.0,0.0,2.0,0.0,0.0,0.0,1.2540964178758867e-10,1.1321487224224326e-10,1.0057777947974344e-10,8.778645506147496e-11,7.511134511589664e-11,6.318173904446351e-11,5.218942737330824e-11,4.201976563684108e-11,3.291253184886224e-11,2.52059207457212e-11,1.8828462663895772e-11,1.3696863751502219e-11,9.748742862649971e-12,6.7696329089321525e-12,4.581721064938365e-12,3.0238008432034477e-12,1.9510183100958372e-12,1.2285778665371983e-12,7.559865967508268e-13,4.551669172903682e-13,2.699816191851917e-13,1.5871679835693004e-13,9.252842119035887e-14,5.3143315168531913e-14,3.018846725267312e-14,1.6520790752861097e-14,2.999736393774762e-09,1.9086189759504165e-09,1.3223771503108225e-09,9.322897419279185e-10,6.565014995824967e-10,4.6074324144483184e-10,3.2264310850459987e-10,2.2382029751431386e-10,1.533388524132555e-10,1.0311813862108478e-10,6.748649726009286e-11,4.3418912103004216e-11,2.7306899612122523e-11,1.675550480252116e-11,1.0074067255253276e-11,5.8992542387454246e-12,3.3675278232794828e-12,1.8752763744200575e-12,1.0213453033651937e-12
0.0,49,49.0,0.0,30.0,0.0,0.0,0.0,0.0,-13.0,0.0,2.0,0.0,0.0,0.0,1.282485166197678e-10,1.1572433005192491e-10,1.0275570811575881e-10,8.963448177772807e-11,7.664254279119596e-11,6.442427608259048e-11,5.317619906214076e-11,4.277945821933933e-11,3.347836570446092e-11,2.5616657867120134e-11,1.9117842061111253e-11,1.3894569476788387e-11,9.88048677969538e-12,6.855004837276596e-12,4.6354539036217374e-12,3.0566751919657283e-12,1.9705219895826286e-12,1.239684628061031e-12,7.619500820564485e-13,4.581239494398059e-13,2.713335078718194e-13,1.5931027002943072e-13,9.281287085215226e-14,5.3296677760772196e-14,3.0300951629322e-14,1.6600923188355827e-14,3.0490295079869284e-09,1.957101093761045e-09,1.3591091090081183e-09,9.586329837238332e-10,6.748529104504311e-10,4.73300154596492e-10,3.3112208761435253e-10,2.2945468313635006e-10,1.5701446047833608e-10,1.0545770638222583e-10,6.892867084738616e-11,4.4288677106090555e-11,2.781841352146754e-11,1.7047620621646898e-11,1.0237368209085183e-11,5.987800662148503e-12,3.4143271490676645e-12,1.899418189857836e-12,1.0336689649145925e-12
0.0,50,50.0,0.0,30.0,0.0,0.0,0.0,0.0,-13.0,0.0,2.0,0.0,0.0,0.0,1.3117252231228782e-10,1.1830696724113167e-10,1.0499516205220898e-10,9.153287013291484e-11,7.821382737381367e-11,6.56979413756731e-11,5.4186554658796034e-11,4.3556376266108945e-11,3.405630777845204e-11,2.6035658034607213e-11,1.9412671273614223e-11,1.4095745575253194e-11,1.0014379388344197e-11,6.9416672366857205e-12,4.689942099199712e-12,3.0899933313111794e-12,1.9903023239280226e-12,1.2509849102860289e-12,7.680581558535157e-13,4.611834350532126e-13,2.7274598312335893e-13,1.5993030853603457e-13,9.310308369123164e-14,5.3446637372362317e-14,3.040714613587955e-14,1.6676143760959502e-14,3.1034476985682787e-09,2.008437946659989e-09,1.397593439662469e-09,9.86112307201726e-10,6.939380682100318e-10,4.863267972815527e-10,3.3989906619074506e-10,2.352743033682533e-10,1.6080326689625758e-10,1.0786447029750767e-10,7.040932218072917e-11,4.517996687654616e-11,2.834162144820332e-11,1.7345895644795697e-11,1.0403831216121546e-11,6.077910794643785e-12,3.461862924141994e-12,1.9238807141496587e-12,1.0461182110710144e-12
0.0,51,51.0,0.0,30.0,0.0,0.0,0.0,0.0,-13.0,0.0,2.0,0.0,0.0,0.0,1.3418469608848226e-10,1.2096532004125383e-10,1.0729819645198334e-10,9.348323986986688e-11,7.982643064400263e-11,6.700364637709233e-11,5.5221148168421903e-11,4.435097039016405e-11,3.4646655330826284e-11,2.646310952473599e-11,1.971306506449073e-11,1.430045873797009e-11,1.0150457786223791e-11,7.029639231226437e-12,4.745193183749337e-12,3.1237544496303283e-12,2.010352374743991e-12,1.2624689829442753e-12,7.743023204001747e-13,4.643408764446585e-13,2.7421854304428027e-13,1.605785491554644e-13,9.340095225538817e-14,5.359466372969021e-14,3.050789443068951e-14,1.6746844836722754e-14,3.163163638697095e-09,2.062735819621511e-09,1.4379103936481588e-09,1.0147811944820304e-09,7.137905848938204e-10,4.998434989111785e-10,3.4898620501467817e-10,2.4128625219604794e-10,1.6470929879345746e-10,1.1034066213009586e-10,7.19296289845957e-11,4.6093391079127443e-11,2.887682940865165e-11,1.7650479167073356e-11,1.0573528603882432e-11,6.1696204614902685e-12,3.5101553885346796e-12,1.9486768599947494e-12,1.058699775727887e-12
0.0,52,52.0,0.0,30.0,0.0,0.0,0.0,0.0,-13.0,0.0,2.0,0.0,0.0,0.0,1.372882022148666e-10,1.2370202795152453e-10,1.0966694607140263e-10,9.548727101632771e-11,8.148162782508247e-11,6.834233320184716e-11,5.628065413570539e-11,4.51637047931669e-11,3.524971433504332e-11,2.6899205805056548e-11,2.0019141351011754e-11,1.4508777545547426e-11,1.0288760225637381e-11,7.11894081957499e-12,4.801215673530856e-12,3.157959097778875e-12,2.0306667793000677e-12,1.274128393671585e-12,7.806746250370834e-13,4.675916212707817e-13,2.7575021483717775e-13,1.6125621093571906e-13,9.370813249579319e-14,5.3742107212365665e-14,3.0604023828181505e-14,1.681341886974787e-14,3.2283584717150087e-09,2.120111130216991e-09,1.4801460915714302e-09,1.0446963952712252e-09,7.344459532078117e-10,5.138716257228746e-10,3.5839622863640654e-10,2.474979340265085e-10,1.6873674448451268e-10,1.1288859498142138e-10,7.349080828975158e-11,4.70295775163096e-11,2.9424351504695874e-11,1.796152370068256e-11,1.0746533677403409e-11,6.262965221694302e-12,3.55922394714629e-12,1.9738188975571894e-12,1.0714205557900068e-12
0.0,53,53.0,0.0,30.0,0.0,0.0,0.0,0.0,-13.0,0.0,2.0,0.0,0.0,0.0,1.4048633781131296e-10,1.2651983845158787e-10,1.121036285463616e-10,9.754670621540018e-11,8.318073912699307e-11,6.971497563333798e-11,5.7365768205385726e-11,4.5995057603444625e-11,3.586579968085519e-11,2.7344145602756636e-11,2.0331021235078986e-11,1.4720772479456115e-11,1.042932610074948e-11,7.209592810736577e-12,4.858018917072176e-12,3.1926089728782796e-12,2.0512415589370465e-12,1.2859558924920992e-12,7.871677179281558e-13,4.709309698626572e-13,2.773396405605225e-13,1.6196413583931263e-13,9.402605344724887e-14,5.38901993701458e-14,3.069633933327434e-14,1.6876257180875552e-14,3.2992242938720502e-09,2.1806913086523173e-09,1.5243928621559603e-09,1.0759181358028415e-09,7.559416504877821e-10,5.284336382100588e-10,3.6814245532308006e-10,2.539170781258813e-10,1.7288996042620286e-10,1.1551066640827386e-10,7.509411789370209e-11,4.7989172756507284e-11,2.998451020880044e-11,1.8279185130936783e-11,1.092292086551658e-11,6.3579805429496345e-12,3.6090873109264205e-12,1.9993184520869003e-12,1.084287455058307e-12
0.0,54,54.0,0.0,30.0,0.0,0.0,0.0,0.0,-13.0,0.0,2.0,0.0,0.0,0.0,1.4378253894907188e-10,1.2942161193063887e-10,1.1461054780585016e-10,9.966335314482255e-11,8.49251313495665e-11,7.112258016884215e-11,5.847720770227087e-11,4.684552122349765e-11,3.6495235382331014e-11,2.7798132974096418e-11,2.064882903250477e-11,1.4936515931793644e-11,1.0572195938483665e-11,7.301616776900839e-12,4.915612975034409e-12,3.2277067357249984e-12,2.0720739431920204e-12,1.2979453467466375e-12,7.937748750248375e-13,4.743542641786755e-13,2.7898515589171375e-13,1.6270282806842597e-13,9.435592832683466e-14,5.404005466367877e-14,3.07856181005553e-14,1.6935748426225425e-14,3.3759667195779325e-09,2.2446156521509863e-09,1.5707496216231113e-09,1.1085103430566538e-09,7.783172472099161e-10,5.43553152651197e-10,3.782388290219612e-10,2.6055175356709824e-10,1.7717347843664202e-10,1.1820936168560845e-10,7.674085786752951e-11,4.897284277050237e-11,3.0557636646638487e-11,1.8603622861552005e-11,1.1102765844191998e-11,6.454701950500646e-12,3.659763632748466e-12,2.0251865302732948e-12,1.0973072647817637e-12
