Line_number,Fiducial,Easting,Northing,Height,Elevation,tx_pitch,tx_roll,tx_yaw,txrx_dx,txrx_dy,txrx_dz,rx_pitch,rx_roll,rx_yaw,PX,PZ,S0X_time_1.086e-05,S0X_time_3.256e-05,S0X_time_5.426e-05,S0X_time_8.680e-05,S0X_time_1.411e-04,S0X_time_2.279e-04,S0X_time_3.689e-04,S0X_time_5.860e-04,S0X_time_9.115e-04,S0X_time_1.411e-03,S0X_time_2.192e-03,S0X_time_3.418e-03,S0X_time_5.339e-03,S0X_time_8.301e-03,S0X_time_1.338e-02,S0Z_time_1.086e-05,S0Z_time_3.256e-05,S0Z_time_5.426e-05,S0Z_time_8.680e-05,S0Z_time_1.411e-04,S0Z_time_2.279e-04,S0Z_time_3.689e-04,S0Z_time_5.860e-04,S0Z_time_9.115e-04,S0Z_time_1.411e-03,S0Z_time_2.192e-03,S0Z_time_3.418e-03,S0Z_time_5.339e-03,S0Z_time_8.301e-03,S0Z_time_1.338e-02
0.0,0.0,0.0,0.0,120.0,0.0,0.0,0.0,0.0,-107.0,0.0,-45.0,0.0,0.0,0.0,34.27253218749016,17.55503396713325,1.6537778141348152,1.587462394054082,1.4507999440136172,1.3770537303204866,1.3289453892686645,1.2251594738263047,1.0586590922607404,1.0326048818979003,0.8697536950004325,0.7297020543943064,0.6056209879011137,0.4291876632322824,0.32697244609542253,0.24824969189223697,0.16712429781710936,3.2317947391946324,3.001290793163791,2.90628634678731,2.832856213949845,2.699896094766999,2.5568680937880663,2.3954327641147484,2.1973494287419775,1.952351148591891,1.8009926658221662,1.499872240248848,1.2463990758151466,0.9916793104261293,0.7255262267206938,0.5230959327667897
0.0,1.0,1.0,0.0,120.0,0.0,0.0,0.0,0.0,-107.0,0.0,-45.0,0.0,0.0,0.0,34.27253218749016,17.55503396713325,1.613742470907821,1.3625144248949204,1.304132809318252,1.26567314102848,1.1474954498395051,1.0749334348660011,1.063482614746396,0.8680289198353252,0.7723212160276467,0.6271877194399859,0.5909796486347585,0.43245602283287576,0.33686942704226086,0.2060678447017068,0.1340216465756081,3.1341357807126133,2.7707531899340103,2.6590542977260196,2.639258307351524,2.5175112309622882,2.395477400497917,2.1786496714387553,2.035290561558592,1.8518439524971049,1.6494490079298274,1.4384191193731513,1.17027200349193,0.9704973779528719,0.6734863733932006,0.5203735892342469
0.0,2.0,2.0,0.0,120.0,0.0,0.0,0.0,0.0,-107.0,0.0,-45.0,0.0,0.0,0.0,34.27253218749016,17.55503396713325,1.5103556194734924,1.265663271703294,1.2430667020956179,1.1053515014000668,1.1173406110635467,0.9926236654438555,0.9730894284415359,0.8349083287938197,0.6944630788765741,0.6107853411019987,0.4706335715437576,0.4147727337808086,0.26059557704131303,0.18704600801371885,0.025380157254307992,3.060722535986732,2.5878102033878743,2.540435046595487,2.4440355222991985,2.3281915003424545,2.203796226105891,2.0757363820170016,1.8938605579849572,1.7543890138140161,1.5361717540893127,1.3074788527834562,1.117526417559799,0.8807358528662914,0.6995585372867368,0.5145636938049769
0.0,3.0,3.0,0.0,120.0,0.0,0.0,0.0,0.0,-107.0,0.0,-45.0,0.0,0.0,0.0,34.27253218749016,17.55503396713325,1.4697830508174847,1.1393034831022468,1.104763472704005,0.9634128190056361,0.9518431207131219,0.867465896613858,0.8499646477535006,0.699257384677349,0.641968287585144,0.5099630224162,0.5006441879433456,0.3712284903027412,0.25895920375997517,0.130980074921191,0.12198019071101303,3.083546900741831,2.4578966929020027,2.3491673291866024,2.2639912775533486,2.1181934722961824,2.019516686016925,1.891308516901885,1.7788744966633898,1.608960908651998,1.412845957775907,1.2053927361465453,1.048866389987963,0.8259152135438799,0.5830008884488108,0.43402772150146623
0.0,4.0,4.0,0.0,120.0,0.0,0.0,0.0,0.0,-107.0,0.0,-45.0,0.0,0.0,0.0,34.27253218749016,17.55503396713325,1.6035174740479776,1.0637093143344403,0.9266684544792315,0.9802165518782096,0.8762504469987524,0.8540082767708569,0.711909076517661,0.7377791694501104,0.5856404165696173,0.49412005273056264,0.391219916129463,0.31463582349551816,0.22020721191829185,0.2433652496364041,0.09184177251035082,3.102304326335035,2.3575192167945698,2.1887376806869856,2.0856866753447925,2.012046398069446,1.9333764695221358,1.7995155707973334,1.6751639851098095,1.5243111670814184,1.316662091192273,1.1584899307330985,1.005146561643134,0.7405502207635368,0.606775140793109,0.444408384023829
0.0,5.0,5.0,0.0,120.0,0.0,0.0,0.0,0.0,-107.0,0.0,-45.0,0.0,0.0,0.0,34.27253218749016,17.55503396713325,1.5769751240848482,1.0136925791158284,0.8550015500921001,0.8378786014159243,0.8301334534074116,0.798421791173827,0.7068194137995322,0.5896700101415415,0.5139979366818407,0.4373011076867648,0.3322962395089528,0.28306724519569243,0.23991634033417347,0.21346515142442601,0.1024128137503969,3.111543055945198,2.268765107687671,2.0795523913864113,2.0060278711119985,1.9044141928141012,1.7700015133029738,1.609172347950316,1.5088928891698223,1.4117831899198163,1.2555503318176668,1.101707475939562,0.9010556167200521,0.7636979904150443,0.5972631400506659,0.4393026056086805
0.0,6.0,6.0,0.0,120.0,0.0,0.0,0.0,0.0,-107.0,0.0,-45.0,0.0,0.0,0.0,34.27253218749016,17.55503396713325,1.5248651421286075,0.91780760953741,0.8274709075882187,0.7379370075788967,0.7164775050864809,0.6233126855569674,0.6799584779224976,0.5250730233266885,0.47710578324629854,0.377999950931226,0.3684932696479277,0.3233850669599375,0.30274284352807684,0.10952658609129036,0.18902020595752228,3.1716019778419535,2.198428103746252,1.9584043190895775,1.853509188510109,1.7707466597565313,1.7084856566085134,1.5499411266842233,1.457088073478539,1.3171678377648266,1.190844576712416,1.0263104024651994,0.8884092941389831,0.69663272921128,0.5670227753149625,0.3828131179298476
0.0,7.0,7.0,0.0,120.0,0.0,0.0,0.0,0.0,-107.0,0.0,-45.0,0.0,0.0,0.0,34.27253218749016,17.55503396713325,1.5559622172526155,0.9731902137843034,0.7405898659212735,0.7387887386207818,0.6573678532538891,0.5659309790823803,0.6730821223908684,0.4569318191393424,0.44868641951899446,0.3728098993326125,0.2949035819355582,0.2922372821431975,0.18972143857787163,0.11707773773565563,0.1335823941646519,3.185901264522516,2.147603824707434,1.882316599365932,1.696773491911496,1.6544038146622237,1.5610568181508053,1.4898628898172597,1.3610770940661039,1.2173332006055035,1.0822350729647021,0.9762822896461767,0.774330917916227,0.6681330022934144,0.5248318335427525,0.4354313228812801
0.0,8.0,8.0,0.0,120.0,0.0,0.0,0.0,0.0,-107.0,0.0,-45.0,0.0,0.0,0.0,34.27253218749016,17.55503396713325,1.5496765714462188,0.9016548571436143,0.7982623055523748,0.6650822108256291,0.6313355833239225,0.579142927637261,0.5093308778015013,0.4397230413505675,0.41159551580553033,0.39871091403796544,0.2903608372263701,0.21966105235195818,0.1542480195888951,0.07193880105076325,0.05645492386716155,3.2295766470126726,2.1357646988299583,1.8257864127695973,1.6441297573291427,1.5256781020147967,1.4668881024629186,1.4344310518351568,1.2154791701390588,1.1289397360733875,1.0274860806967936,0.9035936756385367,0.7683339650450556,0.6829899979294758,0.5320574908708894,0.36243079262918554
0.0,9.0,9.0,0.0,120.0,0.0,0.0,0.0,0.0,-107.0,0.0,-45.0,0.0,0.0,0.0,34.27253218749016,17.55503396713325,1.639543747394623,0.9884721720758599,0.6896588515843756,0.6167895278266616,0.5497781841561538,0.4700504742596276,0.40918179999456894,0.40422226486006574,0.41139475350291665,0.34254480884201444,0.34686799534001983,0.2523280300146331,0.19898424370366113,0.12086543274284156,0.07318274452813509,3.266129016719334,2.1664469149935095,1.7718775522778005,1.5835623248466308,1.4532834408646416,1.3774775664895287,1.268486207646787,1.2018236415719568,1.118630001239331,0.9633987997822026,0.873365940932739,0.7195503985691805,0.6013939123799894,0.48305055741253466,0.358922113189901
0.0,10.0,10.0,0.0,120.0,0.0,0.0,0.0,0.0,-107.0,0.0,-45.0,0.0,0.0,0.0,34.27253218749016,17.55503396713325,1.6691679798789838,0.879731720630614,0.7006627705363936,0.5441123371056957,0.47006402010293785,0.4473933829029234,0.4254753239870331,0.4226730134058873,0.2566447224435469,0.31392544697842717,0.2589801059583263,0.25491664815431364,0.13774140815127964,0.15655111586095183,0.11579924643171113,3.3002939465964984,2.1731398698680224,1.7316009244362205,1.5159525264270748,1.3602287013236307,1.3361467676240932,1.1622000391673277,1.1260942510805472,1.0520676941562708,0.8838069868737233,0.8256590071961162,0.6648725262798171,0.5423345631513942,0.46100987344294586,0.34621501785242353
0.0,11.0,11.0,0.0,120.0,0.0,0.0,0.0,0.0,-107.0,0.0,-45.0,0.0,0.0,0.0,34.27253218749016,17.55503396713325,1.7047161603296135,0.9629316908925868,0.7280916575870665,0.5043403271044716,0.4902752324982448,0.4578403596567178,0.4951618152728649,0.3714612673471716,0.24087572116267028,0.22804349796652323,0.22930690699365933,0.16589789822638534,0.2269821407964559,0.06636866013359818,0.025595240154355325,3.3320251549981825,2.1718074429468714,1.6767574682602226,1.4913019992171923,1.2948481031721926,1.2207902205808137,1.1255148758395648,1.0753448269898473,0.9739711215358289,0.8574766149891937,0.7421538239834155,0.6496735883009634,0.4944163400811854,0.4271166781842071,0.31839486207630535
0.0,12.0,12.0,0.0,120.0,0.0,0.0,0.0,0.0,-107.0,0.0,-45.0,0.0,0.0,0.0,34.27253218749016,17.55503396713325,1.7152357078093075,0.9231094906874374,0.6141765919914975,0.5840248732756796,0.4764939364354188,0.3907993066900488,0.3584276984006524,0.3539476219557329,0.19812835328124523,0.24701170260352606,0.2076196534374524,0.19694154036969488,0.1326849620247101,0.06004199854319236,0.0032135815828712028,3.382301389523275,2.2170303182907527,1.7368533669052701,1.430489037790594,1.2504478931884013,1.1616182810808267,1.0567945929652094,1.0208278724091469,0.8537652133604398,0.7875755802360138,0.6946704332352581,0.6505033255231012,0.5451357025369804,0.42827678095763194,0.3262095107201404
0.0,13.0,13.0,0.0,120.0,0.0,0.0,0.0,0.0,-107.0,0.0,-45.0,0.0,0.0,0.0,34.27253218749016,17.55503396713325,1.7276437804577254,0.9147402949478664,0.6997165346689816,0.5260722820256197,0.4053555867971773,0.4017945329287876,0.3121191016820949,0.3023788240721363,0.30766093966783364,0.2383214578528299,0.1685780274634763,0.13846253643706896,0.1402629895213391,0.05321376999623514,-0.03171394249809849,3.4631024433228497,2.2187666262008294,1.7098034545392558,1.3788935611451623,1.1565228795789604,1.0818303119686858,1.0054418989248117,0.9412470577389125,0.8251479625080809,0.7589442105226428,0.7037603149762605,0.5762759743770346,0.45363112221950574,0.3610630905013534,0.2733490970700383
0.0,14.0,14.0,0.0,120.0,0.0,0.0,0.0,0.0,-107.0,0.0,-45.0,0.0,0.0,0.0,34.27253218749016,17.55503396713325,1.7933487083204258,0.9273215882941718,0.648115911922488,0.4395643751173814,0.3546654541891302,0.4137109420852088,0.33656582606768504,0.28353482009695724,0.30271511667320067,0.2203121956199779,0.19571058666574154,0.14680763037889066,0.10711593575047647,0.0828409649787306,0.10441297540565414,3.4892114780550734,2.252568793753629,1.748936184980704,1.3722357966475103,1.1537699251334623,1.0280364118539982,0.9522520480573772,0.9166680926421604,0.8029425974466728,0.7071945349336053,0.6315406899593501,0.5442972158594438,0.48953665881682057,0.3687468874593316,0.265269417110601
0.0,15.0,15.0,0.0,120.0,0.0,0.0,0.0,0.0,-107.0,0.0,-45.0,0.0,0.0,0.0,34.27253218749016,17.55503396713325,1.7063350297530866,1.0072562488927501,0.5842154531104712,0.5158139539671569,0.40930675299174996,0.291517382666343,0.28290592437317447,0.2580071035017528,0.23396753231934952,0.17888232965218429,0.14847782141502786,0.13675803451154137,0.043251569433450016,0.05896898954253933,0.07479728404756822,3.522126851396743,2.2970428407598464,1.7215166988147914,1.3558376485130654,1.1338862597402628,0.9885089273018784,0.8600836828827927,0.8483500869406506,0.7568578748140902,0.6800336662146419,0.5850715131220879,0.5085980831486013,0.44230738558545757,0.35277956637055075,0.2883702340049282
0.0,16.0,16.0,0.0,120.0,0.0,0.0,0.0,0.0,-107.0,0.0,-45.0,0.0,0.0,0.0,34.27253218749016,17.55503396713325,1.7149262768695182,0.88787192148155,0.6870329915265665,0.41105983393496454,0.34773249515190163,0.35895580170432906,0.24848550691640203,0.31748013817501847,0.2502464766464097,0.1848995325711181,0.13349200857268656,0.14425616768402402,0.08756438458655277,0.05988279264156775,0.076258633255969,3.5685798748983593,2.345792478127604,1.749722234061239,1.3488165395785776,1.108490824358777,0.9475539239416574,0.8356894687435511,0.7706680665855671,0.7069199278435003,0.6240874695445991,0.5592365245020215,0.4907314730332714,0.3832849185272152,0.38416175834507893,0.24646587246952523
0.0,17.0,17.0,0.0,120.0,0.0,0.0,0.0,0.0,-107.0,0.0,-45.0,0.0,0.0,0.0,34.27253218749016,17.55503396713325,1.7838778578352026,0.9917218051015478,0.6949079521618746,0.4522387424834376,0.2932505232709055,0.33859552011327704,0.30861172728203023,0.22692118565756722,0.16441012531670218,0.19095756161073932,0.08507277208237803,0.17585887927317065,0.1378455834594865,0.09119407745203764,0.012848578274072618,3.6300534449756032,2.3356844378548414,1.766336325569656,1.3634179264350004,1.0373555432335866,0.8992501691554556,0.8113129527433065,0.7388197646852595,0.6400600047335417,0.6058821249870897,0.5754744267650922,0.464857471462787,0.4684219959944911,0.3599500652724017,0.2435666595328436
0.0,18.0,18.0,0.0,120.0,0.0,0.0,0.0,0.0,-107.0,0.0,-45.0,0.0,0.0,0.0,34.27253218749016,17.55503396713325,1.869040289540227,1.1011102302901052,0.6636305708381235,0.4493864825169507,0.32575135433866453,0.27462621182921504,0.21611204218529445,0.19471728450458214,0.2443536098012309,0.17051896270264436,0.12214601436536654,0.13388692129186924,0.1071692606966835,0.049430681133977084,0.029387586008126115,3.647134747062618,2.37005824690782,1.8282375448749117,1.330892916833125,1.0207029467124724,0.871041753969752,0.7849050326461305,0.6722704059627087,0.6607240431552472,0.5750535276382471,0.5439460535533243,0.43789327459331134,0.37644074840475233,0.3132481485614541,0.24387806645256424
0.0,19.0,19.0,0.0,120.0,0.0,0.0,0.0,0.0,-107.0,0.0,-45.0,0.0,0.0,0.0,34.27253218749016,17.55503396713325,1.8733988559170471,0.9943664952326167,0.6483571567643314,0.43967314580628275,0.2704092204348967,0.3095249673140663,0.22508098166529386,0.14278646839941822,0.20159210384743154,0.10071422965441792,0.10293849358625111,0.11050337418307929,0.05207151527706155,0.05766094888880399,0.06443884827590271,3.642043477202117,2.4296403389527397,1.8281483783963193,1.3427468118732864,1.0617338078254746,0.8085717608026864,0.7612123408153549,0.6707009917672203,0.6637472988866877,0.5712380344917719,0.49691465202257906,0.43048920015406894,0.3624121497730318,0.2938671292476795,0.22128175345202125
0.0,20.0,20.0,0.0,120.0,0.0,0.0,0.0,0.0,-107.0,0.0,-45.0,0.0,0.0,0.0,34.27253218749016,17.55503396713325,1.8914576082578933,0.9977310184285264,0.6909236311628679,0.472827200594356,0.33617890287042884,0.2483074752058716,0.20573834342037964,0.170568655100222,0.17419106189840275,0.1531099165728255,0.1126303986554114,0.14202399335003488,0.10831079792079197,0.038521092751960334,0.017030301595011305,3.714702084822885,2.4225239329947357,1.8140070605067347,1.3599216706863544,1.01635674192218,0.7995831929447955,0.7087215446994042,0.633148144412435,0.5722913837363172,0.5434148541381045,0.4396423737592611,0.4658673576032651,0.3269244047679621,0.2679934839888525,0.21300746627409253
0.0,21.0,21.0,0.0,120.0,0.0,0.0,0.0,0.0,-107.0,0.0,-45.0,0.0,0.0,0.0,34.27253218749016,17.55503396713325,1.90873457013451,1.0101022465682556,0.7107727478515481,0.46017633203375574,0.29066652895698264,0.17488008253586196,0.15958355715624917,0.17843422572334094,0.16125849772198794,0.08663775836755332,0.11108498265397565,0.008612035427647005,0.09270412539280394,0.044056385339986376,0.07981352093585975,3.7808595774904057,2.4764226266868885,1.8443646477643556,1.3726719534218963,0.980508324117548,0.8010961860684851,0.6768101470383614,0.6095934547394322,0.5886960751002501,0.4710884566334537,0.47647756440556416,0.37742858688168157,0.3345490352242875,0.23314163372850413,0.21440252500193718
0.0,22.0,22.0,0.0,120.0,0.0,0.0,0.0,0.0,-107.0,0.0,-45.0,0.0,0.0,0.0,34.27253218749016,17.55503396713325,1.9327457495334723,1.0045212608070655,0.7597389850372694,0.4186154031849492,0.2884430014048209,0.23657388596110845,0.20077465569055775,0.11438696562864067,0.13264802696399414,0.19180834001966449,0.09469168874600636,0.15952853456093335,0.08534327063099922,0.07570780518524853,-0.041413391656453635,3.802085948628484,2.5074157275822073,1.8645953751735558,1.3676870590784256,0.9850231841918731,0.7736227298325121,0.6259540404426855,0.5736400782380378,0.5157455715165451,0.4626660755807602,0.4679774151766064,0.3500210761211281,0.3338610250073951,0.2640773068725172,0.2284711728564446
0.0,23.0,23.0,0.0,120.0,0.0,0.0,0.0,0.0,-107.0,0.0,-45.0,0.0,0.0,0.0,34.27253218749016,17.55503396713325,2.0133646599264488,1.0589164735346381,0.7527284915305881,0.4574526628125517,0.3011487772933087,0.18467677258809073,0.15362070324603183,0.16896882987441428,0.08916531966456633,0.17362980955612892,0.11935065635374273,0.14394960580678165,0.07065674177606898,0.03755713983991182,0.07739973095823043,3.883917953469317,2.485101205781917,1.899804364962034,1.4032526902982592,0.9889143511322807,0.7209024030187028,0.5947786579768761,0.6096321288106069,0.5359007721928791,0.4979891444800039,0.3784309307100276,0.3108184178242432,0.33370826741047227,0.22928737842950936,0.21632326634344093
0.0,24.0,24.0,0.0,120.0,0.0,0.0,0.0,0.0,-107.0,0.0,-45.0,0.0,0.0,0.0,34.27253218749016,17.55503396713325,2.0413322886212724,1.100077387995729,0.7218193795915865,0.5147061836522631,0.3093482384194124,0.18607943688044662,0.14819811602937635,0.09977809913261737,0.1215366098203311,0.1323979352605207,0.13817038291403635,0.07016330837774715,0.04958446829049595,0.02113322461142165,0.02709226494958486,3.8793810579327266,2.532651252103699,1.9098346125115646,1.4516427346518546,0.9873946110562137,0.7663830836491838,0.5856936343575112,0.5290553796506051,0.4818604439901366,0.43897351293630943,0.3692154597780171,0.33512379499209743,0.30054914248665027,0.24753834795012675,0.19608535657746964
0.0,25.0,25.0,0.0,120.0,0.0,0.0,0.0,0.0,-107.0,0.0,-45.0,0.0,0.0,0.0,34.27253218749016,17.55503396713325,2.025780485729511,1.0472232511495851,0.7512061995835331,0.39681682457191525,0.3453718946895417,0.20003469980170582,0.18792287715369332,0.12882097941897766,0.09060236123570213,0.15050812149320553,0.11437268263699332,0.07777798695100498,0.04361281858634463,0.09937849909296892,0.0909756188460113,3.9245207221869873,2.5445145882893216,1.9275182102332689,1.3961867455741108,0.9909969166584891,0.7250712287550142,0.5393269999241934,0.49470816146261193,0.4851229721988187,0.4245377643621141,0.33031234549906635,0.33430514124602806,0.2998245800824176,0.2536024170371395,0.2007263525044809
0.0,26.0,26.0,0.0,120.0,0.0,0.0,0.0,0.0,-107.0,0.0,-45.0,0.0,0.0,0.0,34.27253218749016,17.55503396713325,2.0520656931176617,1.0814997140036589,0.7291942898363959,0.5190347239195995,0.2613960804766915,0.17070354231772863,0.16415755157560977,0.11342395134050057,0.05801019685156423,0.11271527402385222,0.12572248397899236,0.04630891475820592,0.05266530891936253,0.034626514284560796,0.03440025339878759,4.0029682432437905,2.595374302000593,1.9456390912832118,1.4252712840045194,1.010274893778082,0.6820352260071894,0.5381675229082173,0.4955154603952338,0.45356012898391257,0.3869738720843201,0.35694261927501,0.34590816648696915,0.23929821736047835,0.22268272101950443,0.1521662701753676
0.0,27.0,27.0,0.0,120.0,0.0,0.0,0.0,0.0,-107.0,0.0,-45.0,0.0,0.0,0.0,34.27253218749016,17.55503396713325,2.1491914768995426,1.0730714881076169,0.7390271195101117,0.4874921559084738,0.2751319484572118,0.1791775276757968,0.13995526931009272,0.14155950962644737,0.045394190121444966,0.08572546312493023,0.06762312195677307,0.054736989942214716,0.11361029062278834,0.022469318584080453,0.06561807956942758,4.036507843120999,2.604184465741452,1.9900875395106696,1.4559502064151906,1.013576609106347,0.6925164400265724,0.5665656536427707,0.4586014075251911,0.420168098389197,0.4118988218946371,0.34200188045237834,0.3003696196916166,0.26934068310125675,0.24928052872524892,0.1569957762210208
0.0,28.0,28.0,0.0,120.0,0.0,0.0,0.0,0.0,-107.0,0.0,-45.0,0.0,0.0,0.0,34.27253218749016,17.55503396713325,2.13745259405284,1.1454273828343082,0.7496699028089145,0.47728394055237255,0.3385932359986171,0.17406668399964972,0.18693600579561934,0.06596300440497722,0.11137918054829138,0.1114906540263342,0.09395358891281021,0.03359508347223784,0.004797150714396722,0.011971982412319625,0.06825346455539026,4.098424614761601,2.628898633016074,2.0455399102009526,1.4644328814932266,1.0290803352497528,0.7000621361610655,0.5246859384664608,0.4709076568808128,0.4339675872515645,0.39364556247642973,0.33092443632015495,0.29679345542028807,0.2553786163289371,0.24977721835790115,0.1454769293979836
0.0,29.0,29.0,0.0,120.0,0.0,0.0,0.0,0.0,-107.0,0.0,-45.0,0.0,0.0,0.0,34.27253218749016,17.55503396713325,2.1588942697528917,1.1116156386893716,0.7687409295446359,0.4864060037000466,0.32841736932544735,0.14873452554972122,0.1981457553110902,0.13088604059910466,0.04169668220970526,0.056620345067411204,0.05125561452841186,0.004508920875112191,0.09980558326532844,0.01375617113341289,0.009386657988428467,4.082949855862763,2.6712374114567123,2.015708939908207,1.4861418408770386,1.031164746973987,0.6855391091548415,0.5106132649319478,0.41372479183034366,0.33798391468364897,0.35109746138871367,0.28565692517557284,0.29911668217990606,0.2421098883562382,0.20594795541683547,0.15026550012625056
0.0,30.0,30.0,0.0,120.0,0.0,0.0,0.0,0.0,-107.0,0.0,-45.0,0.0,0.0,0.0,34.27253218749016,17.55503396713325,2.1395882043019703,1.197610219168275,0.7918749992473824,0.46766437404893163,0.34446142400904106,0.15778092563475532,0.15842324618189468,0.12530873608192067,0.08553178175531462,0.11771965300955065,0.09176666232720417,-0.0077567344781810585,0.07976853361812797,0.11898114156960567,0.06325070841048074,4.155850888736148,2.6987339732384052,2.026727403503793,1.4877196115764673,1.0242496185627197,0.6821888500104539,0.5063455716268437,0.4618410498353358,0.35391746877180286,0.36430265740203394,0.3004904053703378,0.2653077366623177,0.22614609222018875,0.22639802260960873,0.1435104060227479
0.0,31.0,31.0,0.0,120.0,0.0,0.0,0.0,0.0,-107.0,0.0,-45.0,0.0,0.0,0.0,34.27253218749016,17.55503396713325,2.2622335204386363,1.2201351986492435,0.7485434122697578,0.5265379389345453,0.3199456397372575,0.19370672556976204,0.09342860507452604,0.10590082132453993,0.08282919770161176,0.03215027905238005,0.03741430017016442,0.03221241559777732,0.06553634357670846,0.0994189899357762,0.02382199013506355,4.164877602847453,2.7102339982596555,2.0611895105023557,1.5007308323553885,1.0435076507215326,0.6898115720689663,0.47111998822797624,0.43186827363283,0.3738762739518428,0.32474459453133886,0.29437513730353976,0.2570600073365886,0.22460530735919912,0.159911153918436,0.17524358594354392
0.0,32.0,32.0,0.0,120.0,0.0,0.0,0.0,0.0,-107.0,0.0,-45.0,0.0,0.0,0.0,34.27253218749016,17.55503396713325,2.293371179965099,1.1312167354556626,0.735705490462462,0.5621762034255913,0.29912864464010197,0.1770540007878147,0.11875601065190632,0.11465430678339401,0.18619157028809705,0.07299854854151797,0.04706083343293697,0.03766412794478907,0.03979097134008452,0.009227596691727284,0.030125792924200444,4.23911864288693,2.7396968424696517,2.065818111830395,1.5314169738863244,1.0314002775466506,0.652194253939744,0.47651433796639064,0.3888719171512844,0.318636920412727,0.33056928727051504,0.29661761622515115,0.2628463725362353,0.21512638758598326,0.1942993291429726,0.13480818613839377
0.0,33.0,33.0,0.0,120.0,0.0,0.0,0.0,0.0,-107.0,0.0,-45.0,0.0,0.0,0.0,34.27253218749016,17.55503396713325,2.243553038661707,1.2356972699130349,0.8463276480709603,0.47790086821439587,0.3001782408190023,0.18474478694274135,0.1739751756474099,0.12471170342977086,0.10366782858215663,0.042283797698150896,0.05721303855809615,0.043082962572975995,0.019147274333894806,0.008847820053370425,0.09122470990365843,4.277473008076378,2.798522598761308,2.1109922176764586,1.5457921438638058,1.0330181801918472,0.7223643464114052,0.4776656895024105,0.3933220368936207,0.3561408675120569,0.28922638826368546,0.288595637416534,0.24386021022583126,0.21699462232898767,0.1886066501957643,0.20795544421135126
0.0,34.0,34.0,0.0,120.0,0.0,0.0,0.0,0.0,-107.0,0.0,-45.0,0.0,0.0,0.0,34.27253218749016,17.55503396713325,2.295167081870259,1.1331252080788572,0.8639811516397938,0.5254482546704717,0.33599525930626256,0.13660119796227146,0.2103051402073505,0.12945313182263005,0.14542863359555852,0.018791219260980846,0.010100849399906763,0.10986072831440577,-0.03804992178892067,0.045039912919885676,0.048518736006753174,4.308411262753583,2.8058435711023937,2.1611963265980103,1.5463260320946874,1.083343625143175,0.7429254643895277,0.49293412930341884,0.3788555264413833,0.337655710687279,0.28163032054531834,0.2751510468583943,0.21956128469998187,0.20638658104524243,0.19978259837079906,0.14020683848829987
0.0,35.0,35.0,0.0,120.0,0.0,0.0,0.0,0.0,-107.0,0.0,-45.0,0.0,0.0,0.0,34.27253218749016,17.55503396713325,2.2993737949039224,1.3064115857833642,0.8244629416594902,0.5317542923797386,0.2928568538995128,0.13046526674592823,0.12372076012746133,0.05783489508299692,0.045702770938495785,-0.03472123594664291,0.050860114373688536,0.00924086623036343,0.07322214624973432,0.01579658221578261,0.06916634508655387,4.3435320680767555,2.81732849512295,2.1427411822857385,1.5721608911055673,1.027671849607153,0.7299987749495832,0.45906738765859023,0.3187061825323635,0.2988301153778918,0.3026675178222358,0.20515334810912683,0.2433646426346033,0.19595146882145933,0.1557875037342833,0.12088736947424492
0.0,36.0,36.0,0.0,120.0,0.0,0.0,0.0,0.0,-107.0,0.0,-45.0,0.0,0.0,0.0,34.27253218749016,17.55503396713325,2.402537192564817,1.2690116848017647,0.8658595307905713,0.507008994017322,0.31229967818477666,0.19780851847837952,0.14924956419717433,0.13404319782295143,0.06591967188819181,0.16979044202334106,0.027833959120622132,0.06582801060728473,0.04802177296219372,0.007851338734186707,0.07015329076227655,4.440113682145556,2.9147564468426026,2.117884113076328,1.5872029779456842,1.0780189596646694,0.7127304590845597,0.5047678521400133,0.3540151228375566,0.2950749473681815,0.2511088670507116,0.20790704193453688,0.1803957197219693,0.21052023100500994,0.17826885933279013,0.12578470447706128
0.0,37.0,37.0,0.0,120.0,0.0,0.0,0.0,0.0,-107.0,0.0,-45.0,0.0,0.0,0.0,34.27253218749016,17.55503396713325,2.3187592033000435,1.284551751882079,0.7813961695880887,0.5740674186570235,0.3667501910005533,0.1865751304844107,0.14401946489031922,0.03935118050704255,0.006121437353275201,0.024583579395080102,0.024147718028866956,0.03792583526007431,0.10424244095163461,0.01589914946442075,-0.05877631036522227,4.453822555141459,2.886654070463789,2.1868757379451136,1.6219145673282103,1.0886350521789865,0.7098675457497942,0.45078668514246056,0.315210691518583,0.2877245659706893,0.2520515530719144,0.2111305046855239,0.17667835200932244,0.23291039361352853,0.16634034752998939,0.12033363895871088
0.0,38.0,38.0,0.0,120.0,0.0,0.0,0.0,0.0,-107.0,0.0,-45.0,0.0,0.0,0.0,34.27253218749016,17.55503396713325,2.4328942644143643,1.3426778131385038,0.8142886962107093,0.5585496741027182,0.32200766259904984,0.1761156267697515,0.07363887173900245,0.07774053471727962,0.055268139633357104,-0.046010691714687184,0.021573331405989847,-0.011465614229817553,0.08095192731296184,0.033119910855850816,0.055961731046195284,4.500825574739378,2.9438901230141705,2.224487005707292,1.5877480763380758,1.1137978049128794,0.7245957385107075,0.4461949274101955,0.3468756715486443,0.2577730246476342,0.25435366199740034,0.22516293928371775,0.23898156561448797,0.20786331557815171,0.1293031742541193,0.136607632827671
0.0,39.0,39.0,0.0,120.0,0.0,0.0,0.0,0.0,-107.0,0.0,-45.0,0.0,0.0,0.0,34.27253218749016,17.55503396713325,2.5538171877944795,1.2311948719759591,0.8641499416389328,0.5345870648290585,0.31132990157361934,0.17540262113231447,0.13779552106427723,0.10994020455459837,0.10722915028640956,0.032056956531093854,0.07098996235995803,0.026148800746694623,0.043113348140015446,-0.07366195702526443,0.03042770332894704,4.545345380965261,2.978717190176472,2.2547993987576724,1.6553061761096484,1.1206066435619173,0.7274438462537791,0.44921028944572033,0.3547785496989514,0.29554564700912633,0.23261067395545473,0.22798485159219664,0.1737393395164156,0.18607487902061565,0.15978344074069464,0.1065136770900161
0.0,40.0,40.0,0.0,120.0,0.0,0.0,0.0,0.0,-107.0,0.0,-45.0,0.0,0.0,0.0,34.27253218749016,17.55503396713325,2.6117243346605683,1.30386093344808,0.8314289549184344,0.623280438971091,0.34457940272747645,0.225569941000969,0.14212448919491977,0.10308336816117636,-0.0017952018189954788,0.03326757879935074,0.0063599114343445215,0.09471890841300425,0.005528222993552261,0.09187580704854288,0.0451395731659328,4.564978456811839,2.9819189140781495,2.239245218213323,1.6432507353307815,1.132291700688459,0.7139901952991986,0.42701505822677194,0.33704894531768775,0.25595409477115627,0.20549323195699326,0.2376894076019902,0.17785650352970953,0.14776494321167585,0.14108867661815724,0.0945950429488049
0.0,41.0,41.0,0.0,120.0,0.0,0.0,0.0,0.0,-107.0,0.0,-45.0,0.0,0.0,0.0,34.27253218749016,17.55503396713325,2.5807567738326065,1.3173708323057933,0.8458613789883822,0.522890956469936,0.3243311157132969,0.17133827666776288,0.13194803153473234,0.07232104360772199,0.08019983307066558,0.034587418009421465,0.08764926959893218,0.03944863239946955,0.043804215994893564,-0.007979124023650069,0.033261864946194306,4.609917104608458,2.9967160936963233,2.249850904446009,1.7013312191064907,1.1267094915856417,0.734932806685182,0.47582136118670476,0.3047198417514799,0.21387287957537676,0.24341819398717315,0.16110543974356492,0.2011533329858614,0.1636333936928,0.11803195099230111,0.09497743022204717
0.0,42.0,42.0,0.0,120.0,0.0,0.0,0.0,0.0,-107.0,0.0,-45.0,0.0,0.0,0.0,34.27253218749016,17.55503396713325,2.556222739499353,1.3446150118488855,0.8737530798327029,0.6017176177228708,0.35262041728637783,0.15938528223456883,0.07849589720427892,0.030779985424071718,0.06837821188247076,0.14021012894054338,0.04047291394845595,0.050602144567718256,0.01418166316358734,-0.03773880228113208,-0.026414159641112475,4.670744857783248,3.054443259383557,2.309601268034965,1.692819247457803,1.1241672014365154,0.7202354794403041,0.4791235448319081,0.3367823205496413,0.2523689948287433,0.22768014773222653,0.22376632677653627,0.18911358447706453,0.1830709206328995,0.12006094661322719,0.09177404708649063
0.0,43.0,43.0,0.0,120.0,0.0,0.0,0.0,0.0,-107.0,0.0,-45.0,0.0,0.0,0.0,34.27253218749016,17.55503396713325,2.668649279468894,1.3578250653195212,0.8952675556230879,0.6709878456160212,0.34908306163499725,0.14982884016750384,0.08955872112714237,0.026952282317231,0.0026918148253835678,0.028781644008948542,0.027801124043610136,0.05261436842739705,0.07904124277964153,-0.0013738169224939561,-0.044174326822481944,4.7540295914563915,3.0225021401947147,2.3059807408098094,1.6796238315948304,1.1502262325201842,0.731809446362945,0.46096460545188533,0.3185866097140627,0.21389078698738398,0.1490735068488731,0.1908880897359923,0.17366274251405878,0.13692713414579613,0.10519841815725842,0.09162911991525623
0.0,44.0,44.0,0.0,120.0,0.0,0.0,0.0,0.0,-107.0,0.0,-45.0,0.0,0.0,0.0,34.27253218749016,17.55503396713325,2.7009426059994865,1.4510899158676993,0.9205150444062485,0.6042628844100502,0.388527617261927,0.17477263189431058,0.07412983867112143,0.1102520334723668,0.04862209229945667,-0.01589731776566676,0.030386211622236946,-0.01731173269378135,0.0162705407759557,0.027091309053841744,0.023413496145400614,4.796897242792871,3.0795029960378018,2.3370762089442643,1.705776416891497,1.1487195473618,0.7217558040595248,0.4560208390372979,0.27125981808699373,0.2570067811712314,0.17562103993757947,0.20180937103752455,0.136729972598703,0.13819440406512498,0.11200501220764843,0.10581604351057317
0.0,45.0,45.0,0.0,120.0,0.0,0.0,0.0,0.0,-107.0,0.0,-45.0,0.0,0.0,0.0,34.27253218749016,17.55503396713325,2.6943614733129415,1.399795529893163,0.8999948711089829,0.5982167382975538,0.3341232378043078,0.1637310459212216,0.09446868419646694,0.011038360655577228,0.031813095258210355,0.04761481590158131,-0.008958120567165932,0.09849840099619074,0.05419886003863175,0.06706257136681995,0.008898934444852256,4.83660686705298,3.10581511131004,2.327447752494504,1.7440547432769582,1.1467298014209428,0.7336462641472599,0.43695516971738896,0.25758958524496295,0.21789015790667043,0.17539293901853586,0.1964791301822646,0.17384212685291664,0.14360318271715483,0.12147384287159302,0.10704802435425372
0.0,46.0,46.0,0.0,120.0,0.0,0.0,0.0,0.0,-107.0,0.0,-45.0,0.0,0.0,0.0,34.27253218749016,17.55503396713325,2.723793275402451,1.3893851390313061,0.9328438950441708,0.6783342305195013,0.31547338263666647,0.20773611130726044,0.11417748979151232,0.016532835910163593,0.052435130471745944,-0.0038060074148591402,0.058046667407272476,0.011722919420532073,0.06590660546785873,0.0117596245675665,0.0008266365705988758,4.872153204686636,3.157909304635303,2.3838322305210395,1.7290970877978498,1.1726209278066266,0.7854872893573763,0.43752334025523515,0.3162074433197067,0.22105384340996087,0.19732307476704997,0.19028632720846592,0.14418627426256622,0.11530277645214702,0.09747704048403391,0.1109250375633933
0.0,47.0,47.0,0.0,120.0,0.0,0.0,0.0,0.0,-107.0,0.0,-45.0,0.0,0.0,0.0,34.27253218749016,17.55503396713325,2.807059534296731,1.4685640860771143,0.9820120804350091,0.6243092551839867,0.3486950690742046,0.2682206497214712,0.09645608171465773,0.1502036375397499,0.038673927302900056,0.06481612915100689,0.021538834419807022,-0.017847511219475476,0.04965461840819296,0.01092092222644507,0.03250267455687019,4.921920672779049,3.192010741257432,2.3805519356497946,1.7691838645304396,1.2296167023314382,0.7831896747613883,0.45218450413738254,0.2900269619393154,0.2466856821799409,0.1715018577460772,0.16110512866850288,0.1368538493460471,0.11277721064445742,0.12931427309332558,0.09169172656596702
0.0,48.0,48.0,0.0,120.0,0.0,0.0,0.0,0.0,-107.0,0.0,-45.0,0.0,0.0,0.0,34.27253218749016,17.55503396713325,2.818091530171495,1.454970822324871,0.9918081761615783,0.5958057954982068,0.2525229851219639,0.1713660526893451,0.07981349135689501,0.06923429439838846,0.09012967503571831,-0.02974213109352266,0.021667781593017733,0.013630661776167735,0.11420843567007978,-0.05830773852584391,-0.007672746243408652,4.984226156845605,3.1932302163576693,2.418583483263926,1.796652639114633,1.1719702408518409,0.7603018509484044,0.4647648730965738,0.2715036967477431,0.21694266650310504,0.17184817861290277,0.16678727860174583,0.17674067518615477,0.09159128619134957,0.10333527151602805,0.08419913893505501
0.0,49.0,49.0,0.0,120.0,0.0,0.0,0.0,0.0,-107.0,0.0,-45.0,0.0,0.0,0.0,34.27253218749016,17.55503396713325,2.8549751498760645,1.469192071164478,0.9314343865245018,0.6346276884390798,0.3582115468313925,0.2354639961689556,0.061228813364786375,0.05966178581125449,0.04389218776601783,0.07241091675912645,0.01031006637121229,0.08163012405367753,-0.011691076729261889,0.018637438837005145,-0.06279399448436228,5.0623681821195925,3.2455591659465983,2.4578105787899855,1.770498138697832,1.2044470566822416,0.8015027791166413,0.4889273035148244,0.3173853150527371,0.18584552735103177,0.17163892054026583,0.15693558621561496,0.11794097446138643,0.09535866726654627,0.12427546002547457,0.06939343442540341
0.0,50.0,50.0,0.0,120.0,0.0,0.0,0.0,0.0,-107.0,0.0,-45.0,0.0,0.0,0.0,34.27253218749016,17.55503396713325,2.917124670343612,1.4970617983097168,0.9694103093775663,0.6558788524951532,0.33254436275817717,0.1960597834605563,0.12506236564703135,0.07074612609880304,-0.023745714387475005,-0.0035810405801150746,0.011122276966057037,0.02360014171782722,-0.06324271959696444,0.046439647598584585,-0.0073010379750017475,5.065046589802929,3.251185355884469,2.47001427502658,1.8015056525062507,1.2113924469162864,0.7501355719964378,0.46159974213871446,0.2763642418379921,0.21437571860382343,0.12593838440558539,0.15581318711139938,0.14629968083670522,0.08663908422270104,0.053806008518503055,0.09066540607724242
0.0,51.0,51.0,0.0,120.0,0.0,0.0,0.0,0.0,-107.0,0.0,-45.0,0.0,0.0,0.0,34.27253218749016,17.55503396713325,3.0258869334944634,1.4936113187343092,0.985117423573734,0.6630103155400094,0.32466416668710535,0.17909753556475136,0.10689881927850815,-0.012157527796329996,0.03639733355661175,0.10977542038892876,0.014120659605866934,0.005680753441226524,0.04027243597407219,0.02615322942263757,0.0017161113503458055,5.158702768442379,3.2627195056438527,2.520142953020797,1.788788444519128,1.2288677700106103,0.7551597629596529,0.485180814464791,0.2986344306364269,0.1658119090720212,0.18377062689322635,0.16197821142044544,0.09857109213609881,0.1273678340405024,0.13129142304987107,0.0878434189750616
0.0,52.0,52.0,0.0,120.0,0.0,0.0,0.0,0.0,-107.0,0.0,-45.0,0.0,0.0,0.0,34.27253218749016,17.55503396713325,3.0173280240256455,1.517001646770512,1.0047484954301782,0.6446947102414691,0.3474116902873574,0.209274614378792,0.08164807417213979,0.030841963705659566,0.012794706998469713,0.030557457200626477,0.01162553922733592,-0.009060071624537518,0.041021329814677605,0.015598285184969663,-0.017815356009548353,5.196174640541259,3.3705247478995655,2.540861830527555,1.8262672042618218,1.2546593320096115,0.7570269977811649,0.48706031628662994,0.3054408895536297,0.1835477858994757,0.17465979924378303,0.14873238025582874,0.12404144819234857,0.07344153143059985,0.11592366350565712,0.07273284071659762
0.0,53.0,53.0,0.0,120.0,0.0,0.0,0.0,0.0,-107.0,0.0,-45.0,0.0,0.0,0.0,34.27253218749016,17.55503396713325,2.9629917659139693,1.5785976437917448,1.0139338446192823,0.6736487365818664,0.3705844504235887,0.21441628431707857,0.1512902981274633,0.02517325909251164,0.05057095313695314,0.028911978088902876,0.01878387170735693,0.029602851840361682,0.009847139714151187,0.05429863064316872,-0.02513103241271637,5.209403001595227,3.3575322277819537,2.5531858715795304,1.8364245181085124,1.2537975446494585,0.7822215496219351,0.4627925845346856,0.30648581307549727,0.20282014231863177,0.17373401897041998,0.14986856158236897,0.08611824833600476,0.09366241833789474,0.06985576236808463,0.05198896712834426
0.0,54.0,54.0,0.0,120.0,0.0,0.0,0.0,0.0,-107.0,0.0,-45.0,0.0,0.0,0.0,34.27253218749016,17.55503396713325,3.049829658224239,1.609674584952271,1.0585511501440785,0.6609744086167257,0.3796994230053542,0.22672546848317993,0.10667641614697611,0.022151384122059484,-0.03080100704938704,-0.04204350848773063,0.02681142553747534,0.011520348014304693,-0.007899414185494114,0.06262148001679756,0.008760758730318128,5.280494941648839,3.396417077568916,2.59003457999323,1.8890734924390573,1.2652899048346815,0.8190080325954089,0.5112150011625619,0.2775297269885016,0.19908116185254296,0.16829517676091874,0.13639417695453795,0.13141074573969116,0.09119342590909396,0.07816265271369986,0.086959774980319
0.0,55.0,55.0,0.0,120.0,0.0,0.0,0.0,0.0,-107.0,0.0,-45.0,0.0,0.0,0.0,34.27253218749016,17.55503396713325,3.13503812850282,1.6205570806876763,0.9786963866493578,0.6341765505456655,0.4020462320496069,0.15990090302724697,0.1161598287025368,-0.0004728124290264077,0.11296484554323746,0.04775357492920257,-0.01026984350939672,0.026992155849766865,-0.001357506801922228,-0.023098945482888357,0.022929363493998003,5.321855157015402,3.386171408020636,2.578438649421761,1.8836416755465324,1.2693851668884366,0.7870789241836637,0.47812662460666633,0.310153248793838,0.23497501127455633,0.1687490546342075,0.11997794649270324,0.08997366429971229,0.11954838259257237,0.09017333438533126,0.04497292397790046
0.0,56.0,56.0,0.0,120.0,0.0,0.0,0.0,0.0,-107.0,0.0,-45.0,0.0,0.0,0.0,34.27253218749016,17.55503396713325,3.190031830372109,1.5877906810175892,1.0046239010261804,0.6777974923998529,0.3512591341211796,0.2686773728699541,0.17062170477749677,0.11749188754363665,0.04821940964145592,0.004675931269964212,0.04777287911288891,-0.03653815555071026,0.043142446557926054,0.007102323573167991,0.016979685166670862,5.435769851820315,3.4259153206154123,2.6046965832097277,1.8681783185376235,1.2291512792279797,0.8202354502285478,0.4923476290358246,0.3061656665442734,0.1911989013416508,0.1599747600003862,0.1687739677874432,0.11191456125646398,0.11946789406469847,0.08331430865661177,0.06077029857963896
0.0,57.0,57.0,0.0,120.0,0.0,0.0,0.0,0.0,-107.0,0.0,-45.0,0.0,0.0,0.0,34.27253218749016,17.55503396713325,3.1647146347187007,1.6294961997077693,1.066562299326656,0.6315638379208626,0.39691140322504903,0.24571063495359086,0.05639193641821449,0.10561798733228352,-0.00796833042938827,0.028103846562402,-0.01730153492205707,0.01877143663313165,-0.03993052838005191,0.0038469015037182154,0.00727577964331035,5.481231077752432,3.4774918948465556,2.6114271182458886,1.9249057811581294,1.2574289901154845,0.8458567762605651,0.49843404307337397,0.31453969591369707,0.18640221233912246,0.1430701997491959,0.13666754973010328,0.10347248461206293,0.10374662833071845,0.07323255516907963,0.0631789445232038
0.0,58.0,58.0,0.0,120.0,0.0,0.0,0.0,0.0,-107.0,0.0,-45.0,0.0,0.0,0.0,34.27253218749016,17.55503396713325,3.2351959892890085,1.5863340818295495,1.1282069755107385,0.6448954486445433,0.33664820771852744,0.18386314480610036,0.06923780498989414,0.03843366491879521,-0.02313277855013287,0.031137268429476426,0.11918198793364249,0.017925008473129726,0.04658388604409311,-0.023805146299722045,0.004846141512599229,5.5172930685397095,3.563506042075966,2.675860437949359,1.960785754623253,1.3247664747806576,0.7968384203304455,0.4980383528572126,0.2829111095140667,0.19730696004897846,0.18923070812843087,0.11512657038315001,0.11303576005437677,0.07786931472428854,0.12321650455509289,0.05326620065993251
0.0,59.0,59.0,0.0,120.0,0.0,0.0,0.0,0.0,-107.0,0.0,-45.0,0.0,0.0,0.0,34.27253218749016,17.55503396713325,3.2778811516699173,1.6752821000888327,1.0557174219551801,0.738960995565629,0.4298780030288996,0.15717984843745852,0.09148064293148445,0.08087030240634836,0.06149799334899694,0.007083055015100858,0.010649769932090485,-0.005896365958674661,-0.01585303156400098,-0.027445980405844866,-0.021242527965924234,5.577194519095836,3.5263309320850236,2.6613377189858403,1.9729119702888496,1.3294148073553769,0.8674558164028462,0.5050770850282449,0.31395684135534485,0.15053249628446885,0.09736526478825619,0.10241470546313158,0.07203745430940109,0.0662483170653708,0.0779405407949201,0.06194982224041281
0.0,60.0,60.0,0.0,120.0,0.0,0.0,0.0,0.0,-107.0,0.0,-45.0,0.0,0.0,0.0,34.27253218749016,17.55503396713325,3.2970349978152185,1.6930503095171519,1.1014045798291563,0.6814907373559174,0.3783875394850902,0.27486798958301895,0.14883999037747717,0.06573435860842124,0.02169401482057022,0.03464418393960654,0.03645823485497207,-0.03663750406118558,-0.019140692130463797,0.0331902615102946,0.005309626160192033,5.63970995554082,3.573292322613472,2.6898263317918247,1.9496683615446588,1.304618533388871,0.8422350331953417,0.5422639598654052,0.29926676068334773,0.17349288330263685,0.14331238646184116,0.11354978692060634,0.05182723780962395,0.105874358041296,0.06632894759753385,0.09010477226928668
0.0,61.0,61.0,0.0,120.0,0.0,0.0,0.0,0.0,-107.0,0.0,-45.0,0.0,0.0,0.0,34.27253218749016,17.55503396713325,3.398661070205237,1.6992338671393292,1.1110590182399636,0.6971512601282575,0.4285581892872351,0.25071586796074047,0.1814106339827851,0.028603265702641087,0.03201014392614034,-0.04697903831003748,-0.035167274668444555,-0.0357666418429228,0.011673523816606102,-0.024463441561150337,0.018600403951927677,5.64362900413447,3.5975103617407562,2.6961490572572,1.9870906189630124,1.3584906019398344,0.860153418676002,0.532140775455461,0.2949217715799331,0.15943915381313004,0.11597048785158981,0.11634570046488846,0.11687279618395555,0.10971077287139758,0.08446439888745659,0.07116706486266547
0.0,62.0,62.0,0.0,120.0,0.0,0.0,0.0,0.0,-107.0,0.0,-45.0,0.0,0.0,0.0,34.27253218749016,17.55503396713325,3.45654774519845,1.6946645722414888,1.1301110947148127,0.7233071145614265,0.3956912166789396,0.19246075378039015,0.04807868819691863,0.0585812134213472,0.05643964540831518,-0.0019809130367076655,0.020268422754148495,0.01674039948511266,0.0025273658991855075,0.11395138199843786,0.038181202075741806,5.686913612566419,3.6721735778043514,2.721288109596808,1.9494551492553096,1.338437139351349,0.8790095910893411,0.5413276880534842,0.31781715022309076,0.17414340131334843,0.12998239581762902,0.11797195167427879,0.09648768514746132,0.05139265877448537,0.07092158551171705,0.04881371335573133
0.0,63.0,63.0,0.0,120.0,0.0,0.0,0.0,0.0,-107.0,0.0,-45.0,0.0,0.0,0.0,34.27253218749016,17.55503396713325,3.51328947579346,1.6572233567259917,1.1021579511519957,0.741400180942396,0.4093472699761484,0.236722892099753,0.16150034544003294,0.12516585953366388,0.017339602917068264,0.013323927274539314,0.04010932066718579,0.02185477563105941,0.04800775785863132,-0.057636365070186865,0.019931448745601467,5.757065734973146,3.681019532681602,2.7398989773204385,1.9904189500161533,1.3245781053136436,0.8122623268963832,0.538735846578751,0.3269938239044367,0.19765539313786726,0.12394719185866813,0.11357707496860997,0.06438690463317157,0.08397084797976019,0.059446044420864146,0.08769200590130465
0.0,64.0,64.0,0.0,120.0,0.0,0.0,0.0,0.0,-107.0,0.0,-45.0,0.0,0.0,0.0,34.27253218749016,17.55503396713325,3.582230022345938,1.8269670392874313,1.1307231118685082,0.7364370931038128,0.44466221998044453,0.23383304010010628,0.12415024644337783,0.013134590146420377,0.031895311478234316,0.006103380408895678,-0.06116256909384503,-0.017818790755066025,0.03686898826638123,0.03378756503680364,-0.04845237914436133,5.8564429505606554,3.6869182555808764,2.7926446090976413,2.0475230040772923,1.3613339605290786,0.898935399616784,0.5242587428293719,0.3074302343556553,0.2070856088735875,0.12150242220740422,0.12447781771638064,0.10092423919132819,0.07163747819483383,0.07847968490546228,0.03990041275618791
0.0,65.0,65.0,0.0,120.0,0.0,0.0,0.0,0.0,-107.0,0.0,-45.0,0.0,0.0,0.0,34.27253218749016,17.55503396713325,3.6539157444104564,1.7635162705198173,1.152835386818388,0.6607147486549856,0.42580560615391894,0.19607801754066825,0.09079074813487467,0.03533404980384461,0.057399973780386714,-0.009980265427713082,-0.025830957011132426,0.011274361303529835,0.03733073213362608,0.00745822636390026,-0.049512410175545064,5.816180788604937,3.761930832782599,2.842347108803137,2.0406588168881816,1.3955512799852425,0.8563537909967625,0.4989004222918191,0.29756159143156524,0.18776804466488392,0.09098812518355524,0.0917871180246176,0.0715264828548537,0.07467214668578218,0.09819776331590904,0.08293972535282448
0.0,66.0,66.0,0.0,120.0,0.0,0.0,0.0,0.0,-107.0,0.0,-45.0,0.0,0.0,0.0,34.27253218749016,17.55503396713325,3.6489400488067423,1.8241009984389078,1.1846749092983515,0.7205146332157099,0.440758321208232,0.24450358801922323,0.1397318608779512,0.08228402034151203,0.08879058005112744,-0.011365953092388824,0.03134170040315882,0.039882223875099,0.031760973035560754,-0.030077788891125008,0.0030426185122101224,5.955172317172699,3.780439936480091,2.8343679469645813,2.05026646192025,1.3970144742334942,0.8831490424559566,0.5291284590149238,0.2880783491425426,0.18948816564908486,0.13211312472805156,0.11033785042332321,0.07623771772713908,0.0643135463551539,0.11947146043071366,0.052495633488280395
0.0,67.0,67.0,0.0,120.0,0.0,0.0,0.0,0.0,-107.0,0.0,-45.0,0.0,0.0,0.0,34.27253218749016,17.55503396713325,3.63904689133089,1.8207597545264216,1.0937199862321598,0.8164961190681413,0.4701568686963178,0.23021533981951056,0.11843459148593147,0.052538687462059204,0.06115441801488197,0.04076552856654764,0.0038418869977985513,0.10543316178433687,0.0098403544374986,-0.013889932427214723,0.036081493246402474,6.03948179843734,3.789640646455562,2.8450318171784486,2.0595216486204464,1.4172861084173236,0.9262091040684596,0.5592790320168647,0.31905864899506825,0.17936258499277027,0.09996403078222513,0.0922060392739623,0.037655004660882355,0.0677778002241741,0.07906323407114098,0.06532150651572778
0.0,68.0,68.0,0.0,120.0,0.0,0.0,0.0,0.0,-107.0,0.0,-45.0,0.0,0.0,0.0,34.27253218749016,17.55503396713325,3.825498007932924,1.8279715407122359,1.1869853776327943,0.798186831834836,0.46827525214532206,0.29953340195444866,0.07771009485791519,0.08945191617585378,0.07275242726444414,0.03056750514732797,0.0874303942833217,0.027241689815427683,-0.07973878081975155,0.048396113807776905,-0.0517895005086388,6.079962194604337,3.8744127238982093,2.930505323818451,2.0717158985147317,1.4066332259384415,0.9282893884264986,0.4980410045977956,0.3246088371111443,0.16134278199250401,0.07955545546950067,0.09109480468345937,0.07617226416198926,0.07567699285286625,0.07878230548473389,0.05491355227916149
0.0,69.0,69.0,0.0,120.0,0.0,0.0,0.0,0.0,-107.0,0.0,-45.0,0.0,0.0,0.0,34.27253218749016,17.55503396713325,3.8856534089203687,1.9219725206471834,1.181409534885143,0.7596650106429421,0.4295637910041122,0.16819119714429365,0.17741610012553072,0.041050381592723964,0.06837852392684468,0.003081430380173056,0.048688304383008904,-0.006718664238386416,0.04958850845955813,0.019225483689802758,0.03087619286618847,6.173734139373481,3.904724147400405,2.8894292381314126,2.085953832010406,1.466169448485478,0.9381149962608939,0.5492194578654563,0.3394062349792547,0.17132377063682971,0.1230734230972276,0.055807548223528666,0.059557103866763356,0.06297521355920672,0.05453009042480191,0.0516514997295537
0.0,70.0,70.0,0.0,120.0,0.0,0.0,0.0,0.0,-107.0,0.0,-45.0,0.0,0.0,0.0,34.27253218749016,17.55503396713325,3.825217028261201,1.8984340751617381,1.227413031279214,0.7803742973117146,0.4697533438177465,0.2178065419208159,0.06553647551261194,0.07418196212574221,0.04237372142857215,0.02768476270943409,0.06439569302923072,0.01786794212190139,0.03687873550255619,0.009430330386840154,0.010262867704016796,6.2021523264160106,3.932741685535614,2.9326205518145483,2.1291272750085715,1.4585639008274214,0.9425281310226389,0.5806688831780487,0.30955947537269934,0.18631061421074416,0.14047902996277759,0.08905586796677531,0.1029058855625167,0.015904194143257173,0.08978115468851662,0.03314382125647114
0.0,71.0,71.0,0.0,120.0,0.0,0.0,0.0,0.0,-107.0,0.0,-45.0,0.0,0.0,0.0,34.27253218749016,17.55503396713325,3.9356122062841457,1.909467191969708,1.2695003288440752,0.7724519182904845,0.5202269785021661,0.26098681222390274,0.11307452761303857,0.09200515396323165,0.0519376194632851,0.010624785389943475,0.05729163857389874,0.040485774393694246,0.05211337226762432,-0.029976638693904926,-0.005084786700542891,6.269847870035772,3.9907668571323804,2.9769030386640245,2.161735871417535,1.4320523412452288,0.9024343671415904,0.5432998902651636,0.34802470088178966,0.2228154738047315,0.12670229960504387,0.07832563285745993,0.06572060960066588,0.07038033793449253,-0.0013945914210915858,0.0541967134711737
0.0,72.0,72.0,0.0,120.0,0.0,0.0,0.0,0.0,-107.0,0.0,-45.0,0.0,0.0,0.0,34.27253218749016,17.55503396713325,3.982999683783489,1.9163844922118483,1.252059728911214,0.7544288101085475,0.47221670113066133,0.23925854748425812,0.15676508318053953,-0.014764270192550541,0.0409283795485933,-0.039265129940011675,-0.010027752647650432,0.05568357255126364,-0.010501549635845023,0.057074945301087865,0.0782466746296324,6.362353653915984,4.020753540639156,2.9385281754900663,2.152905257480931,1.4681045566823283,0.9880977061777563,0.5418464944008751,0.33045779353991156,0.17881451197799422,0.11346127363944232,0.10715014565059347,0.07388382062024886,0.03676919056127988,0.020043884627025062,0.06959353761775347
0.0,73.0,73.0,0.0,120.0,0.0,0.0,0.0,0.0,-107.0,0.0,-45.0,0.0,0.0,0.0,34.27253218749016,17.55503396713325,4.127201774592786,1.9017901084105093,1.255189803737017,0.8008069556839216,0.4431243252452575,0.24508474814790182,0.12917069160579972,0.09354055944562958,0.019287630187147,0.11646458607078437,0.026475321227434505,-0.0052428026230612775,0.021346624876699083,0.020000889670203546,-0.02419870593111365,6.407473091938912,4.065039040823439,3.014298860579807,2.16230068539006,1.4767352024107867,0.9277165255912934,0.5647751495904979,0.31648201702453527,0.16038445914060662,0.11458196381996329,0.08668293606413842,0.11415184167919082,0.1096872832488035,0.0642642435473897,0.01735848394857818
0.0,74.0,74.0,0.0,120.0,0.0,0.0,0.0,0.0,-107.0,0.0,-45.0,0.0,0.0,0.0,34.27253218749016,17.55503396713325,4.049634728744495,1.9109353411482664,1.3701016471432395,0.8055551639150985,0.47404196281614924,0.23096432775438247,0.08077565326190124,0.10583730900708696,0.030284908481545803,0.016349744303819518,0.002104866006291886,0.048062482553386486,0.00921989370407902,0.0022851517013309734,0.052995980091478524,6.506866437437639,4.062954020833923,3.038879295781447,2.1737757960566233,1.51732996515424,0.9494508208644965,0.5154801226404587,0.31360537504750086,0.19888248222991237,0.11254065171402061,0.0763229220407716,0.054721342919288304,0.0885622507953581,0.02454565317147723,0.07882619936931268
0.0,75.0,75.0,0.0,120.0,0.0,0.0,0.0,0.0,-107.0,0.0,-45.0,0.0,0.0,0.0,34.27253218749016,17.55503396713325,4.187880514344263,2.061414888869299,1.3168047494974082,0.8045920667107997,0.47603491937472514,0.2600609741000906,0.06008226588183205,0.037297377144173895,0.061071717674084786,0.014254671714105131,0.0159273249189927,-0.014043366439105769,-0.03782047070923508,-0.0274519010710961,-0.044944427821258896,6.584638159034227,4.13167482909423,3.051613390837962,2.197742983567043,1.5204362070372173,0.9430995078644918,0.551193007317395,0.3314213102629605,0.20508610839049202,0.12232584945794071,0.0944335566264996,0.0584433085649879,0.0541877031795791,0.052097073970543264,0.05368499367213073
0.0,76.0,76.0,0.0,120.0,0.0,0.0,0.0,0.0,-107.0,0.0,-45.0,0.0,0.0,0.0,34.27253218749016,17.55503396713325,4.302009240211415,2.0616423770869297,1.2549769449769743,0.7578179147934518,0.50697892707857,0.23498345549664254,0.20571650262394758,0.11226857154534334,0.0029620814011329655,-0.02601814527072982,0.012268607038018523,0.014432718771863803,-0.0077135930137098765,-0.03299976497244845,0.005926453427903813,6.600703826714256,4.16431634114884,3.073217027249603,2.2913285368039893,1.4867664571695327,0.9471995552748796,0.5994020367657225,0.3547409400093718,0.25396233756843783,0.15571564091108187,0.10804135637370131,0.05559649215693857,0.01479064856949825,0.051540886389839724,0.03559573357436388
0.0,77.0,77.0,0.0,120.0,0.0,0.0,0.0,0.0,-107.0,0.0,-45.0,0.0,0.0,0.0,34.27253218749016,17.55503396713325,4.300048578345594,2.087553209025608,1.3207221994096885,0.8254146077357872,0.46150450119912334,0.21496538909712318,0.12234110329432235,0.11168563377333221,0.041967008913974674,0.004514648344768351,-0.014848179026548808,0.014401578866341004,0.028244138502825988,0.016865113006678544,-0.02785624648442027,6.644476452341197,4.22125281823052,3.0904692451790208,2.211049497334771,1.485033621975806,0.9355056283133133,0.5738854159925133,0.3381373486267884,0.2095425966174156,0.10904923014744064,0.059082242024158675,0.03568447212074442,0.036716795180214534,0.020533395970018485,0.031152821844995987
0.0,78.0,78.0,0.0,120.0,0.0,0.0,0.0,0.0,-107.0,0.0,-45.0,0.0,0.0,0.0,34.27253218749016,17.55503396713325,4.415467694657301,2.16687025218161,1.3060957229120533,0.851863761154125,0.43447553978185816,0.26064140900062427,0.10504759288535705,0.05203973188917634,0.08231808962871451,0.03742001106774926,0.02483822905313999,0.05753698517523237,-0.024892489620945136,-0.0029865677632164673,0.018519894382089536,6.773012835223879,4.261821980885142,3.1470945895033458,2.2766961342663334,1.5192949112294858,0.9737236589290844,0.604668930078911,0.3101409840777814,0.16801904941678142,0.12191519134364162,0.1084147495293772,0.06715351066566036,0.03498239401424423,0.07873178784434796,0.03455500785461393
