Line_number,Fiducial,Easting,Northing,Height,Elevation,tx_pitch,tx_roll,tx_yaw,txrx_dx,txrx_dy,txrx_dz,rx_pitch,rx_roll,rx_yaw,PX,PZ,S0X_time_1.086e-05,S0X_time_3.256e-05,S0X_time_5.426e-05,S0X_time_8.680e-05,S0X_time_1.411e-04,S0X_time_2.279e-04,S0X_time_3.689e-04,S0X_time_5.860e-04,S0X_time_9.115e-04,S0X_time_1.411e-03,S0X_time_2.192e-03,S0X_time_3.418e-03,S0X_time_5.339e-03,S0X_time_8.301e-03,S0X_time_1.338e-02,S0Z_time_1.086e-05,S0Z_time_3.256e-05,S0Z_time_5.426e-05,S0Z_time_8.680e-05,S0Z_time_1.411e-04,S0Z_time_2.279e-04,S0Z_time_3.689e-04,S0Z_time_5.860e-04,S0Z_time_9.115e-04,S0Z_time_1.411e-03,S0Z_time_2.192e-03,S0Z_time_3.418e-03,S0Z_time_5.339e-03,S0Z_time_8.301e-03,S0Z_time_1.338e-02
0.0,0.0,0.0,0.0,120.0,0.0,0.0,0.0,0.0,-107.0,0.0,-45.0,0.0,0.0,0.0,34.27253218749016,17.55503396713325,4.55507091378393,2.6614780984778,2.1661282081322164,1.7385015607716636,1.2569695911398853,0.7925545774770884,0.4189380661037484,0.18669652518984783,0.07214521208115049,0.023895038061658967,0.006775625425108082,0.0016995695378235055,0.00039581386076630325,7.957390596072237e-05,-7.888196591800647e-05,6.943098206962411,4.923554299800357,4.272214195324315,3.677741694239269,2.944567685197243,2.130389386365052,1.348163102344405,0.7469236829993161,0.3693182944186925,0.1615484097234463,0.06243615621336356,0.021718673757460165,0.0069696083053678295,0.0020946302736124674,0.00038614509653895295
0.0,1.0,1.0,0.0,120.0,0.0,0.0,0.0,0.0,-107.0,0.0,-45.0,0.0,0.0,0.0,34.27253218749016,17.55503396713325,4.559648192402374,2.68154542618795,2.2007461457528734,1.8069740651197301,1.3644580009228917,0.9129996532238436,0.5193676681262083,0.2508569796183836,0.10491393997858535,0.03740833659605032,0.011306267469209237,0.0029696538143409866,0.000705631174272898,0.00014747903235855667,-7.224155900930722e-05,6.947091422900398,4.945938276140527,4.31453589545364,3.7712144161809866,3.1140515030287133,2.354601389213082,1.575679227875564,0.9289157295144442,0.48835583589933806,0.22620239282237456,0.09189838597934563,0.033247460302513826,0.010965349346157678,0.0033606504539581044,0.0007140719335214938
0.0,2.0,2.0,0.0,120.0,0.0,0.0,0.0,0.0,-107.0,0.0,-45.0,0.0,0.0,0.0,34.27253218749016,17.55503396713325,4.5645280479486114,2.7010814350177927,2.225725017033773,1.8491399810371294,1.437215572473229,1.0051510533856662,0.60527885519908,0.3118975227123078,0.13935872942266075,0.052994420115576736,0.01698525254131747,0.004675256639942331,0.0011441286719848114,0.0002474151724574283,-5.882941669398633e-05,6.951303971133036,4.967792853361732,4.345462785471523,3.8279302120941763,3.225436752533213,2.5194989699071098,1.760305624974594,1.0907434925967419,0.6035958405039714,0.2939061019742702,0.12497762539611308,0.04696150974746775,0.015934479494032892,0.004987183818027152,0.0011520566587858206
0.0,3.0,3.0,0.0,120.0,0.0,0.0,0.0,0.0,-107.0,0.0,-45.0,0.0,0.0,0.0,34.27253218749016,17.55503396713325,4.569729253348667,2.7210184454756696,2.2479997150347217,1.8781969233207445,1.486828930715482,1.0749837781173017,0.6772854090516544,0.3679905667401298,0.1738681557968489,0.0699468654919093,0.02364922969301302,0.006812080178181109,0.0017228393261192962,0.0003846569679994572,-3.7193711067721415e-05,6.955748101859413,4.9900463236847115,4.373280430345675,3.8669337811627025,3.2997833926162854,2.6408051020305345,1.9090796824141436,1.2320332560595206,0.7119457219395534,0.3621585531844553,0.1605181021311843,0.06252243982345183,0.021822981832284274,0.006978924672528877,0.0017068803807466725
0.0,4.0,4.0,0.0,120.0,0.0,0.0,0.0,0.0,-107.0,0.0,-45.0,0.0,0.0,0.0,34.27253218749016,17.55503396713325,4.575270385303931,2.7415006771194563,2.2698714551182997,1.9014138967215466,1.5217101387511924,1.1276070787178916,0.7368581990514563,0.41839914051153726,0.20734074025309138,0.0876411717111356,0.03110372385241143,0.009354251818702303,0.0024471062387630103,0.0005633999385304153,-5.991459903754681e-06,6.96043706173284,5.012834114578936,4.400612875970659,3.8982330020034985,3.3513181368604146,2.7300962108011855,2.028450330384316,1.3540268495851546,0.8118820196647714,0.42917418573508315,0.19750967677413744,0.07957157584278152,0.028551536286618332,0.009330226828822863,0.0023825197296596977
0.0,5.0,5.0,0.0,120.0,0.0,0.0,0.0,0.0,-107.0,0.0,-45.0,0.0,0.0,0.0,34.27253218749016,17.55503396713325,4.581170892056875,2.7625526196617693,2.2919752953477883,1.922388097299126,1.5477890378594958,1.1673042990537166,0.7856887051673039,0.4630149635300074,0.2390790355566708,0.10556592920546486,0.03914958595343742,0.012261199861686433,0.0033167567316845004,0.0007866590576339646,3.5957355162188425e-05,6.96538602754499,5.036177435480632,4.428150003917067,3.9265940142266826,3.389562189302242,2.7961843608213712,2.123894889531178,1.4585874542094628,0.9028559780412773,0.49374373118421655,0.23511331833501622,0.09775835312827835,0.03602538221328011,0.01202723782216042,0.003180479376002044
0.0,6.0,6.0,0.0,120.0,0.0,0.0,0.0,0.0,-107.0,0.0,-45.0,0.0,0.0,0.0,34.27253218749016,17.55503396713325,4.587451273615126,2.784185475065828,2.3144562951944843,1.9427122401174852,1.5689826302638687,1.1976259104043594,0.8254494674012117,0.5020699778218868,0.26868149270284003,0.1233241123211084,0.04759920698599461,0.01548367033091723,0.0043270357862895785,0.0010562619365967676,8.96389945724611e-05,6.970612111088217,5.060085359404652,4.456039947792481,3.954056708768982,3.4205599190947233,2.845896727194489,2.2000048846532323,1.5477203204744439,0.9848993002652088,0.5550954417155435,0.27265761307476816,0.11675720040025024,0.04414200316841067,0.015049854683218719,0.0041001288359253565
0.0,7.0,7.0,0.0,120.0,0.0,0.0,0.0,0.0,-107.0,0.0,-45.0,0.0,0.0,0.0,34.27253218749016,17.55503396713325,4.594133096624297,2.8064086253122498,2.3373436264759073,1.963019770116386,1.587688750924108,1.2214249210355386,0.8577172489525535,0.5359678575081873,0.2959532194070757,0.14062080769249038,0.05628514798047461,0.01896850526332512,0.005469617895876691,0.001372911796419727,0.00015583138077114686,6.976134229778892,5.084565450059428,4.484309475748616,3.9814063794857,3.447894288401088,2.8844556195952684,2.260665620538059,1.6233626513736898,1.0583727773295133,0.612777889200645,0.30962171859792614,0.13627635981851347,0.05279688589979478,0.018373455655468728,0.0051390295136544105
0.0,8.0,8.0,0.0,120.0,0.0,0.0,0.0,0.0,-107.0,0.0,-45.0,0.0,0.0,0.0,34.27253218749016,17.55503396713325,4.60123901671466,2.829230755080494,2.360645638832287,1.983537921613542,1.6052695798747394,1.2408896893994255,0.8839424183898115,0.5651925966242013,0.3208384938470126,0.1572464264059394,0.06506366557003386,0.022662172293405097,0.006733580852250732,0.0017362968131146748,0.00023510115008157836,6.981973003225221,5.109625018701652,4.512965068647571,4.008915318067379,3.4735455974082585,2.9157196758165167,2.3091887220085217,1.6873121202358656,1.123809843880294,0.666568227129988,0.3456134209685555,0.15606134094921892,0.06188765954774025,0.021970388105469304,0.006293243935368231
0.0,9.0,9.0,0.0,120.0,0.0,0.0,0.0,0.0,-107.0,0.0,-45.0,0.0,0.0,0.0,34.27253218749016,17.55503396713325,4.608792811712344,2.8526603118482043,2.3843681151027454,2.0043411729567806,1.6224465616425188,1.2576138268490877,0.9054240859157315,0.5902615693320724,0.3433725242244553,0.17305981243584598,0.07381507638761764,0.02651320198825485,0.008106275779314593,0.002145226301614591,0.00032780907199395456,6.9881506647243805,5.135271593992125,4.5420110083632,4.036669504852811,3.4985372551616822,2.9424167833454566,2.3483797354745533,1.741217809128135,1.1818225991421811,0.7164031205095159,0.3803468849567686,0.17589497747298713,0.07131692617364101,0.025811213103656788,0.007557622130319603
0.0,10.0,10.0,0.0,120.0,0.0,0.0,0.0,0.0,-107.0,0.0,-45.0,0.0,0.0,0.0,34.27253218749016,17.55503396713325,4.616819410497578,2.876705699619421,2.4085165212531283,2.025453381876003,1.639577514736617,1.272699975387435,0.9232883059399338,0.6117001642288757,0.36364874436299344,0.187973099436765,0.08244234402724263,0.0304737417366426,0.009574064464647185,0.0025977784195226174,0.00043412129668738645,6.994690974021234,5.16151299477224,4.571451407727615,4.064695553576587,3.523365485324833,2.966388879921915,2.380570637548398,1.7865894144719698,1.2330488804714628,0.7623278522477029,0.41362230788937543,0.19559545943817697,0.08099407026772767,0.029865720162444636,0.008926062154244291
0.0,11.0,11.0,0.0,120.0,0.0,0.0,0.0,0.0,-107.0,0.0,-45.0,0.0,0.0,0.0,34.27253218749016,17.55503396713325,4.625344914375637,2.9013752939300357,2.433096183209278,2.0468839866302226,1.6568293906345926,1.2868753400067627,0.9384762439759318,0.6300248025430485,0.38179764468464494,0.2019389642706238,0.09086879167835675,0.0345004352320066,0.01112291833108254,0.0030914479309708245,0.0005540245023814233,7.001619136146007,5.1883572212603415,4.6012904334255955,4.0930040211694125,3.548257019714318,2.98882579464137,2.4076480825043802,1.824804212363348,1.278125129022499,0.804459523030352,0.44530831145751765,0.21501327404182172,0.09083629496384608,0.034103733030329236,0.010391743502103552
0.0,12.0,12.0,0.0,120.0,0.0,0.0,0.0,0.0,-107.0,0.0,-45.0,0.0,0.0,0.0,34.27253218749016,17.55503396713325,4.634396612182971,2.926677408724076,2.4581124429325,2.0686391002614597,1.6742761029047712,1.3005987189620196,0.9517460899748095,0.6457288856369392,0.39797329920647173,0.214940397287804,0.09903548411093026,0.03855481415586423,0.012738886290707426,0.003623286098314573,0.0006873435359822196,7.00896173048576,5.215812340531578,4.631532534467847,4.121602083446096,3.573310484352736,3.0104647989557614,2.4310928078249856,1.8571070323153023,1.3176737189784893,0.8429611286531331,0.4753271701588705,0.23402767415374995,0.10076908748146284,0.03849573142065844,0.011947333376527106
0.0,13.0,13.0,0.0,120.0,0.0,0.0,0.0,0.0,-107.0,0.0,-45.0,0.0,0.0,0.0,34.27253218749016,17.55503396713325,4.644002992887496,2.952620271368992,2.4835708012882702,2.090724320592751,1.6919494794533099,1.3141479578446462,0.9636874202279729,0.6592707272534278,0.4123444232066545,0.22698283193797333,0.10689858973574287,0.04260335546612296,0.014408445217703129,0.004190027867456754,0.000833760474656612,7.016746554638805,5.243886180180993,4.662182347796574,4.150496466428296,3.5985681944350527,3.0317453409849477,2.4520318198739575,1.884606126642964,1.352296892333154,0.8780239393775809,0.5036426559691786,0.2525430671280442,0.11072627444895906,0.04301331514462463,0.013585165236463116
0.0,14.0,14.0,0.0,120.0,0.0,0.0,0.0,0.0,-107.0,0.0,-45.0,0.0,0.0,0.0,34.27253218749016,17.55503396713325,4.654193752801618,2.979212016209545,2.5094769930122482,2.113145269988609,1.7098637918894506,1.3276851009455644,0.9747437933088944,0.6710642124100892,0.4250877842495812,0.23808829555971125,0.11442689864966488,0.04661732129356793,0.01611874976480556,0.004788203948007707,0.000992834265438686,7.025002636021612,5.272586453733299,4.693244940751611,4.179694010446557,3.6240495089697755,3.05292029121846,2.471297837242282,1.908269551741987,1.3825726618885859,0.9098559828657836,0.5302501928186795,0.2704855529609156,0.12064979288303654,0.04762953664446358,0.015297394112744353
0.0,15.0,15.0,0.0,120.0,0.0,0.0,0.0,0.0,-107.0,0.0,-45.0,0.0,0.0,0.0,34.27253218749016,17.55503396713325,4.664999800389401,3.0064606847710236,2.5358370018694107,2.135907663609748,1.7280266637046509,1.3413015289408194,0.9852388677537937,0.6814729494725862,0.43638276129498604,0.2482911436113922,0.12159959580611437,0.050572465282276755,0.01785779913855572,0.005414237058983139,0.0011640201657273901,7.0337601315016,5.301920617007265,4.724725672219455,4.209201676315145,3.649765383041999,3.0741307690460107,2.4894892070438464,1.9289253225840353,1.409050652006495,0.938674720947496,0.5551690215310962,0.28779972905707635,0.13048927434486135,0.05231912583990012,0.01707612651058177
0.0,16.0,16.0,0.0,120.0,0.0,0.0,0.0,0.0,-107.0,0.0,-45.0,0.0,0.0,0.0,34.27253218749016,17.55503396713325,4.67645325650665,3.0343742298252514,2.5626570558012487,2.1590173320771244,1.746443512101863,1.3550474009370679,0.9954022475601333,0.6908080925138225,0.44640657296618796,0.2576349279701258,0.12840433868946435,0.05444866320760207,0.019614537815471608,0.006064522622140345,0.0013466884351579396,7.0430502606791485,5.331895809934101,4.75663012538708,4.239026544414979,3.6757240577213786,3.0954538277815637,2.5070248381889937,1.9472666098672786,1.4322475217243973,0.9647023491692129,0.5784360948894685,0.304445810085995,0.1402015164937417,0.05705862819495646,0.018913528665637145
0.0,17.0,17.0,0.0,120.0,0.0,0.0,0.0,0.0,-107.0,0.0,-45.0,0.0,0.0,0.0,34.27253218749016,17.55503396713325,4.688587450184323,3.0629605211167106,2.589943620596538,2.1824802496522704,1.765119174497183,1.3689498715530708,1.0053926386121035,0.6993294189541756,0.45533011592629513,0.2661700105635093,0.13483565094806144,0.05822950754517851,0.021378905431094098,0.006735494756052448,0.0015401418887672005,7.052905241894289,5.3625188076559045,4.788964051790009,4.269175818504733,3.7019330410642772,3.1169313483663084,2.524191062126964,1.9638615986855086,1.4526424409113416,0.9881625449109958,0.6001014292912459,0.3203970745176081,0.1497498966749406,0.06182647374981882,0.0208019148919835
0.0,18.0,18.0,0.0,120.0,0.0,0.0,0.0,0.0,-107.0,0.0,-45.0,0.0,0.0,0.0,34.27253218749016,17.55503396713325,4.701436909592386,3.0922273529879116,2.6177033980484214,2.206302557367188,1.784058424550675,1.3830238294800967,1.0153171617714942,0.7072488889908147,0.4633145209248549,0.273951633411579,0.14089361373227954,0.061901893751234775,0.023141848685824428,0.007423678753463011,0.0017436320913616248,7.063358229796286,5.393795981115538,4.821733330529589,4.299656818829782,3.728399683555023,3.13858673894822,2.541179374238084,1.9791667268123927,1.4706732897900427,1.0092778947302672,0.6202246392128726,0.3356376323496309,0.15910376595024198,0.06660299201527387,0.02273381831897673
0.0,19.0,19.0,0.0,120.0,0.0,0.0,0.0,0.0,-107.0,0.0,-45.0,0.0,0.0,0.0,34.27253218749016,17.55503396713325,4.715037347698009,3.122182454581348,2.6459433281240514,2.2304905748588104,1.803266103129564,1.3972779390288483,1.0252465895784084,0.7147358045797743,0.4705085414721362,0.28103826160566486,0.1465828160181718,0.06545561803268837,0.024895305579127374,0.008125731430944017,0.00195637409471752,7.0744432532916415,5.425733267648626,4.854943939392992,4.330476960919569,3.7551312940852255,3.1604341459083543,2.5581154243893636,1.9935417487743132,1.486734109892043,1.0282675816558977,0.6388723869628211,0.35016050099149937,0.16823784915552054,0.07137038526141501,0.02470204630690088
0.0,20.0,20.0,0.0,120.0,0.0,0.0,0.0,0.0,-107.0,0.0,-45.0,0.0,0.0,0.0,34.27253218749016,17.55503396713325,4.729425642152087,3.152833503165116,2.674670593191223,2.2550508027740297,1.8227471399025257,1.411717882520583,1.035226832305916,0.7219227554431218,0.4770468236839512,0.2874901041636864,0.15191151485301482,0.06888300043782362,0.02663216998484262,0.008838470867061118,0.0021775596919790395,7.086195152807012,5.458336151797781,4.888601933878231,4.361643726010866,3.78213513941522,3.182483293458934,2.575080404589231,2.0072652061205543,1.501174068217779,1.0453451717581186,0.6561165011580519,0.36396597169087547,0.17713166711090403,0.07611267078305513,0.026699722675685305
0.0,21.0,21.0,0.0,120.0,0.0,0.0,0.0,0.0,-107.0,0.0,-45.0,0.0,0.0,0.0,34.27253218749016,17.55503396713325,4.74463980895423,3.1841881408784602,2.7038926228026634,2.2799899201035863,1.8425065546819213,1.426348015257786,1.0452872667962443,0.7289117034066638,0.4830490237225768,0.29336777942643866,0.15689095529094793,0.07217854211520383,0.028346242710042,0.009558897096383766,0.002406369197954454,7.098649515793906,5.491609656180091,4.92271343138227,4.393164630199023,3.8094184296252145,3.204741894505485,2.592126277076277,2.0205492132999407,1.5142979387526074,1.0607165000238028,0.6720325531474117,0.37706024441370706,0.18576899065438898,0.0808156010454454,0.028720318639078726
0.0,22.0,22.0,0.0,120.0,0.0,0.0,0.0,0.0,-107.0,0.0,-45.0,0.0,0.0,0.0,34.27253218749016,17.55503396713325,4.7607189694008065,3.216253994979602,2.7336170982947054,2.3053147799686395,1.8625494597018561,1.4411721638924564,1.0554465719626671,0.7357797481231398,0.48861967227316233,0.2987311268953564,0.16153480533487266,0.07533862121821784,0.030032173766651994,0.010284205297980268,0.002641981777846847,7.111842609312332,5.525558341952732,4.957284599057338,4.425047196905758,3.8369883095587585,3.227216779403212,2.60928627325143,2.0335528439629234,1.5263679167182624,1.074577733117768,0.686698725783094,0.3894543044021464,0.19413733207792197,0.08546656908542814,0.03075767407821252
0.0,23.0,23.0,0.0,120.0,0.0,0.0,0.0,0.0,-107.0,0.0,-45.0,0.0,0.0,0.0,34.27253218749016,17.55503396713325,4.777703309773381,3.2490387015413518,2.7638519569803233,2.3310324057946596,1.8828810640063747,1.4561939863735858,1.0657166910712497,0.7425842955625863,0.49384864470589845,0.30363818164759326,0.16585867047495065,0.07836122822827878,0.03168539955205684,0.011011792914421193,0.002883584356262401,7.1258113085053045,5.5601863182887135,4.992321644597667,4.457298934533156,3.864851854667076,3.249914385055189,2.6265819179536827,2.046393739867047,1.5376064740130664,1.0871137049076909,0.700194856252696,0.40116300958337175,0.2022274770712791,0.09005450511255868,0.03280601056362178
0.0,24.0,24.0,0.0,120.0,0.0,0.0,0.0,0.0,-107.0,0.0,-45.0,0.0,0.0,0.0,34.27253218749016,17.55503396713325,4.795634033226482,3.282549932464155,2.7946053959714168,2.357149988592823,1.903506677713682,1.4714171206271247,1.0761054438144533,0.7493674953511129,0.4988120805169683,0.3081443277608156,0.16987966274840202,0.08124573859785726,0.033302077867146576,0.011739261979540687,0.003130379151698474,7.14059301984263,5.595497260239185,5.027830809561872,4.489927319437949,3.893016067621192,3.272840945613788,2.6440275955957206,2.0591578273013527,1.5481999278339704,1.098496603668088,0.7126015778806764,0.41220435555174917,0.2100330587516145,0.09456976893103028,0.034859937362942586
0.0,25.0,25.0,0.0,120.0,0.0,0.0,0.0,0.0,-107.0,0.0,-45.0,0.0,0.0,0.0,34.27253218749016,17.55503396713325,4.814553303377103,3.3167954256257044,2.825885875746232,2.383674885419224,1.9244317148320398,1.4868452387247018,1.0866181996727087,0.7561599184462723,0.5035736006028873,0.31230163994477145,0.17361600874204383,0.08399271867872601,0.034879023092035555,0.012464417745713148,0.003381589900580576,7.156225598112839,5.63149443434083,5.0638183649364965,4.522939783582025,3.9214878741784576,3.2960025557047135,2.6616334353259483,2.071907207529504,1.558302408304212,1.1088850569507334,0.7239995209490543,0.4225988845421138,0.2175501742809396,0.09900404162545413,0.03691445154819758
0.0,26.0,26.0,0.0,120.0,0.0,0.0,0.0,0.0,-107.0,0.0,-45.0,0.0,0.0,0.0,34.27253218749016,17.55503396713325,4.834504179154978,3.3517830179326156,2.857702123573372,2.4106146188378563,1.9456616945048264,1.5024820628675022,1.0972589196923903,0.7629835155327489,0.508185688858665,0.31615841261715233,0.17708668856582446,0.08660375987953442,0.0364136433176853,0.0131852645095202,0.0036364668562785456,7.172747256229813,5.668180731282587,5.100290608637547,4.556343706025758,3.9502741185118015,3.3194051859426206,2.6794070824540794,2.0846863975172805,1.568039954817988,1.118423624390507,0.734468558147165,0.4323692066578543,0.22477704365882362,0.10335021896156013,0.038964933224523844
0.0,27.0,27.0,0.0,120.0,0.0,0.0,0.0,0.0,-107.0,0.0,-45.0,0.0,0.0,0.0,34.27253218749016,17.55503396713325,4.85553054053071,3.3875206809742737,2.890063136871217,2.4379768771796133,1.96720224117808,1.518331368273977,1.1080307862463088,0.769853935617415,0.512691129153775,0.31975886606280496,0.18031110319052351,0.08908133575673466,0.037903880758170964,0.013899999357764394,0.0038942906681731803,7.19019646699778,5.705558704872981,5.137253864613893,4.590146407505077,3.979381558859017,3.343054684612063,2.6973547541617617,2.097527150841135,1.5775145283454388,1.127242677811664,0.7440870965795208,0.44153960519701146,0.2317137094037024,0.10760230816752761,0.04100713682271071
0.0,28.0,28.0,0.0,120.0,0.0,0.0,0.0,0.0,-107.0,0.0,-45.0,0.0,0.0,0.0,34.27253218749016,17.55503396713325,4.877677001824597,3.424016557574567,2.922978187170632,2.4657695185112356,1.9890590878197394,1.5343969806055417,1.118936572612643,0.7767823010955535,0.5171244151845176,0.32314301169213855,0.18330877079556598,0.09142867708403947,0.039348156333484124,0.014607004405317937,0.004154375272485244,7.2086118946197155,5.743630720028979,5.174714629129437,4.624355292670225,4.008816867184862,3.366956672883256,2.7154819022238055,2.1104520842390713,1.5868077915176988,1.1354586243258449,0.7529314269462517,0.450135702584824,0.23836177499612896,0.11175532918213094,0.043037180403380365
0.0,29.0,29.0,0.0,120.0,0.0,0.0,0.0,0.0,-107.0,0.0,-45.0,0.0,0.0,0.0,34.27253218749016,17.55503396713325,4.900988825364446,3.461279004333298,2.956456821536801,2.494000564230593,2.011238067203246,1.550682781779924,1.1299788502281194,0.7837765390738963,0.5215130750212867,0.32634665360111426,0.18609905424202267,0.09364966066487591,0.04074531892056626,0.015304837975655506,0.004416069865266732,7.228032183314016,5.7823987476029926,5.212679214262591,4.658977493488898,4.038586620889053,3.3911168042072846,2.733793423153806,2.1234774239518694,1.5959845356721343,1.1431744195209659,0.761075142467207,0.4581841686162844,0.24472417922070863,0.1158052210298,0.04505152890833222
0.0,30.0,30.0,0.0,120.0,0.0,0.0,0.0,0.0,-107.0,0.0,-45.0,0.0,0.0,0.0,34.27253218749016,17.55503396713325,4.925511814561692,3.499316631336353,2.990508867572972,2.5226782058468764,2.0337451166810827,1.5671927068980938,1.141160103503164,0.7908423587384833,0.5258788749726472,0.3294015008688649,0.18870092210682513,0.095748708521182,0.04209459943787272,0.015992225083375288,0.004678760184057075,7.248495887328493,5.821864566980735,5.251153960782817,4.694020079335535,4.068697306338286,3.4155406169047713,2.7522939180228163,2.136614943859755,1.6050957384825364,1.1504803003723034,0.7685886405683483,0.46571245753064733,0.25080500291786395,0.11974875375757331,0.04704698001394321
0.0,31.0,31.0,0.0,120.0,0.0,0.0,0.0,0.0,-107.0,0.0,-45.0,0.0,0.0,0.0,34.27253218749016,17.55503396713325,4.951292199514008,3.538138342963985,3.025144436943574,2.5518108085859916,2.056586280450048,1.583930744395087,1.152482789160438,0.7979839563181018,0.5302388835109055,0.3323353651806895,0.191132745054965,0.09773069502011512,0.043395569656402976,0.01666804750827569,0.004941869147541682,7.270041352301181,5.862029869527245,5.290145308888738,4.729490127297354,4.099155322146961,3.4402334899852196,2.7709878123121388,2.14987336013474,1.6141812106876565,1.1574546795366414,0.7755387152476595,0.4727485650700012,0.25660930428839845,0.12358344615342369,0.04902064786435226
0.0,32.0,32.0,0.0,120.0,0.0,0.0,0.0,0.0,-107.0,0.0,-45.0,0.0,0.0,0.0,34.27253218749016,17.55503396713325,4.978376516079916,3.5777533802113872,3.060373928572297,2.581406912603466,2.0797677089247677,1.600900938530911,1.1639493649845045,0.8052045143959567,0.5346063898099689,0.33517241962796396,0.19341212835425675,0.09960086032339033,0.04464810543177292,0.01733133369848405,0.005204856971991737,7.292706550674387,5.902896266909815,5.3296597330653075,4.765394658076173,4.129966980988074,3.4652006974878757,2.7898793789304372,2.1632593245912393,1.623271840796525,1.1641651425089914,0.781988244360209,0.47932080029091295,0.2621429787055097,0.12730748937104458,0.05096994519650123
0.0,33.0,33.0,0.0,120.0,0.0,0.0,0.0,0.0,-107.0,0.0,-45.0,0.0,0.0,0.0,34.27253218749016,17.55503396713325,5.006811474691643,3.6181713619665805,3.0962080323525565,2.6114752360388858,2.1032956601451507,1.6181073907797554,1.1755623031259685,0.8125065490407639,0.5389916809477134,0.33793349702188435,0.19555578019605288,0.1013647292323598,0.0458523539217197,0.01798124869876361,0.005467220879553905,7.316528925205826,5.9444653476749005,5.369703744595724,4.801740639943039,4.161138513757694,3.4904474143338247,2.808972761858721,2.1767781040161314,1.6323914707761975,1.1706694950956338,0.7879959718538767,0.48545756970916215,0.26741263902317985,0.13091967650875624,0.05289256574430244
0.0,34.0,34.0,0.0,120.0,0.0,0.0,0.0,0.0,-107.0,0.0,-45.0,0.0,0.0,0.0,34.27253218749016,17.55503396713325,5.0366438209889575,3.659402325170261,3.1326577330619108,2.6420246784168224,2.127176501569407,1.6355542611527167,1.187324095680395,0.81989214688066,0.5434026877612131,0.34063640925738514,0.19757941437401252,0.10302803503170085,0.047008704284406275,0.01861708426493854,0.00572849447718357,7.341545223291279,5.986738732955845,5.410283894083084,4.838534993377923,4.1926760745649085,3.5159787221353365,2.8282719885771,2.1904340407797536,1.641558436807406,1.1770168191119432,0.7936163808449813,0.4911871733829826,0.2724255125961817,0.13441933811131404,0.05478646670529774
0.0,35.0,35.0,0.0,120.0,0.0,0.0,0.0,0.0,-107.0,0.0,-45.0,0.0,0.0,0.0,34.27253218749016,17.55503396713325,5.067920183619997,3.701456766669974,3.1697343201057855,2.6730643204699063,2.1514167137188234,1.6532457690385705,1.1992372569038476,0.8273631240560357,0.5478455129094213,0.34329627262588636,0.19949768494771722,0.10459664829876414,0.048117761336237845,0.019238249293791143,0.005988246870298144,7.367791324162968,6.029718139827786,5.451406772551995,4.8757845924578,4.224585747957893,3.541799614689199,2.8477809778041308,2.2042308598798326,1.650786816402582,1.1832485027327528,0.7988996504037449,0.496537613794125,0.2771893515896241,0.137806283493445,0.05664985149734746
0.0,36.0,36.0,0.0,120.0,0.0,0.0,0.0,0.0,-107.0,0.0,-45.0,0.0,0.0,0.0,34.27253218749016,17.55503396713325,5.100686919640553,3.7443456813885683,3.207449394752024,2.7046034282910685,2.176022895291654,1.6711861944837139,1.2113043228199318,0.8349211314417597,0.5523248560263616,0.3459258273549151,0.20132414980598143,0.10607651086755612,0.04918032167077193,0.019844260667831952,0.006246081604613094,7.39530207051931,6.073405458748584,5.49307905189786,4.913496322333547,4.256873599551011,3.5679149889748225,2.8675035224798497,2.218171884990638,1.6600874189838357,1.1893992217100096,0.8038916865482048,0.5015364190570727,0.2817123536167879,0.14108074770517753,0.05848115349939486
0.0,37.0,37.0,0.0,120.0,0.0,0.0,0.0,0.0,-107.0,0.0,-45.0,0.0,0.0,0.0,34.27253218749016,17.55503396713325,5.134989992360502,3.788080574342107,3.2458148417724115,2.7366514842656144,2.201001759557644,1.689379882675651,1.2235278492773571,0.8425677230998734,0.5568443513462625,0.3485357426340353,0.2030712596022506,0.10747357523504164,0.050197351791043,0.02043473458638965,0.00650163551760525,7.424111091233006,6.1178027861877915,5.535307559272237,4.951677186317413,4.289545743509247,3.594329629420398,2.8874432594729478,2.2322601913203832,1.6694685627603527,1.1954978536158662,0.8086342168965034,0.5062104821511915,0.2860030902440904,0.14424334389134666,0.06027902058774422
0.0,38.0,38.0,0.0,120.0,0.0,0.0,0.0,0.0,-107.0,0.0,-45.0,0.0,0.0,0.0,34.27253218749016,17.55503396713325,5.1708747763514324,3.8326735135291297,3.284842866578799,2.7692181460063416,2.2263601266384754,1.7078312397454734,1.2359104263395042,0.8503043920453413,0.5614068350934964,0.35113490037736966,0.20475036844271421,0.10879374968593497,0.05116996787632039,0.02100937843008299,0.006754577142700168,7.454250511681281,6.162912264181612,5.578098859228667,4.99033375281641,4.322607896615328,3.621048365237496,2.907603916290163,2.2464985346911304,1.6789367397627726,1.201568299084021,0.8131649401353903,0.5105859175198513,0.2900704413751141,0.14729502078343595,0.062042293869910836
0.0,39.0,39.0,0.0,120.0,0.0,0.0,0.0,0.0,-107.0,0.0,-45.0,0.0,0.0,0.0,34.27253218749016,17.55503396713325,5.2083859088435895,3.8781371514419076,3.3245459979217715,2.8023132815019554,2.252104947991991,1.726544737582526,1.2484546636280738,0.8581326044306161,0.5660145480579367,0.3537306560510783,0.20637176212850813,0.11004284944455352,0.05209941687275482,0.021567983173795127,0.0070046055700935,7.485750890255662,6.208736409748943,5.621459737766672,5.029472789852857,4.35606592056914,3.6480758983227157,2.927989037865785,2.2608895819616115,1.6884970241290047,1.2076302469204074,0.8175177127533683,0.5146879368468076,0.2939235341605697,0.15023702478485987,0.06376999940715652
0.0,40.0,40.0,0.0,120.0,0.0,0.0,0.0,0.0,-107.0,0.0,-45.0,0.0,0.0,0.0,34.27253218749016,17.55503396713325,5.247567136969463,3.924484747020573,3.364937089982203,2.8359469669202126,2.278243300686192,1.7455249147662233,1.261163196662591,0.8660538125886444,0.5706692937392286,0.35632907236589356,0.2079447007259419,0.11122655393739439,0.052987058680130344,0.02211041635508537,0.007251448910515867,7.518640988316769,6.255278032960918,5.665397036766307,5.06910105359736,4.389925638244344,3.675416872669434,2.948602091763277,2.2754358806372172,1.6981534526291782,1.213699834542568,0.8217227697282928,0.5185407440812849,0.2975716852845646,0.15307086640234488,0.06546133169778849
0.0,41.0,41.0,0.0,120.0,0.0,0.0,0.0,0.0,-107.0,0.0,-45.0,0.0,0.0,0.0,34.27253218749016,17.55503396713325,5.28846116974864,3.9717301852663933,3.406029328997358,2.870129492057737,2.3047823907482474,1.7647763782842556,1.2740386879671957,0.8740694643682385,0.5753725572918297,0.3589351266325301,0.2094774717941936,0.11235037024390868,0.053834349268711536,0.022636615577590367,0.007494862826914214,7.552947591706698,6.302540261366915,5.709917657502921,5.109225294989677,4.424192840553243,3.7030758806528223,2.9694464747759333,2.2901398796148733,1.7079092948441905,1.2197902311543722,0.8258069656316682,0.5221674503101763,0.3010243460412434,0.15579829047212546,0.0671156402942515
0.0,42.0,42.0,0.0,120.0,0.0,0.0,0.0,0.0,-107.0,0.0,-45.0,0.0,0.0,0.0,34.27253218749016,17.55503396713325,5.331109539899124,4.019887993402524,3.4478362403479146,2.9048713660635475,2.331729556662769,1.7843038053834241,1.2870838282576722,0.8821810085378751,0.580125594537178,0.3615528921586444,0.21097745121039174,0.11341960265092585,0.05464282462267946,0.02314658252018822,0.0077346290665888575,7.588695342806798,6.350526558156696,5.755028564448532,5.149852266423319,4.458873293352738,3.731057469403528,2.9905255194735365,2.305003942870366,1.717767254771557,1.225912142873611,0.8297940283509802,0.5255900081517814,0.3042910498410344,0.15842124973283556,0.06873241722242875
0.0,43.0,43.0,0.0,120.0,0.0,0.0,0.0,0.0,-107.0,0.0,-45.0,0.0,0.0,0.0,34.27253218749016,17.55503396713325,5.37555247909318,4.068973353882222,3.4903716960904383,2.940183323436824,2.3590922730107593,1.8041119455456356,1.3003013376756136,0.8903898979020012,0.58492949784685,0.3641856950736953,0.2124511688550328,0.11443932812171774,0.05541408545531578,0.023640377412785313,0.007970554010729623,7.625906587292944,6.399240734245431,5.800736789337115,5.190988728455837,4.49397274436147,3.7593661472319684,3.0118425006365803,2.320030359100361,1.7277296198603758,1.2320742457248468,0.8337048180323215,0.5288291649760208,0.3073813620341106,0.16094188128286882,0.07031128521367845
0.0,44.0,44.0,0.0,120.0,0.0,0.0,0.0,0.0,-107.0,0.0,-45.0,0.0,0.0,0.0,34.27253218749016,17.55503396713325,5.421828816373845,4.119002121441914,3.533649930135722,2.9760763375516888,2.386878159899748,1.8242056228208006,1.3136939605712075,0.8986975930304028,0.5897852444429733,0.3668362484120072,0.2139043767757973,0.11541437741406553,0.05614978267226234,0.02411811393585214,0.008202467333624109,7.664601262491712,6.448687010176115,5.847049521265888,5.2326415795228485,4.529497084562929,3.7880065044646627,3.033400559549643,2.335221314787939,1.7377984030029416,1.2382835420711311,0.8375575872269565,0.5319044336761892,0.310304832071934,0.16336248553313862,0.0718519891528887
0.0,45.0,45.0,0.0,120.0,0.0,0.0,0.0,0.0,-107.0,0.0,-45.0,0.0,0.0,0.0,34.27253218749016,17.55503396713325,5.469975878739487,4.169990816940665,3.577685531428949,3.01256161202639,2.415094975192447,1.8445897378197935,1.3272644804082323,0.9071055593410043,0.5946937313003132,0.36950676575394253,0.21534211803883277,0.1163493213849719,0.05685160362139327,0.02457995449025707,0.008430220465045346,7.70479673981347,6.498869902876512,5.893973933823167,5.274817608398714,4.565452035840761,3.816982983493605,3.0552028795470187,2.350578971430683,1.7479753542875913,1.24454569303974,0.8413682284760985,0.5348340804675782,0.3130709483196031,0.16568550703617016,0.07335438096468964
0.0,46.0,46.0,0.0,120.0,0.0,0.0,0.0,0.0,-107.0,0.0,-45.0,0.0,0.0,0.0,34.27253218749016,17.55503396713325,5.520029356695171,4.221956616836505,3.622493511372082,3.0496506339413605,2.443750581325345,1.8652692830229824,1.3410157157918452,0.9156152692221871,0.5996558000977651,0.37219905653393326,0.21676879445968542,0.11724846217735403,0.057521259118885934,0.025026105800328824,0.008653685173432924,7.746507754779075,6.549794314108047,5.941517285813237,5.3175234928151776,4.601843206191663,3.8462999204264876,3.077252668430904,2.366105459926229,1.758262028642211,1.2508652731878271,0.8451505171997294,0.5376351270156646,0.31568909555156116,0.16791351711004185,0.07481841119256365
0.0,47.0,47.0,0.0,120.0,0.0,0.0,0.0,0.0,-107.0,0.0,-45.0,0.0,0.0,0.0,34.27253218749016,17.55503396713325,5.572023482266222,4.274917436236537,3.668089185397228,3.0873550654320128,2.472853063893064,1.8862493092752015,1.3549505196675178,0.9242282048585204,0.6046722550870499,0.3749146052652649,0.2181882320353047,0.11811582878781744,0.058160471295357306,0.02545681480535265,0.008872752764987335,7.78974639373824,6.601465415311151,5.98968685672497,5.360766114249753,4.63867634973112,3.875961728862592,3.0995530301283925,2.381802833353625,1.7686598787780698,1.2572459665378783,0.8489163446289806,0.5403233654142274,0.3181685154161652,0.1700491978842343,0.07624412368547982
0.0,48.0,48.0,0.0,120.0,0.0,0.0,0.0,0.0,-107.0,0.0,-45.0,0.0,0.0,0.0,34.27253218749016,17.55503396713325,5.625990851522887,4.328891863218674,3.714488281042401,3.1256868559762814,2.5024106442267224,1.9075349579753424,1.3690717791679277,0.9329458582041891,0.609743875566526,0.37765463692912377,0.21960374332820262,0.11895517642256219,0.05877096232921904,0.02587236479382068,0.00908733249867489,7.834522039032103,6.653888754864734,6.038490065860535,5.404552376779238,4.675957229869756,3.9059728176062207,3.1221070407779066,2.3976730990589097,1.7791702581100892,1.2636907514169413,0.8526759308506694,0.542913384988334,0.32051827023949175,0.17209532731058613,0.07763164614655141
0.0,49.0,49.0,0.0,120.0,0.0,0.0,0.0,0.0,-107.0,0.0,-45.0,0.0,0.0,0.0,34.27253218749016,17.55503396713325,5.6819624857177455,4.383899181119648,3.7617069313006852,3.1646582261469285,2.532431700684394,1.9291314577631566,1.3833824183614585,0.9417697315737776,0.6148714246037729,0.3804201705075411,0.22101818598840842,0.11976998921916455,0.05935444407712503,0.02627307175246017,0.009297350511070853,7.880841398044301,6.707070216222194,6.08793443487694,5.448889227487584,4.713691631371261,3.9363375941454803,3.1449177538053754,2.4137182240588406,1.789794442046745,1.2702020438255226,0.8564380236783271,0.5454186084841318,0.32274721025194386,0.17405476509430118,0.07898118285777914
0.0,50.0,50.0,0.0,120.0,0.0,0.0,0.0,0.0,-107.0,0.0,-45.0,0.0,0.0,0.0,34.27253218749016,17.55503396713325,5.73996790237389,4.439959378188767,3.8097616787487816,3.204281669636826,2.5629247779959745,1.9510441253412507,1.3978853999603824,0.9507013384265398,0.6200556550695494,0.38321206248216294,0.22243401704562496,0.12056348580818567,0.059912608636868134,0.026659280900335227,0.009502748748079182,7.928708561437689,6.761015997906047,6.138027583214268,5.493783667847373,4.751885366497319,3.9670604701624264,3.1679882048539265,2.429940140048454,1.80053364348375,1.2767818136508722,0.8602100809703515,0.5478513360754276,0.32486394442104066,0.17593043933675434,0.08029300809557122
0.0,51.0,51.0,0.0,120.0,0.0,0.0,0.0,0.0,-107.0,0.0,-45.0,0.0,0.0,0.0,34.27253218749016,17.55503396713325,5.80003517421063,4.497093139807321,3.858669499336977,3.244570001130335,2.59389858892772,1.9732783600769133,1.412583728964956,0.9597422042519663,0.6252973136314214,0.38603104199105,0.22385334273106103,0.12133862723430484,0.060447119860370505,0.02703136338559005,0.009703483938107216,7.978125114410478,6.815732637998343,6.188777272843777,5.539242771808335,4.790544247297791,3.9981458808444,3.191321411860916,2.446340749658441,1.8113890238545842,1.2834316783417266,0.8639984362800857,0.5502227955372332,0.3268768149858908,0.17772533376882596,0.08156746034647934
0.0,52.0,52.0,0.0,120.0,0.0,0.0,0.0,0.0,-107.0,0.0,-45.0,0.0,0.0,0.0,34.27253218749016,17.55503396713325,5.862191082409431,4.555321881958266,3.9084478263761087,3.285536350068596,2.6253620050926885,1.9958396569610257,1.4274804506224215,0.9688938681285513,0.630597143561308,0.38887773894860217,0.2252779637992083,0.12209812676922896,0.060959605826136784,0.02738971312774496,0.009899526716791548,8.029090288042939,6.8712269967722195,6.240191386708128,5.585273660713647,4.829674108114596,4.02959828881297,3.2149203803978597,2.4629219301988776,1.8223617019604745,1.2901529777922798,0.8678084481705157,0.5525431970436118,0.3287938757280664,0.17944247549308928,0.0828049367803507
0.0,53.0,53.0,0.0,120.0,0.0,0.0,0.0,0.0,-107.0,0.0,-45.0,0.0,0.0,0.0,34.27253218749016,17.55503396713325,5.926461425108472,4.614667809749466,3.9591144880523745,3.3271939917686,2.6573240886834544,2.01873363081093,1.442578640134002,0.9781578850609667,0.6359558890333793,0.39175270507094295,0.2267094167879609,0.12284446111915732,0.06145165227058405,0.027734743800302913,0.010090860514876896,8.081601043354997,6.92750610535664,6.292277815051048,5.6318835549838315,4.869281049847175,4.061422250583339,3.2387882116312126,2.4796854493271754,1.8334527480078788,1.296946853283797,0.8716446278191528,0.5548217920348564,0.3306228740449414,0.181084923021446,0.08400589046395189
0.0,54.0,54.0,0.0,120.0,0.0,0.0,0.0,0.0,-107.0,0.0,-45.0,0.0,0.0,0.0,34.27253218749016,17.55503396713325,5.992870990567082,4.675153834260491,4.01068778892467,3.3695565842379214,2.689794090896271,2.0419659804863612,1.457881425397679,0.9875358223683843,0.6413742932983155,0.3946564337913626,0.22814900988319034,0.12357988292933546,0.06192479694310284,0.028066885920864485,0.010277480856779375,8.135652341452735,6.9845773166688465,6.345044618407921,5.679079741461293,4.909371083557172,4.093622280477368,3.2629279393984163,2.496633118693775,1.8446632108866252,1.303814261493032,0.8755107678671648,0.5570669317626077,0.33237123640234734,0.18265575519418997,0.08517082176570025
0.0,55.0,55.0,0.0,120.0,0.0,0.0,0.0,0.0,-107.0,0.0,-45.0,0.0,0.0,0.0,34.27253218749016,17.55503396713325,6.061443842981767,4.736803622361838,4.063186506803588,3.412638100193588,2.72278145880551,2.065542513052871,1.4733919857886684,0.9970292592360135,0.6468530990521537,0.3975893747903801,0.2295978551659312,0.1243064339337047,0.06238052487949797,0.028386584070094867,0.010459394664942754,8.191237348948219,7.04244821210751,6.398499918904934,5.72686949589748,4.949950128184318,4.126202736507399,3.287342483501612,2.5137668549792993,1.855994133183009,1.3107559973242986,0.8794100514681612,0.5592861275337518,0.33404605737418197,0.18415806037294413,0.08630027162630562
0.0,56.0,56.0,0.0,120.0,0.0,0.0,0.0,0.0,-107.0,0.0,-45.0,0.0,0.0,0.0,34.27253218749016,17.55503396713325,6.132203543956275,4.799641612231466,4.1166299231453625,3.4564528609689673,2.756295850743029,2.08946911278933,1.4891135496913992,1.0066397911452933,0.6523930537248174,0.4005519418483615,0.23105689813567906,0.12502595833354846,0.06282026455741394,0.028694294252162186,0.010636619331558914,8.24834772154669,7.101126681121484,6.452652036960522,5.775260273015806,4.991024258862684,4.159168150272554,3.312034875170569,2.531088464878535,1.8674465184475222,1.317772774441658,0.8833451283368643,0.5614861137056115,0.3356540923218148,0.18559492552586976,0.08739482574529017
0.0,57.0,57.0,0.0,120.0,0.0,0.0,0.0,0.0,-107.0,0.0,-45.0,0.0,0.0,0.0,34.27253218749016,17.55503396713325,6.205173398051099,4.863693048700591,4.171037881241375,3.5010155981957554,2.790347158355837,2.113751713757179,1.5050494170779996,1.0163690219926182,0.6579949102019617,0.4035445222033536,0.23252694244479788,0.1257401165846215,0.06324538487192453,0.028990481351768668,0.0108091824619703,8.306973916286912,7.160620935210913,6.507509476084536,5.824259626324413,5.032599539670876,4.1925230894242365,3.3370081687871305,2.5485997438622077,1.879021350553778,1.3248652251917863,0.8873182017578567,0.5636729065862169,0.33720175283213205,0.186969426410666,0.08845510761973935
0.0,58.0,58.0,0.0,120.0,0.0,0.0,0.0,0.0,-107.0,0.0,-45.0,0.0,0.0,0.0,34.27253218749016,17.55503396713325,6.280376824209366,4.9289839642703095,4.226430634781668,3.5463411761345163,2.8249453357818046,2.1383965172692503,1.521202880353015,1.0262185943444289,0.6636594176472003,0.4065674854859789,0.23400867125875938,0.1264503991578614,0.0636571928818213,0.029275616714697833,0.010977119562659952,8.36710517551379,7.220939202836095,6.563080674624881,5.873875134112157,5.074682264217278,4.226272210693755,3.362265380367119,2.5663024990349723,1.8907195934015772,1.3320339181658205,0.8913310981650209,0.5658518626846152,0.33869510517288737,0.1882846180577055,0.08948177389909805
0.0,59.0,59.0,0.0,120.0,0.0,0.0,0.0,0.0,-107.0,0.0,-45.0,0.0,0.0,0.0,34.27253218749016,17.55503396713325,6.357837473629281,4.995541196301478,4.282829024942511,3.592444917005227,2.860100627145787,2.1634097613059797,1.5375773076073425,1.036190159703772,0.669387332424372,0.4096211860616695,0.2355026667130355,0.12715813987125227,0.06405693230026417,0.029550175865590594,0.011140475060221616,8.428730081664996,7.282090057395141,6.6193743034791925,5.92411453405854,5.11727872922827,4.2604201762007445,3.387809572931678,2.5841985254734157,1.9025421981169028,1.3392793716523226,0.8953853268261842,0.5680277350203704,0.34013987133284335,0.18954352579228365,0.09047551298866599
0.0,60.0,60.0,0.0,120.0,0.0,0.0,0.0,0.0,-107.0,0.0,-45.0,0.0,0.0,0.0,34.27253218749016,17.55503396713325,6.437579567846269,5.063392409229032,4.340254449203528,3.6393425123292924,2.895823492813879,2.1887977992795635,1.5541761180201217,1.0462853889286559,0.6751794151184103,0.41270596776726987,0.23700942601445962,0.12786452897921038,0.06444578262863557,0.02981463634681135,0.01129930117865919,8.491836718345107,7.344082309236261,6.676399161270612,5.9749856739031,5.160395308202546,4.294971691750854,3.4136438295699087,2.602289618108182,1.9144901033799313,1.346602064359485,0.8994821312031948,0.5702047268533188,0.3415414324532683,0.19074913680950983,0.09143704147943663
0.0,61.0,61.0,0.0,120.0,0.0,0.0,0.0,0.0,-107.0,0.0,-45.0,0.0,0.0,0.0,34.27253218749016,17.55503396713325,6.5196281825071285,5.132566114368461,4.39872887559648,3.687050037130317,2.9321246153107023,2.2145671019066246,1.5710027832521773,1.0565059728741246,0.6810364309535669,0.4158221668333188,0.23852937540003472,0.1285706257217937,0.06482485889410439,0.03006947569131244,0.011453657364930004,8.55641290413893,7.406925013207244,6.734164172168168,6.026496512819551,5.204038455145612,4.329931509228689,3.4397712561931932,2.620577573735058,1.9265642374502752,1.354002443551623,0.903622532769148,0.5723865426379313,0.3429048343450581,0.19190439233849252,0.09236710130197746
0.0,62.0,62.0,0.0,120.0,0.0,0.0,0.0,0.0,-107.0,0.0,-45.0,0.0,0.0,0.0,34.27253218749016,17.55503396713325,6.604009531531778,5.203091701153808,4.458274859631383,3.7355839692781387,2.969014908233988,2.240724254700237,1.5880608282352402,1.066853623983203,0.6869591498409565,0.4189701141608673,0.24006288203954015,0.12927737027886288,0.06519521192394517,0.03031516953004092,0.01160360976774494,8.622446406801208,7.470627485362461,6.7926783849622465,6.078655118070398,5.248214702367029,4.3653044255571265,3.4661949882043936,2.6390641911382953,1.9387655205923255,1.361480931136006,0.9078073682759639,0.5745764359678956,0.3442347948301323,0.1930121804171667,0.09326645691249469
0.0,63.0,63.0,0.0,120.0,0.0,0.0,0.0,0.0,-107.0,0.0,-45.0,0.0,0.0,0.0,34.27253218749016,17.55503396713325,6.690751321382232,5.274999578736451,4.518915664348717,3.7849613023609647,3.006505559399788,2.267275871985543,1.6053538293945222,1.0773300920074271,0.6929483413225441,0.42215013775795024,0.24161026422894943,0.12998559500021406,0.06555782911661162,0.030552189829573934,0.011749231543643109,8.689925205222591,7.535199360181066,6.8519509712401545,6.131469599105729,5.292930541527314,4.4010952272627755,3.492918276421558,2.657751236454241,1.9510948792617406,1.3690379248322133,0.9120373220637299,0.5767772542453135,0.3455357126618983,0.19407532930239738,0.0941358916681612
0.0,64.0,64.0,0.0,120.0,0.0,0.0,0.0,0.0,-107.0,0.0,-45.0,0.0,0.0,0.0,34.27253218749016,17.55503396713325,6.779882733895329,5.348320897630974,4.580674900761096,3.835199209828847,3.0446078837578097,2.2942288650374105,1.6228854518723843,1.0879371043803356,0.6990047963825499,0.4253625604370909,0.24317179987232304,0.13069603518978712,0.06591363552258568,0.030781003302357703,0.011890598941304658,8.758837399346136,7.600650456593956,6.911991205264093,6.184948265434378,5.338192801376422,4.437308908983837,3.5199442251747,2.6766405543625713,1.9635532098992587,1.3766738132184249,0.9163129498927717,0.5789914808555765,0.3468116776546152,0.1950966014894311,0.09497620769421924
0.0,65.0,65.0,0.0,120.0,0.0,0.0,0.0,0.0,-107.0,0.0,-45.0,0.0,0.0,0.0,34.27253218749016,17.55503396713325,6.871434888204815,5.423087938800745,4.643576897043864,3.8863154061468395,3.0833335121731413,2.321590193774365,1.640659396455906,1.0986764344680198,0.7051293037585699,0.4286077051372246,0.24474773351535348,0.1314093388444066,0.06626349542284347,0.03100206990175634,0.012027793940608962,8.829171683528385,7.6669909723198755,6.972808541767898,6.2390994928219214,5.384008298241879,4.473950444237032,3.547276047915311,2.6957339679700447,1.9761414151747836,1.3843889679203938,0.9206347037522933,0.5812212731132153,0.34806648203263796,0.19607868841703718,0.09578822114763863
0.0,66.0,66.0,0.0,120.0,0.0,0.0,0.0,0.0,-107.0,0.0,-45.0,0.0,0.0,0.0,34.27253218749016,17.55503396713325,6.965440970572174,5.499334094603698,4.707646588750786,3.9383280231788445,3.122694330460157,2.34936694533387,1.6586794282782902,1.109549889380079,0.7113226591571863,0.4318858889645061,0.24633828490278542,0.1321260750894188,0.06660821424862819,0.03121584151625645,0.01216090243715812,8.900917502596933,7.734231447591636,7.034412676670662,6.293931841948352,5.430384079798375,4.511025060671484,3.5749172073677804,2.71503341016563,1.9888602267214728,1.3921837608262788,0.9250029633858243,0.5834684945311835,0.34930363165620126,0.19702420694143993,0.09657276766647464
0.0,67.0,67.0,0.0,120.0,0.0,0.0,0.0,0.0,-107.0,0.0,-45.0,0.0,0.0,0.0,34.27253218749016,17.55503396713325,7.061936512678947,5.577093993195231,4.772909574559528,3.9912556286598115,3.1627025022359336,2.377566339276498,1.6769493617194493,1.120559280115323,0.7175856639259575,0.4351974381260599,0.2479436470602803,0.13284674473389346,0.06694854023795377,0.03142276070483874,0.012290013088958194,8.974065325179218,7.802382618249523,7.096813428694786,6.349453816631339,5.477327048450726,4.548537709274646,3.6028708116260075,2.7345406493661666,2.001710672761295,1.4000585335630806,0.9294180133315548,0.5857347561862111,0.3505263611350543,0.19793569210660367,0.09733068025969766
0.0,68.0,68.0,0.0,120.0,0.0,0.0,0.0,0.0,-107.0,0.0,-45.0,0.0,0.0,0.0,34.27253218749016,17.55503396713325,7.160959726117052,5.656403555081556,4.839392151470725,4.045117203962447,3.2033704631616837,2.4061957283824165,1.6954730750392162,1.1317064484791417,0.7239191267823527,0.43854267594427637,0.2495639964307632,0.13357178615997675,0.06728516700941226,0.0316232596863459,0.012415217133565635,9.048607054933345,7.871455394705968,7.160020913808911,6.4056740835260095,5.524844278314784,4.586493524228147,3.631140132026489,2.7542575253577977,2.0146936815630383,1.4080136264823382,0.933880088385728,0.5880214384297318,0.3517376449808667,0.19881559645685631,0.09806280444377995
0.0,69.0,69.0,0.0,120.0,0.0,0.0,0.0,0.0,-107.0,0.0,-45.0,0.0,0.0,0.0,34.27253218749016,17.55503396713325,7.262552046764036,5.737300012962798,4.907121403476716,4.099932146328307,3.244710927550086,2.4352626032801887,1.7142545087831178,1.1429932630113158,0.7303238637650445,0.44192192539980935,0.25119949526019425,0.1343015826882519,0.06761873588676051,0.031817759396897266,0.012536608212570821,9.124536407021338,7.941460691014175,7.224045545692758,6.462601459861675,5.572942956530825,4.624897749591335,3.6597285171842175,2.774185910340835,2.0278101500238686,1.4160493751552994,0.9383893785713056,0.5903297188520803,0.35294021139640486,0.19966628676926218,0.0987699934819108
0.0,70.0,70.0,0.0,120.0,0.0,0.0,0.0,0.0,-107.0,0.0,-45.0,0.0,0.0,0.0,34.27253218749016,17.55503396713325,7.36675888454215,5.819821816354291,4.9761253107146395,4.155720279657889,3.286736890156338,2.4647745977951447,1.7332976654287848,1.154421617391226,0.7368006983727342,0.44533551038360797,0.25285029396046704,0.13503646911255315,0.0679498383622235,0.03200666868056409,0.012654282610387294,9.201849146100315,8.012409251499092,7.288898007843068,6.52024493197721,5.621630353627018,4.663755706867371,3.688639353979715,2.7943276911607806,2.041060976155098,1.4241661091752262,0.9429460351991232,0.5926605969452489,0.3541365559956215,0.2004900416170865,0.0994531048503368
0.0,71.0,71.0,0.0,120.0,0.0,0.0,0.0,0.0,-107.0,0.0,-45.0,0.0,0.0,0.0,34.27253218749016,17.55503396713325,7.473630507097439,5.904008410375994,5.0464328594171395,4.212501870691424,3.329461587850831,2.494739445954982,1.7526066085621588,1.1659934569375665,0.7433504477128708,0.4487837606032315,0.2545165322624319,0.13577673769522755,0.06827901863040757,0.032190383594704795,0.012768338912218883,9.280542931131496,8.084311506735913,7.354589103892359,6.5786136305646306,5.670913770058391,4.703072797083917,3.717876129900022,2.814684751830086,2.054447059858081,1.4323641532630642,0.9475501783491866,0.5950149155069533,0.3553289554071947,0.20128904969276643,0.10011299672134488
0.0,72.0,72.0,0.0,120.0,0.0,0.0,0.0,0.0,-107.0,0.0,-45.0,0.0,0.0,0.0,34.27253218749016,17.55503396713325,7.5832226550395925,5.989899864066346,5.1180740720382,4.270297682997994,3.372898538278896,2.525165072639409,1.7721854845675846,1.1777107286033406,0.7499739468909686,0.45226700382438284,0.25619834324405205,0.1365226429200962,0.06860677624212845,0.0323692868649475,0.01287887838087435,9.360616809551065,8.15717781968116,7.421129707710023,6.6377169824935445,5.720800635993524,4.742854520596202,3.7474423370904164,2.835258995100821,2.0679693089955986,1.4406438259361898,0.9522019024532149,0.597393380272488,0.3565194805796903,0.2020654087054864,0.10075052607209171
0.0,73.0,73.0,0.0,120.0,0.0,0.0,0.0,0.0,-107.0,0.0,-45.0,0.0,0.0,0.0,34.27253218749016,17.55503396713325,7.69559654016861,6.077536645274034,5.191079981849236,4.329129096580721,3.417061587109211,2.5560596431062765,1.792038497312556,1.1895753669905023,0.7566720615392974,0.4557855618570141,0.25789585571841206,0.13727440605756178,0.06893356869505825,0.03254374745297882,0.012986004170822288,9.442070326639769,8.231019059720222,7.4885306213927745,6.69756478329966,5.771298552411198,4.783106450555729,3.777341415721288,2.8560523751581446,2.0816286327319458,1.4490054424656906,0.9569012800229199,0.5997965775164888,0.3577100098716046,0.20282112475568603,0.10136654631286993
0.0,74.0,74.0,0.0,120.0,0.0,0.0,0.0,0.0,-107.0,0.0,-45.0,0.0,0.0,0.0,34.27253218749016,17.55503396713325,7.810817787744666,6.166959817866426,5.265482426966765,4.389018160595353,3.4619648042294937,2.5874314324859107,1.8121699079118545,1.2015893662154455,0.7634456489296243,0.45933976369192187,0.2596091922579091,0.13803221992832856,0.06925981395031074,0.03271412017484781,0.01308981735747629,9.524902779653258,8.305847267001347,7.556802212509679,6.758166979741069,5.822415167744362,4.8238342296263115,3.8075769245327655,2.87706684680726,2.0954259424305612,1.457449316073784,0.9616483666268211,0.6022249888141181,0.3589022420760567,0.20355811212639222,0.10196190459635027
0.0,75.0,75.0,0.0,120.0,0.0,0.0,0.0,0.0,-107.0,0.0,-45.0,0.0,0.0,0.0,34.27253218749016,17.55503396713325,7.928954595565387,6.25821190113626,5.341313670332171,4.449987668008665,3.5076225236314063,2.619288887760518,1.8325840456593006,1.2137547468751655,0.770295574993149,0.4629299400791687,0.2613384716557294,0.1387962523182968,0.06958589300870513,0.03288074547036186,0.0131904164893566,9.609114496985228,8.381676550048194,7.625954498098285,6.819533659033809,5.874158267851702,4.865043571525552,3.838152473590778,2.8983043847293906,2.1093621542718477,1.4659757576744785,0.966443203732123,0.6046790048856813,0.3600977088042937,0.20427819356720564,0.1025374446561245
0.0,76.0,76.0,0.0,120.0,0.0,0.0,0.0,0.0,-107.0,0.0,-45.0,0.0,0.0,0.0,34.27253218749016,17.55503396713325,8.05007752791214,6.351338481738572,5.418606013950935,4.512061156773104,3.5540493575861296,2.651640627248802,1.8532853115656813,1.2260735563258098,0.7772227144135692,0.46655642368561573,0.2630838097449212,0.13956664926248435,0.06991215239323265,0.03304394925108333,0.013287899933270422,9.694710698961602,8.458523141840628,7.695997499395627,6.8816749107109185,5.92653580410406,4.906740254285665,3.869071727006267,2.919766984624153,2.1234381899875903,1.4745850764669441,0.9712858212819793,0.6071589376364349,0.3612977864972272,0.20498310095583,0.10309401031343961
0.0,77.0,77.0,0.0,120.0,0.0,0.0,0.0,0.0,-107.0,0.0,-45.0,0.0,0.0,0.0,34.27253218749016,17.55503396713325,8.174263764301543,6.446389787873253,5.497391692561537,4.575262806155313,3.6012602226314057,2.684495434869069,1.8742781827158255,1.238547869026597,0.7842279507049267,0.4702195492428303,0.264845320060437,0.14034353794766885,0.07023890655880163,0.03320404283425049,0.013382373474240478,9.781705356199456,8.536403864341391,7.766942010187269,6.944600695895091,5.979555918141444,4.948930113920565,3.9003384044498888,2.9414566644692095,2.1376549776284195,1.4832775805056622,0.9761762398129625,0.6096650307692729,0.3625037079496467,0.20567447632133493,0.10363244632967994
0.0,78.0,78.0,0.0,120.0,0.0,0.0,0.0,0.0,-107.0,0.0,-45.0,0.0,0.0,0.0,34.27253218749016,17.55503396713325,8.30160413250084,6.5434206324447155,5.577703433127287,4.639617236146453,3.649270375079244,2.7178622481866186,1.8955672168828654,1.2511797870200807,0.7913121762869708,0.4739196536820879,0.2666231143757205,0.14112702926969878,0.07056644021741121,0.03336132295558831,0.013473957663316416,9.87011907421007,8.615333062433821,7.83880054128539,7.008320822565559,6.033226957740372,4.9916190419749755,3.9319562807567947,2.9633754658754983,2.1520134523777603,1.4920535772530699,0.9811144722058859,0.6121974691152923,0.36371657331544116,0.20635387319411103,0.10415358756207524
