Line_number,Fiducial,Easting,Northing,Height,Elevation,tx_pitch,tx_roll,tx_yaw,txrx_dx,txrx_dy,txrx_dz,rx_pitch,rx_roll,rx_yaw,PX,PZ,S0X_time_1.086e-05,S0X_time_3.256e-05,S0X_time_5.426e-05,S0X_time_8.680e-05,S0X_time_1.411e-04,S0X_time_2.279e-04,S0X_time_3.689e-04,S0X_time_5.860e-04,S0X_time_9.115e-04,S0X_time_1.411e-03,S0X_time_2.192e-03,S0X_time_3.418e-03,S0X_time_5.339e-03,S0X_time_8.301e-03,S0X_time_1.338e-02,S0Z_time_1.086e-05,S0Z_time_3.256e-05,S0Z_time_5.426e-05,S0Z_time_8.680e-05,S0Z_time_1.411e-04,S0Z_time_2.279e-04,S0Z_time_3.689e-04,S0Z_time_5.860e-04,S0Z_time_9.115e-04,S0Z_time_1.411e-03,S0Z_time_2.192e-03,S0Z_time_3.418e-03,S0Z_time_5.339e-03,S0Z_time_8.301e-03,S0Z_time_1.338e-02
0.0,0.0,0.0,0.0,120.0,0.0,0.0,0.0,0.0,-107.0,0.0,-45.0,0.0,0.0,0.0,34.27253218749016,17.55503396713325,5.842040553962502,3.4124873871595254,2.3059778082627136,1.476715756845334,0.8419619298018537,0.48704905672211285,0.35399966004221206,0.13428848740209817,0.09960348861678206,0.030848858503035027,-0.0195556385867534,0.03448830573138426,0.06396100662546018,0.0403967751803477,0.05881829410305938,8.125397794508537,5.790594651345404,4.528848692920817,3.381729966329708,2.364363744108225,1.5679622034519505,1.0641775803848998,0.6637624004242898,0.382526942000394,0.2163589490557273,0.18753373538852508,0.10774593787214035,0.05454077435399002,-0.006185792122153689,0.0063387154672008336
0.0,1.0,1.0,0.0,120.0,0.0,0.0,0.0,0.0,-107.0,0.0,-45.0,0.0,0.0,0.0,34.27253218749016,17.55503396713325,5.838763638173998,3.334414455311094,2.2407391387594444,1.4137234849462685,0.7945083433027272,0.506610035099978,0.2714098156053619,0.161082370494428,0.11660220935289135,0.07910834585913346,0.07964310853369258,0.04275888506454535,0.020840810500712466,-0.013042031832905598,-0.045962683302079005,8.137481556485856,5.767386787371558,4.5269283467125225,3.316949739027061,2.317397864807984,1.554551345957045,0.9709419188286178,0.6222028423278722,0.36045113522109656,0.25313987606451205,0.15022583631878783,0.098888928812119,0.03038520387492358,0.001986058892302661,0.004988202173713609
0.0,2.0,2.0,0.0,120.0,0.0,0.0,0.0,0.0,-107.0,0.0,-45.0,0.0,0.0,0.0,34.27253218749016,17.55503396713325,5.898421081242044,3.2924809356877134,2.23610459677935,1.4244818296212254,0.8440497807433559,0.4436375034688785,0.25226071244982234,0.17894664014807,0.0468739540564091,0.036326582921617445,0.09139985573638681,0.020022499788154804,0.03824291017556586,0.012686286322926694,0.037034445627110654,8.134003745289853,5.754534103955433,4.435789186813773,3.269713085266922,2.2655584686361516,1.496563193290509,0.9658671169394726,0.6174769205476548,0.3953296883573961,0.2731532850073927,0.12300463116202319,0.10411221551757717,0.03582406923733059,0.016819770924265925,0.008483740019312722
0.0,3.0,3.0,0.0,120.0,0.0,0.0,0.0,0.0,-107.0,0.0,-45.0,0.0,0.0,0.0,34.27253218749016,17.55503396713325,5.823860064824363,3.2971368026784496,2.19089391107621,1.3518172767914711,0.83190846663467,0.4053547886856608,0.23062348012140857,0.1060929992224207,0.1144186514920223,-0.012294339335630684,0.0332650396832731,0.052050376691161936,0.05493467777353264,0.008184112847036212,0.06309712374873373,8.093071302513355,5.731791421565772,4.395119445087827,3.231077156160644,2.145569874630978,1.4678255585052356,0.9580275220194717,0.587703618154646,0.40352045825001087,0.24519825407766072,0.11832846152170333,0.06511086694122092,0.03329812656610121,0.030386862233164044,0.031184248564829986
0.0,4.0,4.0,0.0,120.0,0.0,0.0,0.0,0.0,-107.0,0.0,-45.0,0.0,0.0,0.0,34.27253218749016,17.55503396713325,5.907705001989103,3.285197976827518,2.1766771742804107,1.3217164071395457,0.8149270824944804,0.40169248099319965,0.22266365805671795,0.1117021674727338,0.022738646300536833,0.03206873208897471,0.04738033628743468,0.002370564809019474,-0.055719081298566814,-0.00578408950315389,-0.02507574803048573,8.12072471036207,5.757447419611053,4.359685678619636,3.1742415909768154,2.141701972695124,1.3686088438805877,0.9056577228158357,0.5667177904317444,0.3441659901024814,0.19783170879168685,0.13453157505094057,0.09519020511206724,0.05346700600130875,-0.0016034802709101667,0.00414882785102117
0.0,5.0,5.0,0.0,120.0,0.0,0.0,0.0,0.0,-107.0,0.0,-45.0,0.0,0.0,0.0,34.27253218749016,17.55503396713325,5.89794662092821,3.3441630447556405,2.2075338543635,1.3252985999908122,0.7707761614409793,0.34624526708365755,0.23273674366965158,0.1740338485108461,0.06187424245859329,0.08340518039467365,0.06611449471947732,0.03091720939990015,0.06443138091213535,-0.008765813224919466,-0.007666992801683606,8.16149028922124,5.728952283543406,4.316245543890871,3.134201114679078,2.1583291735128336,1.3038370082276267,0.8950713303954855,0.5421985808631219,0.3640322329131964,0.23727344446131537,0.1036089928547622,0.04347889603890226,0.024093090387207895,0.020718391481704797,-0.024137820350701188
0.0,6.0,6.0,0.0,120.0,0.0,0.0,0.0,0.0,-107.0,0.0,-45.0,0.0,0.0,0.0,34.27253218749016,17.55503396713325,5.9052698323233885,3.308393447842792,2.139968949920532,1.2999299207381212,0.6588696819952661,0.3686588631213469,0.20557655210830875,0.13899036538235626,0.06546619100396157,0.09270019569543131,0.03913449287421716,0.010060162403913397,0.020133657397581484,0.060055204659897096,-0.04012777624666968,8.10778746882045,5.696297678322982,4.301472397158792,3.0688813032183235,2.0567733292776564,1.3044689314400304,0.8495465061561969,0.5241989650893086,0.31471615915048246,0.2388933576269694,0.16666558745385152,0.07935389969631546,0.052588352281384684,0.05888205982439605,0.021696427488682245
0.0,7.0,7.0,0.0,120.0,0.0,0.0,0.0,0.0,-107.0,0.0,-45.0,0.0,0.0,0.0,34.27253218749016,17.55503396713325,5.925497512565798,3.300929783222758,2.1583353724692405,1.2789248206570552,0.6962678007935535,0.3863616932896154,0.1454718454558791,0.0742483700978093,0.10747473172557662,0.08259951044131346,0.031595784682476646,-0.026542892534193438,0.047171079709257206,0.004547228372136448,-0.041707087850663016,8.134555582825502,5.714940541731082,4.311554526889343,3.0440314204456516,1.9865607412734672,1.2462124837810957,0.8405677361304497,0.5204140177735983,0.36403452879678,0.20204055836356438,0.16164871966109748,0.034746060274774365,0.04428485999408256,0.0050180170482417435,-0.0018142383798189742
0.0,8.0,8.0,0.0,120.0,0.0,0.0,0.0,0.0,-107.0,0.0,-45.0,0.0,0.0,0.0,34.27253218749016,17.55503396713325,5.820298706274766,3.23531080883323,2.160743055911539,1.2232859533372475,0.7042991205983586,0.2779418927650814,0.27416686585717076,0.10049973319892999,0.08883809500032391,0.07492113103025536,-0.005197881642468212,0.023021428093574135,-0.0061914781877363285,-0.02307948748274692,-0.05498767313878402,8.113417969938666,5.697403432835123,4.285347634748991,3.018236694290337,1.965089647236358,1.2443074712130409,0.7644301311993379,0.46556644846007567,0.308432309641306,0.1678756785056195,0.13986761582721696,0.12390344347103682,0.0613727956311209,0.01584928738704844,0.011102221007294194
0.0,9.0,9.0,0.0,120.0,0.0,0.0,0.0,0.0,-107.0,0.0,-45.0,0.0,0.0,0.0,34.27253218749016,17.55503396713325,5.922677659708814,3.2244515891579586,2.073420094631677,1.1414253681462072,0.6038975348939192,0.31428616718521485,0.20015199510800596,0.06879821605490796,0.0759298287053978,0.03562595898068015,0.08227870942095017,-0.03141978557298065,-0.06945295815257838,-0.08650229830122867,-0.004799595144530193,8.147672924139139,5.668834142289244,4.251584765132861,2.9745547478714367,1.920429436784076,1.1685399007601684,0.7961206570948879,0.4920887055406235,0.2824719600957287,0.15456752127547363,0.1307403338615197,0.06770256443229006,0.033453808450125744,0.05152005297723147,-0.0013115994343896199
0.0,10.0,10.0,0.0,120.0,0.0,0.0,0.0,0.0,-107.0,0.0,-45.0,0.0,0.0,0.0,34.27253218749016,17.55503396713325,5.837650205376083,3.2635818362149003,2.0721011254541675,1.1531902424580052,0.655457772508786,0.39327176370632533,0.15690404822076565,0.07032983781127028,0.025063834276624983,0.05876149151644738,0.046708657156259915,-0.03291011985052766,0.044582464282747675,0.04767002398202236,0.011208029003152067,8.052777413965156,5.670171846397654,4.168572592617493,2.9571450889453703,1.8990799394777849,1.188793678394502,0.673086907956195,0.450261226591603,0.31658939720900653,0.18891119817308974,0.08448262462625472,0.05932589964350432,0.038589053357475304,-0.014831548403136469,0.04627233973233804
0.0,11.0,11.0,0.0,120.0,0.0,0.0,0.0,0.0,-107.0,0.0,-45.0,0.0,0.0,0.0,34.27253218749016,17.55503396713325,5.905497847013182,3.2277987324953545,2.001848924754748,1.1692808129417838,0.5849381639559184,0.27321172109154135,0.16698481432474463,0.12827050883370697,0.0424483127416763,0.012066798766995752,0.020598371829803286,0.035330312967108535,-0.015585031197318919,-0.048380036004901476,0.03472315254437149,8.074752877643457,5.648704376744185,4.179497954395535,2.883754931389546,1.8701604078615348,1.1571576692245438,0.7182709125923649,0.4599222310688944,0.3017064581607636,0.16462870987112654,0.10196473475125933,0.03261010022646239,0.04415719788710479,0.05087035632080212,0.0023078612684699386
0.0,12.0,12.0,0.0,120.0,0.0,0.0,0.0,0.0,-107.0,0.0,-45.0,0.0,0.0,0.0,34.27253218749016,17.55503396713325,5.879882639687503,3.1874173166163606,1.9928086839859327,1.1485260927101102,0.5385468077350897,0.33902936866585615,0.15431246198861234,0.11966588810187637,0.05830779952216081,-0.003129211711289364,0.002251956672651245,-0.050473602856232806,0.03181149966129465,0.006469217369095594,-0.027836675385887626,8.06935313100055,5.604673124108643,4.127967386464278,2.8737623563191295,1.7793323494317848,1.1492033037957379,0.7044137238608792,0.4279185652702982,0.2512349455607279,0.1779918204850657,0.06980156308915891,0.08803543875235861,0.0539690251439914,0.05088730485407883,-0.0014476843726106414
0.0,13.0,13.0,0.0,120.0,0.0,0.0,0.0,0.0,-107.0,0.0,-45.0,0.0,0.0,0.0,34.27253218749016,17.55503396713325,5.901763101467448,3.2484236220945584,1.9750368716966815,1.1146191502175644,0.625785258098203,0.29172384080404834,0.1632356735144245,0.07765482918456325,0.00032419562365958166,0.06507094005111747,-0.06007660651453087,0.042786944590312334,-0.006861213879471579,-0.005300109459950402,-0.018714602508228286,8.125045368606441,5.614315244653302,4.167884769476676,2.832743389371316,1.764311359974375,1.0667934811615143,0.6637506303518261,0.41224795989946356,0.29872405481846265,0.2044047687606227,0.06794804061996841,0.0372819925243979,0.0152973359109374,0.03406484894746608,-0.008609377608048903
0.0,14.0,14.0,0.0,120.0,0.0,0.0,0.0,0.0,-107.0,0.0,-45.0,0.0,0.0,0.0,34.27253218749016,17.55503396713325,5.889145998080881,3.2332855692911675,2.00169256955598,1.0842114366765112,0.5170556349741402,0.17875434445507815,0.15925592717630577,0.03194950302909807,0.0452558956441748,0.03259861269544585,-0.03445813079504578,0.040641206298479775,-0.03428358167585747,-0.020020512871701698,-0.04220663756809709,8.109973903746432,5.570157798843062,4.156980158580237,2.788983433857307,1.7390875875245373,1.039913007778476,0.6598424113755696,0.4084265769274788,0.23503830647211563,0.17493887782504727,0.1151417314138771,0.0361723574303221,0.014153640159722852,0.006120244728230103,0.015378093501105809
0.0,15.0,15.0,0.0,120.0,0.0,0.0,0.0,0.0,-107.0,0.0,-45.0,0.0,0.0,0.0,34.27253218749016,17.55503396713325,5.8489775699330595,3.0762085677628574,1.9241211012317196,1.1467833507434035,0.5695864557632947,0.28967086622076643,0.1334609783349938,0.1528247426211758,0.039539028677486134,0.01505261803650341,-0.00456624974340037,-0.008039943997708611,0.031368845291541166,-0.07389535789601367,-0.04232168421344842,8.14615435901576,5.550226639619262,4.046448805254526,2.7674950682417703,1.6856315670593256,1.0250632107060518,0.595180620624934,0.4273427739151349,0.23033941885755335,0.16440136310149828,0.10456250110031737,0.06696425993121011,0.03415588919088891,0.019467364430543088,0.008392752664206221
0.0,16.0,16.0,0.0,120.0,0.0,0.0,0.0,0.0,-107.0,0.0,-45.0,0.0,0.0,0.0,34.27253218749016,17.55503396713325,5.915911083556061,3.1437260396142,1.970029348003336,1.0590822036790388,0.5321611179935397,0.2516200978963422,0.1661072462610185,0.04979295951229884,0.015381041945280307,0.01697393944136317,0.01137314930067144,-0.06978604161453615,-0.02800330751917633,0.04152736571342054,-0.008694242448411924,8.097973876739536,5.567197456493614,4.059633903013423,2.7796216816033925,1.6849308335964908,0.9827355837037007,0.6030214893756123,0.3994662079186694,0.2708722414492101,0.14270629022895226,0.1150745673855773,0.09768473046592047,0.03117420144725356,0.019539412679565205,-0.009674677043780465
0.0,17.0,17.0,0.0,120.0,0.0,0.0,0.0,0.0,-107.0,0.0,-45.0,0.0,0.0,0.0,34.27253218749016,17.55503396713325,5.814374484660125,3.1326978473978184,1.9435237473643534,1.0571440514366228,0.5590832592597453,0.2803121423232197,0.11117226756599267,0.094521288412685,0.03418447190670768,0.02521248748155597,0.05060527688503734,0.09420630271770351,-0.047504605518108194,-0.010562941781755486,0.04243323909202315,8.095673963791064,5.522907048722192,4.059097098863512,2.7055426266942173,1.6575888402500318,0.9602271142521205,0.5500998594372757,0.36017042442777,0.25764426244245286,0.16156137338423443,0.08182643124577998,0.10270280479061542,0.03669289430441204,-0.0018700784331432269,0.03688807926743346
0.0,18.0,18.0,0.0,120.0,0.0,0.0,0.0,0.0,-107.0,0.0,-45.0,0.0,0.0,0.0,34.27253218749016,17.55503396713325,5.893965815175631,3.0933026121797202,1.9183131886855647,1.0796999267910476,0.5222598924408429,0.24335836599456762,0.05524425052461557,0.053578254884183815,0.03547548273843331,1.91817474908193e-05,-0.0014431570273468666,0.03125854515330314,-0.015127224118402696,-0.05995406405506751,-0.02212904197519598,8.085025488577674,5.51051352579858,3.959856491852444,2.6677519915611088,1.5902869428543587,0.9594527631474155,0.5618395565387819,0.3712281323844082,0.24195277769207266,0.12625243036100586,0.09545510341697513,0.09323111651597334,-0.00019782511277520454,0.038637627181012706,0.011577577914662037
0.0,19.0,19.0,0.0,120.0,0.0,0.0,0.0,0.0,-107.0,0.0,-45.0,0.0,0.0,0.0,34.27253218749016,17.55503396713325,5.789380720935343,3.119881716032615,1.911110271447779,1.030281611008841,0.50370024118713,0.2966266460064575,0.09255282944271469,0.1287990764441636,0.09537579612085056,-0.02751655695382856,0.015569222975847445,0.008172364433529724,0.04958692683887715,0.04358173528818604,0.055063142058379165,8.051855066914776,5.530023739178551,3.974568655697164,2.6003444102239563,1.609690116868228,0.8947482805443288,0.5656778249953077,0.33608843331012944,0.22491739028978092,0.15871944072649746,0.08971934678917882,0.026446063769438456,0.039478445972477155,-0.005715596977067562,0.0208142416972856
0.0,20.0,20.0,0.0,120.0,0.0,0.0,0.0,0.0,-107.0,0.0,-45.0,0.0,0.0,0.0,34.27253218749016,17.55503396713325,5.796559191430515,3.0844552234972324,1.8660735896644096,1.0895486591066668,0.4090095255297465,0.23393515256512443,0.06420843531633119,0.0774124294945161,0.03057619249970998,0.047543739774284874,0.0619796838296747,-0.006588832708737866,0.0022934205055756066,0.03398217066812394,-0.018650580553946583,8.105692858286977,5.495159976677064,3.9048419898404125,2.5757535816923287,1.5553876484219096,0.9149767323169749,0.5006360102829779,0.34838223375733446,0.21496617447291524,0.14187196708856842,0.11369904907017986,0.05879427402144478,0.01453862753515298,0.017949483225334024,0.004379642779238205
0.0,21.0,21.0,0.0,120.0,0.0,0.0,0.0,0.0,-107.0,0.0,-45.0,0.0,0.0,0.0,34.27253218749016,17.55503396713325,5.83312133038177,3.1058665565118138,1.8063026791354817,0.9677386398160861,0.4768554903215849,0.2380667447229748,0.10065468213188383,0.01309520070855473,0.037284832890103384,0.10673936306694178,0.030943930589794874,-0.054614258910905746,-0.03167887490872189,0.004659487604805435,0.020049220299929695,8.0715183054436,5.507317979041698,3.913847519774959,2.5868696729858534,1.5510308686122745,0.8790715414476292,0.4751666908026785,0.31935943943041695,0.2028298115711557,0.1346323407796745,0.09229387293717854,0.06929435368336785,0.01569677999805394,0.0018851354929580698,0.007541201605883341
0.0,22.0,22.0,0.0,120.0,0.0,0.0,0.0,0.0,-107.0,0.0,-45.0,0.0,0.0,0.0,34.27253218749016,17.55503396713325,5.864521755166515,3.061335061189154,1.8322679761611633,1.0206335465102883,0.44253721531671847,0.2482529044381119,0.11345104467842791,0.06108961368760626,0.09728479307425533,0.006925548306708251,-0.01753139849424474,0.058296982178798154,0.001039662583122257,0.04120649765951569,0.014860494228328806,8.038201800898984,5.43604853865783,3.8849749661778086,2.5454037775868033,1.5089296621938215,0.8780694704822204,0.5336645512126028,0.3347287410321085,0.19236525326772413,0.14073777947652527,0.0728382834415055,0.04398761548479026,0.02141803126629041,0.0165674613201002,0.013715739103831642
0.0,23.0,23.0,0.0,120.0,0.0,0.0,0.0,0.0,-107.0,0.0,-45.0,0.0,0.0,0.0,34.27253218749016,17.55503396713325,5.922670357566021,3.028693545135963,1.8550161671568126,0.9613412158773726,0.4721185092095542,0.18761514912529026,0.09865743739377245,0.027246442459930836,0.05600349322513472,-0.010323475650381733,-0.0008714671580639204,0.013169391294080993,0.018327821751189376,0.020206716102104817,-0.016673128083193166,8.045256795305209,5.3469800215845344,3.8164273149325947,2.49967663724156,1.4520858595182697,0.8130548303867465,0.49751262430252735,0.30260651211267137,0.20142080101972773,0.11802860255906641,0.1202280284299072,0.04681461472711266,-0.01849005387371262,0.0011241650862305955,-0.018915872242311647
0.0,24.0,24.0,0.0,120.0,0.0,0.0,0.0,0.0,-107.0,0.0,-45.0,0.0,0.0,0.0,34.27253218749016,17.55503396713325,5.772066660278357,3.0154575629965477,1.8552073492347307,0.8993809349343679,0.41725546554333937,0.16524549150886242,0.01512212209049367,0.09251781132753738,-0.004559223731937706,0.04490028885280438,0.05730214221502618,0.0007284122427367815,-0.03555640638052072,-0.09850382080384862,0.024288779908465834,8.139250232120897,5.368549762289481,3.816970541200205,2.473497177827415,1.426780852507997,0.844229348081357,0.4773139858105786,0.2996110607654332,0.2013312778823435,0.13381446361396507,0.050034191721221,0.04802160845428811,0.06645384199465412,0.03387800508044635,-0.0029474837436865436
0.0,25.0,25.0,0.0,120.0,0.0,0.0,0.0,0.0,-107.0,0.0,-45.0,0.0,0.0,0.0,34.27253218749016,17.55503396713325,5.832886668162126,3.0240512659732506,1.7548284444880164,1.0188482715250526,0.43354024275054975,0.19612230563273436,0.0507389414745363,-0.011377137983137768,0.06597879984270773,0.002411837681022414,-0.018317314974825638,0.025341316620196227,-0.019691891216081652,0.026695759779118994,0.009149180705141589,8.056683316184554,5.360762539484843,3.7367290623186706,2.459962450643214,1.4019415138772588,0.7903504003438732,0.48649112285607643,0.29119237927062785,0.1792686593483907,0.14870127293158572,0.08114399976901471,0.0758798958710971,0.014196909959193368,0.010693691192961461,-0.011864410437051939
0.0,26.0,26.0,0.0,120.0,0.0,0.0,0.0,0.0,-107.0,0.0,-45.0,0.0,0.0,0.0,34.27253218749016,17.55503396713325,5.763425529966141,2.9579228387571743,1.6953050614846081,0.881226275591525,0.41521022163260546,0.14249490098341847,0.08351841446528073,0.028218336504034446,0.09420041314443652,-0.014051260122728147,-0.040065735851078366,-0.015172409047511548,0.008039614650936082,-0.030558056968839713,-0.019612881736807752,8.033144717444253,5.305406919836398,3.7466793578825044,2.4373753294696523,1.3954724649832126,0.7926676377164734,0.4453661859204669,0.2957326117819181,0.1963301122303994,0.12426440237957018,0.028990253026270243,0.046136403909668784,0.048729325158725856,-0.0001989662110417692,0.04677274342607133
0.0,27.0,27.0,0.0,120.0,0.0,0.0,0.0,0.0,-107.0,0.0,-45.0,0.0,0.0,0.0,34.27253218749016,17.55503396713325,5.84617940381012,2.9863875041897368,1.761670866907053,0.8131448362960256,0.4343056237671289,0.18389011643846429,0.1259710480299736,0.08079233873291497,0.005995753474269519,-0.019930552237819102,-0.02712422382064838,0.010838152258367668,-0.03127991501512691,-0.0333435684836334,-0.021719196863159686,8.072353352312295,5.278370259488086,3.7289348652589327,2.365822427111423,1.3905413941679494,0.7309459570260044,0.43015145385730197,0.2760538646339107,0.16227856933863452,0.10613432486557749,0.0837151364708927,0.038871504915645255,0.01696747415749509,0.00772374966102155,0.012372888082034059
0.0,28.0,28.0,0.0,120.0,0.0,0.0,0.0,0.0,-107.0,0.0,-45.0,0.0,0.0,0.0,34.27253218749016,17.55503396713325,5.769265315463823,2.966759367972364,1.5997172411085092,0.8743933523895668,0.383188253337948,0.15608235482050103,0.029210560528768185,0.06607985516994269,-0.03467514831193187,0.03404278724571161,0.0048577003304929485,-0.014877605929164423,-0.043859210248011454,-0.02494068920492749,-0.08456740904746657,8.074188384772933,5.27296624391506,3.6802349059336126,2.3227623992568995,1.3209389369019402,0.7474783864353465,0.4272101924964919,0.2893173396145118,0.18663366580615132,0.1257197799069758,0.07972589018879267,0.07727967817556117,0.018359494929776662,0.002705057601492448,0.0087136474976869
0.0,29.0,29.0,0.0,120.0,0.0,0.0,0.0,0.0,-107.0,0.0,-45.0,0.0,0.0,0.0,34.27253218749016,17.55503396713325,5.794560127678103,2.8663742028915933,1.67914528691238,0.869290840274404,0.35964906719508577,0.24164112002063465,0.0563121340778711,0.06330333385964328,-0.00593685203282765,-0.004855126841601897,-0.004362578343512563,0.0716990960289405,0.006171493379714427,0.007909861877718052,-0.05159284050655326,8.056349798645911,5.21247238388263,3.6149426077133033,2.3267880324293486,1.2977523410511953,0.7493154875067506,0.43794068846100953,0.2622931591831305,0.1743852841980974,0.11188933591031744,0.08194287034207298,0.056706824860582414,0.022597922868155405,-0.008419615992640486,0.013725134254120874
0.0,30.0,30.0,0.0,120.0,0.0,0.0,0.0,0.0,-107.0,0.0,-45.0,0.0,0.0,0.0,34.27253218749016,17.55503396713325,5.7946238794424065,2.8224599095627365,1.6186324307480482,0.8067660963515252,0.3896298817095395,0.1635149842524082,0.08071309635062268,0.06662549030123772,0.10326446642374026,0.015661627017039426,0.029382138577294492,0.04365216526034028,-0.0011212149032898302,0.03352704913861269,0.045746308943201905,8.04275620500442,5.279228668791192,3.55163518926993,2.2648011532482553,1.2566797824106382,0.7238632357187853,0.40487977475831033,0.23515439309209868,0.18507155910490125,0.10673532493852451,0.12882441105731024,0.03535321899420577,0.05034730974421079,-0.005343722692194582,0.01954968310621597
0.0,31.0,31.0,0.0,120.0,0.0,0.0,0.0,0.0,-107.0,0.0,-45.0,0.0,0.0,0.0,34.27253218749016,17.55503396713325,5.758850735022869,2.7699367284425778,1.5176728927128347,0.8082803752177182,0.3931834278840113,0.15389084486364799,0.01995233125041323,0.08992799806998807,0.03853164151316053,0.04207183577514684,0.024048663092330454,0.09598494195214721,0.008731985136229848,-0.02786438502599382,0.03942256327708043,7.972952971182096,5.180823156898309,3.5460672165474585,2.277436542958505,1.2577802002232985,0.6656270529853954,0.39081782365559403,0.21620834781646395,0.20270877631026948,0.10529656953674922,0.08641116263296032,0.03185948584041404,0.03626469383790673,0.01381473069363652,0.048563390201992955
0.0,32.0,32.0,0.0,120.0,0.0,0.0,0.0,0.0,-107.0,0.0,-45.0,0.0,0.0,0.0,34.27253218749016,17.55503396713325,5.7057823657800295,2.7751360784320434,1.5493992506618197,0.7551813614617653,0.3425367906439436,0.17825745473997986,0.04220671360580132,0.03698647976757348,0.03880447122343872,0.03324252032507101,-0.011052940640580978,-0.0830134907374016,-0.013993615951950525,0.07585144701364481,-0.03356454980499674,7.995687659664566,5.143967783634295,3.515858226028195,2.1975761018659767,1.230955635612853,0.6615185335466356,0.3850300203648314,0.24639799110925678,0.13650443331464562,0.12213489147021306,0.06575074476821627,0.03082124458998793,0.048537377637201944,0.014776878622769966,0.0005001442869552722
0.0,33.0,33.0,0.0,120.0,0.0,0.0,0.0,0.0,-107.0,0.0,-45.0,0.0,0.0,0.0,34.27253218749016,17.55503396713325,5.7447024764027175,2.781332558359758,1.5486012756459206,0.8072972504705581,0.2706281938734836,0.18326375757790153,0.06294075992288786,0.05612265535678608,0.07213679435137249,0.062479905077577565,-0.0421711677599041,0.040778771953356725,0.01168717346191415,0.03831839745139095,-0.05666720091841119,7.987627308851585,5.109178708487143,3.453661945932235,2.169293013540521,1.236984832766432,0.6965592171488608,0.36263637028966006,0.2505675382403376,0.1587436586544203,0.12469697638297073,0.08006991536537066,0.017383610217602784,0.05323865213880086,-0.002866341814592695,-0.019330428055870028
0.0,34.0,34.0,0.0,120.0,0.0,0.0,0.0,0.0,-107.0,0.0,-45.0,0.0,0.0,0.0,34.27253218749016,17.55503396713325,5.793109252418539,2.7163499879434405,1.5460211633382581,0.7840145966006202,0.2922415869403459,0.07930372221696352,0.127146608416764,0.05981867511134573,0.07386313513050971,0.006059968643019405,0.05222470773416891,0.06589342728219975,-0.006923390566712263,-0.008691354643555308,0.003738785032213316,8.00368447352539,4.997576829368563,3.4109817190835225,2.14898954991479,1.1872517761380226,0.6379325762937815,0.35014170549900125,0.1809665348324831,0.15367384389870112,0.10690072188886796,0.04833297049638045,0.05001107479184393,0.03112964359310934,0.0035868683639575655,0.0052725670647697405
0.0,35.0,35.0,0.0,120.0,0.0,0.0,0.0,0.0,-107.0,0.0,-45.0,0.0,0.0,0.0,34.27253218749016,17.55503396713325,5.764578951015831,2.7081698805651717,1.4515495860520098,0.8033127699705035,0.3599282332150884,0.10301039526611035,0.03516141169204896,0.01054399874214839,0.04133936765385193,0.03669246566029305,0.02836269414058008,0.029647134994967305,-0.0444061912580016,-0.01927299326931208,-0.06871342984037328,8.016607829705327,5.051623313262027,3.417369152572494,2.0975795257132295,1.1630845326198103,0.6248666401886889,0.37898260132500905,0.17732633277861443,0.16279539563584447,0.09284856762449278,0.058613718651361994,0.055056034412942094,0.03438546625574465,-0.0031003178933459094,0.01873045168542007
0.0,36.0,36.0,0.0,120.0,0.0,0.0,0.0,0.0,-107.0,0.0,-45.0,0.0,0.0,0.0,34.27253218749016,17.55503396713325,5.731948838088645,2.7269324055433617,1.46751968492795,0.7559642427599175,0.25396479851623793,0.11154301891960429,0.023693339349202952,0.030394590102124475,0.08122609062730973,-0.05057027937870942,-0.0042881584227583225,0.0021679014217932924,-0.01628756280539279,0.05112009671047067,0.04087161627482512,8.008878985113794,4.977478119813822,3.345129188953044,2.0823129811224175,1.1339511522694325,0.583435911247221,0.35305153837041303,0.1671457877019329,0.1659429025894214,0.13406198989282872,0.0721625669932953,0.059457350199226044,0.024338743107936378,-0.007239967373876341,0.03599885051489868
0.0,37.0,37.0,0.0,120.0,0.0,0.0,0.0,0.0,-107.0,0.0,-45.0,0.0,0.0,0.0,34.27253218749016,17.55503396713325,5.662670400945959,2.713798575337856,1.4160469866449614,0.7108829322876596,0.298715563041566,0.13842638711011152,0.035793790012547046,0.01919637093183751,0.06267089342496196,-0.04029497383237724,-0.01796762859900426,-0.028321306440590655,-0.0018965272936126072,0.003400639280964771,-0.007141195029934981,7.974991831480545,4.966864004479296,3.322004437894748,2.029886114738931,1.111017458752584,0.5670947394853525,0.35603230477753767,0.20980666526170227,0.08817072159245198,0.08800734136384565,0.04418782995151947,0.06104765054454714,0.012057457715918016,0.00011070004513184448,-0.0030042393067914635
0.0,38.0,38.0,0.0,120.0,0.0,0.0,0.0,0.0,-107.0,0.0,-45.0,0.0,0.0,0.0,34.27253218749016,17.55503396713325,5.609083202250764,2.5356166306901025,1.419893844144519,0.6605249248888986,0.3316588565828289,0.08132383868860588,0.05690428130247472,0.017807859924424324,-0.023292624929419293,0.016282330629608103,-0.016910582734522842,0.0038964780900997732,0.017672712523609767,-0.03113896272882496,0.08945812458001721,7.9355729879757835,4.918569411860585,3.2554648796040198,1.998773998688202,1.0851316979672152,0.5554701058580532,0.31801928851013134,0.20085106744304465,0.1395632187970702,0.08505471877234698,0.0612560137362137,0.012633517464123358,0.018065150570045867,0.001658070004402306,0.008416411740319579
0.0,39.0,39.0,0.0,120.0,0.0,0.0,0.0,0.0,-107.0,0.0,-45.0,0.0,0.0,0.0,34.27253218749016,17.55503396713325,5.679066219880392,2.5552617931147448,1.4361332714454154,0.6216546029130864,0.3231297362015041,0.13279414911017187,0.05261798919722557,-0.03953342776132175,0.034007752384005184,-0.0026774369079060247,0.014712225525998851,-0.047546402197627215,-0.01923086677965504,-0.002912388066493317,0.05008621944946127,7.923969537798391,4.804867439248652,3.217206096509135,1.9931702674245966,1.0502487006756966,0.5401242297679342,0.31704627731727203,0.1651340350453831,0.13564050971032243,0.08767570253843043,0.055241066710743116,0.03447173869619724,0.009602376235498986,0.0031147501196882657,-0.008154224209211896
0.0,40.0,40.0,0.0,120.0,0.0,0.0,0.0,0.0,-107.0,0.0,-45.0,0.0,0.0,0.0,34.27253218749016,17.55503396713325,5.654427030067121,2.518909355954799,1.3215943383562854,0.6719833066321876,0.28798046708954816,0.1747495939681829,0.08318123981793074,0.027180035703707,-0.020955070368636187,0.019690035856574143,-0.036724116637018536,0.02730445300732474,-0.00949405250068097,0.04493040184471225,-0.038962556650658224,7.916932657222837,4.810441035602328,3.147757197627281,1.953034361767553,1.0940397573499447,0.5638520966527107,0.2845389545504796,0.166589468407009,0.12264836679640177,0.08540023643919635,0.04973322406926,0.010110270275846218,0.034213336755736304,0.0034772453723108075,0.01370599310869949
0.0,41.0,41.0,0.0,120.0,0.0,0.0,0.0,0.0,-107.0,0.0,-45.0,0.0,0.0,0.0,34.27253218749016,17.55503396713325,5.723465059871986,2.40426460573886,1.3064473376836674,0.6361492912097031,0.2619432408765864,0.10451010369908767,0.05723618521574706,-0.014343218359866867,0.016093873216388686,-0.00867478970880897,-0.03334655514194611,-0.009120542246055576,-0.06489397124364066,-0.09302930824907844,0.007499966133168656,7.885915009563586,4.760959375420438,3.1314301347525184,1.914142990196195,1.0231930572009227,0.5421652326340662,0.2932042242032098,0.21292777212446168,0.10841082782402438,0.07821086166424011,0.03021820162632504,0.04485113870523929,0.011735986631444923,0.021829159220348796,0.013271281902703607
0.0,42.0,42.0,0.0,120.0,0.0,0.0,0.0,0.0,-107.0,0.0,-45.0,0.0,0.0,0.0,34.27253218749016,17.55503396713325,5.682901718923531,2.39991727816568,1.28204220583624,0.610345019919099,0.30261913142069524,0.09352048812897928,0.00043180670171915486,-0.03393243613429904,0.01728153049881521,0.05578506922524636,0.0006918614398413458,0.032061466971563556,-0.0008338364097257508,-0.025944837160611234,0.044628591397590775,7.817392410190181,4.6910577290159745,3.067423313591227,1.8231771640380432,0.9905760459478199,0.5337881503004731,0.2819444590298765,0.17279077714480562,0.11427356329492111,0.07084020717308552,0.05456170743866392,0.028027484235163623,0.01824664909741554,0.06819596474423756,-0.009962371596279275
0.0,43.0,43.0,0.0,120.0,0.0,0.0,0.0,0.0,-107.0,0.0,-45.0,0.0,0.0,0.0,34.27253218749016,17.55503396713325,5.582341480683976,2.398056037136845,1.3213150621391125,0.5606472383553569,0.2427831389158325,0.07350945465466029,0.054362460580591104,0.06153090850046977,-0.01158789211838457,0.0013641004447063464,0.03617340332674249,0.003139436563601663,0.0038085478028826373,-0.02772088266549938,0.05495478144103072,7.8447704978194235,4.643908077588817,3.0051735961490076,1.8281096264249326,0.9851842595959778,0.49608645330120515,0.2777392770877784,0.1854713183830403,0.12383675046881495,0.09940983671057083,0.07895412323828058,0.022713086715193932,0.017575761620483552,0.012124004350052352,-0.0032028552320411833
0.0,44.0,44.0,0.0,120.0,0.0,0.0,0.0,0.0,-107.0,0.0,-45.0,0.0,0.0,0.0,34.27253218749016,17.55503396713325,5.452412320055117,2.318475437011486,1.1838263549183758,0.5869686906258194,0.25158487741948454,0.10652844791849159,0.053599169043812865,-0.00886566027356252,-0.03799368263620849,0.038260085959227794,-0.04783741893980435,0.07402480916567603,0.012257191616625768,0.005012302588607949,0.014390030761874775,7.819870425684437,4.6135103283824375,2.9567063267692157,1.7483471715543324,0.9455640568091866,0.5448876392489886,0.24634943976718604,0.16531767203279518,0.14479821964932263,0.07065996815471391,0.08328537040845152,0.058255435724203636,0.02229808359165883,0.009397999800190383,0.026743933660009853
0.0,45.0,45.0,0.0,120.0,0.0,0.0,0.0,0.0,-107.0,0.0,-45.0,0.0,0.0,0.0,34.27253218749016,17.55503396713325,5.48382094869223,2.3332191860467804,1.2337806162225755,0.6047582250837185,0.26364847592111545,0.05659635999427905,0.06651146268585459,0.020777437069254074,-0.023779563401854168,0.003966735217886395,-0.046384840823170646,-0.0033735982826798645,-0.0027767667781491683,0.020297161226501347,0.038823892805708436,7.76778536706683,4.504900243354578,2.85835481540227,1.746637376773302,0.8972357997007201,0.4615158453937247,0.2616767829653973,0.16552229404624835,0.12827051558121283,0.03374495936548782,0.04947302146248601,0.00895964962121008,0.057143630753762324,0.024012142838149113,0.014323780437232366
0.0,46.0,46.0,0.0,120.0,0.0,0.0,0.0,0.0,-107.0,0.0,-45.0,0.0,0.0,0.0,34.27253218749016,17.55503396713325,5.574151152953994,2.2520439312241356,1.1820813630321072,0.4875375866402831,0.22630028245260259,0.1709884738650116,0.05845875819939654,-0.004705560523190586,-0.021281056899956734,-0.04812173450258455,0.021330977421242094,0.0341534227299786,0.006232500754282142,-0.028493264495404583,0.009049855005813534,7.759660928006,4.5085650112038,2.8421477999842355,1.668426096474383,0.8767584069635518,0.46890838985782096,0.22935955556438123,0.17533476703917644,0.10534580915268482,0.079144480298452,0.04981679774949778,0.08177665058961221,0.01774110844954045,0.03042929230297256,0.05832647804573868
0.0,47.0,47.0,0.0,120.0,0.0,0.0,0.0,0.0,-107.0,0.0,-45.0,0.0,0.0,0.0,34.27253218749016,17.55503396713325,5.467696464943959,2.2805475916253433,1.119171306659434,0.5518846602310905,0.18946822197676197,0.044958836007051924,0.003907967537721907,0.020837016223073324,0.02388185930837046,-0.03185114292760999,-0.04466226746477455,-0.06487061496252694,0.07847427451268363,0.004706317276197485,-0.07723038932039261,7.748229570573873,4.412358619432225,2.7638996782356724,1.6742825878787952,0.8553048185237949,0.44889593071459893,0.24241771265991385,0.1580005677509086,0.12977908556729303,0.08844193056995635,0.042005350790164424,0.06671371521321043,0.05330113191883632,-0.01817506659759205,-0.016594263650118013
0.0,48.0,48.0,0.0,120.0,0.0,0.0,0.0,0.0,-107.0,0.0,-45.0,0.0,0.0,0.0,34.27253218749016,17.55503396713325,5.388067545376217,2.2190401971299303,1.0752834713693358,0.4834526682095559,0.20167055154452151,0.07388786363773313,0.03188704361708346,-0.01771306108098919,-0.015550152199602877,-0.0013734186069873852,0.0549716913197223,0.049495288096377564,0.034672743461678195,0.013935873537915935,-0.09409954308490837,7.765204406675622,4.379741146803146,2.730686037076276,1.5938018937997682,0.8460777900707385,0.4365823290418292,0.2269737744429766,0.18443953374724636,0.0919181700652601,0.0792823047741912,0.025174605181387727,0.027678359567166598,0.04336909802403505,0.013255462457498033,-0.005600757936783102
0.0,49.0,49.0,0.0,120.0,0.0,0.0,0.0,0.0,-107.0,0.0,-45.0,0.0,0.0,0.0,34.27253218749016,17.55503396713325,5.293354937449049,2.0973313198774606,1.0351643429407358,0.5130697372283439,0.24314370888082143,0.034734692067881344,0.06515895609480779,-0.014777813717723173,0.054270630274416025,-0.0077383159447380785,0.02505021280002387,0.0588174293633006,-0.06003041586302221,0.006098956309689948,0.057306392471041814,7.702109695158931,4.338977709160567,2.669907082056701,1.5922423747334251,0.8346260727880985,0.42456665835646673,0.2135984715695762,0.15365443715123175,0.14388119779785805,0.09868573391167654,0.05974900319128362,0.022091586765913863,-0.009203616008989474,0.008024226155143262,-0.012431260151246942
0.0,50.0,50.0,0.0,120.0,0.0,0.0,0.0,0.0,-107.0,0.0,-45.0,0.0,0.0,0.0,34.27253218749016,17.55503396713325,5.316571861014918,2.1005678781391115,1.0598291104369935,0.5079818698461557,0.2072476868285499,0.056641949312596494,0.05071599834277622,-0.04287241082253177,0.05223868288193756,-0.03191402023623358,0.05300914647884534,-0.020126043311234795,0.08223008411149592,-0.008758431327698827,-0.003890793534676336,7.663552019505831,4.183575140140651,2.627638292658723,1.5052685271495463,0.810952330780413,0.42224603444704345,0.23334519309206123,0.1711481789845475,0.10370028536949012,0.02465293979644758,0.032687002000702334,0.011749897151045727,0.0339546097728873,0.007795099955329149,-0.006925165490736883
0.0,51.0,51.0,0.0,120.0,0.0,0.0,0.0,0.0,-107.0,0.0,-45.0,0.0,0.0,0.0,34.27253218749016,17.55503396713325,5.25206469192023,1.9924563257271728,0.9958476960115348,0.4828862400905857,0.1813909301103498,0.05684886132829928,0.03498366774744471,-0.024886610438563193,-0.0046120561434922665,0.05925284624237514,0.043422744227509066,0.08354956055501131,-0.025012016110508465,0.09474593745169187,-0.01803262134306035,7.583320192452686,4.152502739020078,2.574043254640532,1.491474643590592,0.7721016963990187,0.44387548524269466,0.19699651940756346,0.11819947894978854,0.10275217101058343,0.06722338974281518,0.048636071022760595,0.08002043888759675,0.054814837447108127,0.02538147455652508,-0.00957407248942947
0.0,52.0,52.0,0.0,120.0,0.0,0.0,0.0,0.0,-107.0,0.0,-45.0,0.0,0.0,0.0,34.27253218749016,17.55503396713325,5.2470144442957425,1.8848667915766029,0.9144687109924663,0.4601101806377677,0.13864197792971852,0.04780622583561621,0.040451311847634605,-0.08794464143630129,0.01926483824341795,0.01873252262257614,0.025076270454128177,0.06347367315914454,-0.01719991005204255,-0.006687045650434308,-0.028124238823087254,7.5399502321501615,4.053652159238873,2.485167682064532,1.403065243976408,0.7268398525709756,0.40548781507262366,0.20906587966499923,0.12731408125970908,0.08677615051335807,0.07436745837148204,0.01875588792947482,0.04993007145609082,-0.024213414524143915,0.033085364541965305,0.015371394298120188
0.0,53.0,53.0,0.0,120.0,0.0,0.0,0.0,0.0,-107.0,0.0,-45.0,0.0,0.0,0.0,34.27253218749016,17.55503396713325,5.099261098370031,1.8986635851211953,0.9263221019958089,0.3716414612713643,0.16327217924088822,0.01237493596369657,0.06255712236031388,0.043120084221366,0.010712965810095544,-0.08503284419553689,0.002303429683856767,-0.0038460923517431088,-0.022860073983792847,-0.05194582878999626,-0.03013749488537442,7.495762100430759,3.99235067429958,2.455166323423373,1.4199119407343928,0.7338775219617548,0.35547912165251183,0.21457597303096523,0.14802305461612209,0.10819808308940111,0.08647240955368694,-0.0030493268897294756,-2.1979104142082206e-05,0.010889930162395511,0.028024586002679513,0.024036930209294836
0.0,54.0,54.0,0.0,120.0,0.0,0.0,0.0,0.0,-107.0,0.0,-45.0,0.0,0.0,0.0,34.27253218749016,17.55503396713325,5.101634499461447,1.9172938491169347,0.8082326038217313,0.3862082007693498,0.18385083996556661,0.047817695580235325,-0.003927980412417424,0.06091277322563818,0.0061649725866249816,0.014673441960436337,0.047753724752155995,-0.026353723324538246,0.008738721855611411,-0.014281623236136734,-0.043039273327827726,7.487238941128313,3.929067768800029,2.3838361979921996,1.3672532381473603,0.7381105948341757,0.3115543088393763,0.19851200745513725,0.10008999425481889,0.09656090070174261,0.0906179956246298,0.026973065392458598,0.06181749292817025,0.02660865266673007,0.027831322472335253,0.02322252320793288
0.0,55.0,55.0,0.0,120.0,0.0,0.0,0.0,0.0,-107.0,0.0,-45.0,0.0,0.0,0.0,34.27253218749016,17.55503396713325,5.083004786210212,1.7449638105621332,0.8159139620731318,0.3799682294194166,0.1349056028378964,0.08247763585074974,-0.05308455442229069,0.028902286672476057,0.007015571393897435,-0.001876227641906223,0.0007454461684777113,-0.07682808378954666,0.026473702878453118,0.0017699051309889714,0.0889275902701278,7.422073504605569,3.8395502810703075,2.288825534817424,1.3053173048729059,0.6660993400546976,0.3966824230918739,0.18153904243990293,0.09533712895965554,0.10872272325884137,0.08185568863084919,0.041884411182996586,0.04900384896661354,0.02434433786375835,-0.01543833409945677,0.05041243314667257
0.0,56.0,56.0,0.0,120.0,0.0,0.0,0.0,0.0,-107.0,0.0,-45.0,0.0,0.0,0.0,34.27253218749016,17.55503396713325,4.911244489445062,1.708247807879061,0.8625041975991804,0.4364342330035562,0.11192677397341433,0.059375479889770814,-0.00784522201586375,0.06980028966016943,0.020378612671171345,-0.005988580110672571,0.02415842160134831,-0.05330949192133706,-0.0440970758723447,0.010518774067386126,0.04689672987037285,7.335716966027884,3.7584674093015527,2.225920686779156,1.3234672350913934,0.6835130724287102,0.3737558078429846,0.22898012699495,0.11921377085707718,0.07975077082661325,0.019421682528453936,0.033853760706802724,0.0428596607186814,0.0410565536871729,0.016938347162359358,0.003721966528987343
0.0,57.0,57.0,0.0,120.0,0.0,0.0,0.0,0.0,-107.0,0.0,-45.0,0.0,0.0,0.0,34.27253218749016,17.55503396713325,4.972665243156274,1.6764343844961365,0.7510689542829468,0.34291177778615395,0.14905681790560255,0.017433738390837367,-0.07282895215728055,0.04278810497672518,-0.02559233183655496,0.03937132549711823,0.027896467121477923,-0.0022777909859643905,0.0674000756510045,0.025125804635109827,-0.012459910255788832,7.32230100503664,3.6371164249712535,2.126855748492752,1.2364560824466637,0.6648956744942239,0.3444912589193361,0.1825689549409281,0.1358192607932534,0.06884313315743643,0.035899519687819764,0.030606863827973854,0.012824194152654535,-0.0034878528746674735,0.007556677108220276,0.03232294985055811
0.0,58.0,58.0,0.0,120.0,0.0,0.0,0.0,0.0,-107.0,0.0,-45.0,0.0,0.0,0.0,34.27253218749016,17.55503396713325,4.844826535554987,1.5650131764531912,0.7204226888447736,0.32410142127574365,0.15323722963151393,0.08310567931826136,0.08982021957628228,-0.005474812439101119,0.027983863360256246,-0.0005141039740387404,-0.03232886681055937,0.0024049186491612888,-0.07853836528398518,-0.013483365898812213,-0.0029706574757060898,7.200806205371593,3.5561902987680885,2.1299034404304598,1.1927465714939351,0.6056788600585503,0.32503842970692576,0.17598334003501184,0.13747655528332853,0.0928219974600959,0.08290750987059256,0.0235951926102858,0.01658496169678504,0.01443141035486615,0.018799981244051554,0.04005078774965479
0.0,59.0,59.0,0.0,120.0,0.0,0.0,0.0,0.0,-107.0,0.0,-45.0,0.0,0.0,0.0,34.27253218749016,17.55503396713325,4.680064929561525,1.5012633797504975,0.7325624014267463,0.32459671424092396,0.059864642126791504,0.005220228161116482,-0.017143560410039786,-0.004967958236384417,-0.008541568833301164,0.02817816307858713,0.056791304555415686,0.01252422844021588,0.0014040219215717504,-0.015958761091144472,-0.025326946812393527,7.128915685624171,3.473033675596019,2.080671300764374,1.197153041656237,0.5807081459243575,0.2717559781149745,0.15893824816718874,0.07319348027387435,0.10017736194233601,0.07536444964226631,0.05748282391867221,0.043347875867653984,0.03156096017359952,0.03820258973633799,0.009681722951127958
0.0,60.0,60.0,0.0,120.0,0.0,0.0,0.0,0.0,-107.0,0.0,-45.0,0.0,0.0,0.0,34.27253218749016,17.55503396713325,4.708750753545988,1.4664432157367548,0.7005881475832525,0.21386208911765117,0.14828844555998194,0.07859474483604822,0.089460674177584,-0.036064003573084286,0.015880975505297552,-0.0009584826442357898,-0.051103605136863545,0.04721069339085828,0.01725005784985974,0.02771436601996224,-0.06610713342681503,7.022637038105518,3.3749442121754547,1.9757328416885174,1.0787931601183127,0.5674164587630857,0.30259908601190694,0.16514428540890538,0.11834932137402081,0.0721012713757383,0.028752775650258165,0.03803613485459303,0.03464143597215942,0.009002579320903016,0.01375522574857289,0.06766278743652515
0.0,61.0,61.0,0.0,120.0,0.0,0.0,0.0,0.0,-107.0,0.0,-45.0,0.0,0.0,0.0,34.27253218749016,17.55503396713325,4.667268090453336,1.398378486791652,0.6030229730109707,0.29162756063871925,0.11074471471509785,0.03910014762328246,0.05280200593024181,0.016218741933353164,0.030445968077121764,0.011197107493157523,0.10197495809514048,-0.05614083856907401,0.056280782626623796,-0.08554955436302979,0.033377239965247565,6.9357381069658395,3.294692933174662,1.9616493381838163,1.095102904464733,0.5842937603444419,0.32313934332583205,0.16819343328574193,0.09371634869914555,0.08081583009077631,0.06513184598151309,0.047302695257368695,0.05895733566594801,0.0017460449714476207,0.030908665107806512,-0.02112836042171436
0.0,62.0,62.0,0.0,120.0,0.0,0.0,0.0,0.0,-107.0,0.0,-45.0,0.0,0.0,0.0,34.27253218749016,17.55503396713325,4.588695892707692,1.3559930513896696,0.5667038728069205,0.2621474203878207,0.08373070944157143,-0.04693067366213016,-0.020119528905164132,0.04823532109337929,-0.036262175216037196,0.03016407026055441,0.03178496584607751,0.035793273763588394,0.009553669008245495,-0.0337732880334111,-0.0379589495515917,6.871192827683444,3.2215055094630554,1.8720505568244972,1.025376114570392,0.516729888135102,0.2868665548236063,0.1727865486697916,0.1220103423189836,0.07252647092381646,0.0524002247537234,0.009937820404666411,0.061602565224662106,0.014608709923051398,0.03309650018819386,0.0017107797069351276
0.0,63.0,63.0,0.0,120.0,0.0,0.0,0.0,0.0,-107.0,0.0,-45.0,0.0,0.0,0.0,34.27253218749016,17.55503396713325,4.419978396092208,1.2909172967465665,0.6051765821889823,0.2368406002189431,0.11245440594618802,0.03580314264076875,0.010964590341745826,0.05256749605838119,0.024293759482558026,-0.037112054348326096,-0.0013587828731159465,-0.011486731649010457,0.005402316811327529,-0.040462402147116626,0.03537882953407075,6.77385888262165,3.062068261094254,1.7736750876186227,1.0631041341032423,0.5714342244259545,0.28612497799345316,0.1817126933965658,0.13359469002416133,0.0450749245370297,0.06784909814352193,0.033417343581522124,0.026442547685966992,0.008849511190218236,-0.01882197473221652,0.00638568920236924
0.0,64.0,64.0,0.0,120.0,0.0,0.0,0.0,0.0,-107.0,0.0,-45.0,0.0,0.0,0.0,34.27253218749016,17.55503396713325,4.21829965050493,1.1963051208088507,0.5882623980235557,0.2736671120668073,0.08120009062323442,0.0924869161464682,-0.0010428070850645905,-0.020543042815897798,0.09067901096857227,0.030226113278746664,0.027347387232570332,0.03418312597616813,0.02084348295438403,-0.02563699319275595,-0.024593777132327816,6.668600201958259,2.9969420435124188,1.740238496983007,0.9703325682375612,0.5495738837639487,0.24287366838429633,0.19616538948176485,0.13118964807708658,0.0794483943001342,0.05900549170892793,0.031958498494078766,0.007998373242982925,0.0068297167498857485,0.018588512797766497,0.05264183844608356
0.0,65.0,65.0,0.0,120.0,0.0,0.0,0.0,0.0,-107.0,0.0,-45.0,0.0,0.0,0.0,34.27253218749016,17.55503396713325,4.204604961242733,1.1014477902404671,0.4787970285044218,0.2664150512970579,0.09684003635293849,0.003929554196797899,-0.014526693338723785,-0.031135307201236806,0.07131215794713684,0.0035522649314082737,0.0027699111722370683,-0.010363555237368259,-0.020628115570415932,-0.05387743375924129,0.011681504025995089,6.57586760690155,2.871723415665013,1.6613050952898878,0.9610780335756515,0.5102583976286416,0.2459362508883856,0.14449703725838778,0.10233734675550199,0.10653663465867222,0.07763857997495877,0.03408072967761022,-0.014866737686666843,0.014663088091607154,-0.007865734429319968,0.024789946302070473
0.0,66.0,66.0,0.0,120.0,0.0,0.0,0.0,0.0,-107.0,0.0,-45.0,0.0,0.0,0.0,34.27253218749016,17.55503396713325,4.007223378567035,1.0662632645615333,0.4886711368472377,0.21640097050043683,0.05943251942504561,0.0943109144864782,-0.019059450875080475,-0.09940584171463487,-0.05466941622679865,0.012828659192408096,0.0004957008873179916,-0.057756843941093566,-0.06606812303500981,0.0008352264810012773,0.052399516011345355,6.425050673869824,2.753104089297677,1.597385568198216,0.8822071339859409,0.4267405767614575,0.26134018036814705,0.15228315874367593,0.11640036842910242,0.08492140158384408,0.049875038809099506,0.051826175204320965,0.006875648591815529,-0.013804235487650598,-0.02791774352234137,-0.009124405206792453
0.0,67.0,67.0,0.0,120.0,0.0,0.0,0.0,0.0,-107.0,0.0,-45.0,0.0,0.0,0.0,34.27253218749016,17.55503396713325,3.9318841582701554,1.059990114503737,0.4265785189541107,0.22389727973763554,0.109702111539329,0.06957890942897835,0.03255843246629882,-0.02363160143590451,0.003606747017500253,-0.0330278313131072,-0.04082620310700262,0.05509891169636819,0.025215509112414332,0.001523226365178394,-0.03306838566245505,6.261216322699801,2.662945834131893,1.542399026326266,0.8787273071604691,0.45895644498147703,0.2649023953796261,0.12949889114618635,0.13296965072584577,0.08004480704569675,0.0007326436558115004,0.022809382444064084,0.016795820863878784,0.05169704906608461,0.008842351027402202,0.005450743889043601
0.0,68.0,68.0,0.0,120.0,0.0,0.0,0.0,0.0,-107.0,0.0,-45.0,0.0,0.0,0.0,34.27253218749016,17.55503396713325,3.8035473917385674,1.0097720226717988,0.35527869237621307,0.21839931973289398,0.03568612058072972,0.03271663966443745,0.00615738818582633,0.04354071504098256,0.11407811117684978,-0.05246584637161987,0.02106891496027718,0.047637391988754565,-0.005492938404022937,-0.02247181188078164,0.06398305953568273,6.117242820091441,2.5451137739285374,1.4599246922776117,0.8202395164624409,0.4567191168042226,0.2152740854409478,0.12436665644341625,0.08375348052019571,0.08200532785535364,0.0625166615788643,0.06461034616290627,0.01711904938396053,0.023076275690913084,0.03617555790181422,0.006778518857150282
0.0,69.0,69.0,0.0,120.0,0.0,0.0,0.0,0.0,-107.0,0.0,-45.0,0.0,0.0,0.0,34.27253218749016,17.55503396713325,3.645584707653805,0.8643302101383795,0.4351482299763797,0.19450699574162958,0.06230701115968139,-0.006431512740528757,0.016857676521124514,0.03000295563402361,0.01621999889499929,0.0013858549065336625,0.04165076161271295,0.04107669820880963,-0.029272406666262296,-0.005965945143155867,-0.013966072838909471,5.969739483617921,2.442564367929561,1.410179871016734,0.7751817245394814,0.43387460546074125,0.2949380502419129,0.09530596745073298,0.08702480012469568,0.04000159764245223,0.051409017454474175,0.05400701388240127,0.029839119326356165,0.045635956692517396,0.021348570758098203,0.032819044829284
0.0,70.0,70.0,0.0,120.0,0.0,0.0,0.0,0.0,-107.0,0.0,-45.0,0.0,0.0,0.0,34.27253218749016,17.55503396713325,3.4570605341086846,0.810694139841963,0.39227983009741196,0.18140953972254825,0.0829048504715394,0.06437897070948852,-0.009123568564690626,0.014509063562207023,-0.020460720071859166,0.03618143542338504,-0.02118933745363546,0.014044146741335577,-0.04193155762209021,-0.00018306113983983198,0.013228939656474346,5.82098958615462,2.3436502603296683,1.347876992857189,0.7612818716405042,0.4115966855440375,0.21581653132296852,0.1380124089973165,0.09931717093887682,0.07532603646903598,0.05628463809338772,0.06050499604711669,0.017956835308849686,0.05085315980398092,0.014547406294330323,-0.010201639002225985
0.0,71.0,71.0,0.0,120.0,0.0,0.0,0.0,0.0,-107.0,0.0,-45.0,0.0,0.0,0.0,34.27253218749016,17.55503396713325,3.295213466694452,0.7869264257324485,0.35421087397889706,0.20004595981454512,0.05022408089017636,-0.003127212761011376,0.023864931877812388,-0.013777017679001408,0.011398222393421843,0.03301941678367461,-0.04658438901839138,0.03568327587766557,0.018548503810773234,0.009352252040879973,-0.05149802564757337,5.578878496229116,2.206320221856097,1.2623003579244292,0.7359508754784958,0.4256837437512514,0.22996901608332815,0.11995737835797726,0.07322318753676924,0.09112926637769422,0.05433005182104346,0.05424030641703454,0.005125183096370688,0.020108687022015438,-0.005668180471131823,0.002050002101170258
0.0,72.0,72.0,0.0,120.0,0.0,0.0,0.0,0.0,-107.0,0.0,-45.0,0.0,0.0,0.0,34.27253218749016,17.55503396713325,3.0797071493060533,0.7287535475582397,0.3256795231014724,0.1070499717540393,0.02642566393670398,0.04667075344503879,0.02067854600611483,-0.019734943396603942,-0.012651394222315836,0.021080129552832595,0.0502961279547893,0.03185691095378661,-0.006286557796994226,0.003921280069344215,-0.03629469896815431,5.416901065540735,2.1245510699497916,1.209695958974388,0.6936414344524204,0.3852310898968676,0.22472694571805948,0.13442114460512058,0.11412839729907702,0.05645355775844559,0.047690848003168536,0.049833374454609156,0.018772954256796977,0.03111374431587477,0.020863634946352256,0.01824422177038943
0.0,73.0,73.0,0.0,120.0,0.0,0.0,0.0,0.0,-107.0,0.0,-45.0,0.0,0.0,0.0,34.27253218749016,17.55503396713325,2.8924895792114733,0.7403282887193245,0.2584133934409445,0.14227187178522083,0.09964519188001625,-0.011731831452918607,0.058206842069429,-0.024050933730755203,-0.04747596303613137,0.05082543568349738,-0.015450471745904758,-0.03188276074445744,0.05200556969879808,-0.04661869665647001,-0.018804208394303086,5.195316201738517,1.9928621453073954,1.1473042049525763,0.7094478426007623,0.411052639706291,0.2333364808803947,0.1080878470849441,0.08120760341906788,0.06045045226754512,0.045113475010150964,0.03387337416684278,0.02534654418466393,0.019179694133162544,0.03012696516954179,0.029503117386881272
0.0,74.0,74.0,0.0,120.0,0.0,0.0,0.0,0.0,-107.0,0.0,-45.0,0.0,0.0,0.0,34.27253218749016,17.55503396713325,2.8045668050773744,0.5743252790382769,0.3126016741516691,0.08440942982040867,0.0283692423120164,0.08474731964039758,0.0090728144329946,-0.009536227940584029,0.00028956699181907804,0.0254134217714119,0.029810804079308407,-0.03743318706970881,0.011339300439744624,-0.029922599802643335,-0.01594020900812524,4.944287842813851,1.9364965434254233,1.0945320065524444,0.6191676045645421,0.36246012544253137,0.21472665786370285,0.1466265185544596,0.07544862098386625,0.0508181122494947,0.06260400922693427,0.006325467621689302,0.03964918903693672,0.021480414639414722,0.020106863023013455,0.01733552775051143
0.0,75.0,75.0,0.0,120.0,0.0,0.0,0.0,0.0,-107.0,0.0,-45.0,0.0,0.0,0.0,34.27253218749016,17.55503396713325,2.4899831447124314,0.5918872485785966,0.23170778433603967,0.17118284310269405,0.03855114890350517,0.07245687251363889,0.024801491771834622,-0.027530498041252058,-0.03138695461282691,-0.02853323881045864,-0.015966389867190088,0.016743038274801773,-0.07309345639276908,-0.035247908698526745,-0.01202673394319299,4.756722862753775,1.7942826382577137,1.046471708495646,0.5846657409743142,0.34328101296513913,0.17098916986228685,0.13261052443237223,0.12385023904781844,0.06942437012558277,0.019047328709443506,0.044011490402282624,0.0029056856943614207,0.007210624131454878,0.01167393870211559,0.03119069441346462
0.0,76.0,76.0,0.0,120.0,0.0,0.0,0.0,0.0,-107.0,0.0,-45.0,0.0,0.0,0.0,34.27253218749016,17.55503396713325,2.325639170593893,0.5624989859529211,0.25782695418603285,0.14756098993063824,0.053251850253569585,0.07108036576752122,-0.03796346099882609,-0.018993115464283738,-0.03445066276295783,-0.021121491203982594,-0.032810828378760745,0.01947646338085615,-0.022588357882318992,-0.0007998553937116073,-0.01914079827852153,4.443752483498277,1.7036823541754886,0.9709529244801852,0.5712489770138687,0.29796530254342163,0.17358991128777143,0.1116976532142551,0.10084673202038333,0.038300909577349246,0.07461107349575277,0.027211703669189354,0.02982600783684943,0.017269661006146932,0.020684627658781533,0.04335968362983722
0.0,77.0,77.0,0.0,120.0,0.0,0.0,0.0,0.0,-107.0,0.0,-45.0,0.0,0.0,0.0,34.27253218749016,17.55503396713325,2.1714438341015145,0.46413835706533774,0.22397904164299953,0.1340219212151423,0.015976384490058525,0.039830612985456114,0.010736697256026443,-0.02784109104963407,0.018074373841654216,0.03903679333604055,-0.0315595299756002,0.05949945918732937,0.009512484250735661,-0.004124907569273445,0.014375398161286615,4.131216817593585,1.6241779104956993,0.9572614195607445,0.5603739255148369,0.3290393113510306,0.19150655541142034,0.08812257285117119,0.07669527630411552,0.02125590837559259,0.07868685044297419,0.027190537556651368,0.013993569855288646,-0.01595037576465758,0.0008970361297287949,0.0028845824036707267
0.0,78.0,78.0,0.0,120.0,0.0,0.0,0.0,0.0,-107.0,0.0,-45.0,0.0,0.0,0.0,34.27253218749016,17.55503396713325,1.926104923915223,0.4055156674964208,0.2108601154142155,0.13925867373393797,0.06396494543342575,0.030181146997981793,0.0372885073584154,-0.00633911401672598,-0.023445077424556485,-0.016267975726337466,0.028254660066338203,0.033737580423801046,0.0010708235474084626,-0.035114072315292205,-0.0062486277622512834,3.942286032171999,1.532738477835673,0.8837001133977131,0.5518367858854989,0.30761548326160576,0.16926962214835894,0.05174508765080357,0.05194683733784283,0.08279126189177952,0.038315564714326775,0.031770876319619966,0.018052230152562514,0.02179768369936748,0.02164549341124395,0.016790394408772166
