Line_number,Fiducial,Easting,Northing,Height,Elevation,tx_pitch,tx_roll,tx_yaw,txrx_dx,txrx_dy,txrx_dz,rx_pitch,rx_roll,rx_yaw,PX,PZ,S0X_time_1.086e-05,S0X_time_3.256e-05,S0X_time_5.426e-05,S0X_time_8.680e-05,S0X_time_1.411e-04,S0X_time_2.279e-04,S0X_time_3.689e-04,S0X_time_5.860e-04,S0X_time_9.115e-04,S0X_time_1.411e-03,S0X_time_2.192e-03,S0X_time_3.418e-03,S0X_time_5.339e-03,S0X_time_8.301e-03,S0X_time_1.338e-02,S0Z_time_1.086e-05,S0Z_time_3.256e-05,S0Z_time_5.426e-05,S0Z_time_8.680e-05,S0Z_time_1.411e-04,S0Z_time_2.279e-04,S0Z_time_3.689e-04,S0Z_time_5.860e-04,S0Z_time_9.115e-04,S0Z_time_1.411e-03,S0Z_time_2.192e-03,S0Z_time_3.418e-03,S0Z_time_5.339e-03,S0Z_time_8.301e-03,S0Z_time_1.338e-02
0.0,0.0,0.0,0.0,120.0,0.0,0.0,0.0,0.0,-107.0,0.0,-45.0,0.0,0.0,0.0,34.27253218749016,17.55503396713325,4.601125512688045,2.682291805387224,2.1807171453403984,1.7824597835416074,1.2587026925459848,0.7685117259248386,0.4118439608912894,0.18186559165109692,0.12843888595394287,0.0981391158382397,0.02992905888441609,0.029594372540470273,-0.0843587135835313,-0.033211732595580745,0.09071688699894709,6.982594777359442,4.896690527563017,4.214441364204787,3.676486016120815,2.9605399068209746,2.127346534877966,1.3381912408821903,0.7622348550321923,0.37332438719613376,0.18195686813491294,0.053862375484306585,0.002083421969154047,-0.00022948191810575995,-0.0036972072599081468,0.01048180094270564
0.0,1.0,1.0,0.0,120.0,0.0,0.0,0.0,0.0,-107.0,0.0,-45.0,0.0,0.0,0.0,34.27253218749016,17.55503396713325,4.58807636135336,2.6691397868446103,2.2215457196968407,1.835676973536367,1.2762902953615303,0.9294882401781243,0.49776620376093417,0.22240401374720667,0.05939985072070725,0.031447850546777,-0.01209082436286219,-0.00671539543377327,-0.015545096662877447,0.01419215419948412,-0.02512019736054783,6.882377937212502,4.908986312236137,4.331599653447043,3.7763754406711874,3.1349022136979876,2.3973309487419976,1.5778316262679166,0.937777931127492,0.48568635777332486,0.2725296236789363,0.096607752570109,0.033875711840858934,0.010159254186864853,0.02772733503182668,0.010938186346216693
0.0,2.0,2.0,0.0,120.0,0.0,0.0,0.0,0.0,-107.0,0.0,-45.0,0.0,0.0,0.0,34.27253218749016,17.55503396713325,4.543655269581634,2.577378557156035,2.2055174725117954,1.8396575262185084,1.4247955475415732,0.9661789014923986,0.5912401484120529,0.24706575573199727,0.15030454896162154,0.02789823574038618,-0.004361313329991939,-0.051893146835949325,-0.1301422054498362,-0.0020472303524983184,-0.011241206277466498,6.981361212543536,4.992641001419305,4.36313835909124,3.885195322991569,3.2343909596659417,2.5650030491427853,1.76130996436158,1.063790787012436,0.6092370315262583,0.31228068822891664,0.12566719283635705,0.04509719295681832,0.031136304994090716,-0.002671009475869933,-0.02009350467307809
0.0,3.0,3.0,0.0,120.0,0.0,0.0,0.0,0.0,-107.0,0.0,-45.0,0.0,0.0,0.0,34.27253218749016,17.55503396713325,4.628037040360096,2.709416152174127,2.213047418819151,1.867125257857337,1.5225985290254258,1.1122003981348199,0.6570668671310349,0.35518411827438295,0.15313787098435994,0.07060166061408886,-0.03663532376306211,0.05163943196252154,-0.012255278736900629,-0.012206750033165252,-0.035836001915785634,6.932996868061235,5.011289916815267,4.404051135878367,3.886436810951629,3.328780762375646,2.62506851934621,1.8816537512359117,1.2154334801650284,0.7277299553011938,0.36032045439044696,0.16325504358614423,0.07809219044052479,-0.005082589953139947,0.05437272480462436,-0.011057327313689067
0.0,4.0,4.0,0.0,120.0,0.0,0.0,0.0,0.0,-107.0,0.0,-45.0,0.0,0.0,0.0,34.27253218749016,17.55503396713325,4.593888701610402,2.707303963975466,2.263823330223764,1.927491259364491,1.4888237518474463,1.1175380526694378,0.6640045454297134,0.4464133655784131,0.1668112131980084,0.031466580318263104,0.040870641437364616,0.01713157150401884,-0.04442856359909356,0.04849203931896657,-0.0015079128328941227,6.968485807786087,5.028834607078091,4.403337416399037,3.909039166076159,3.3493417095919242,2.7253789864693516,2.023060635728516,1.3604574877046918,0.8312508629079094,0.43479278109546415,0.19483080519164073,0.09120917307217452,0.03568040606260636,-0.014222179224286821,0.02695908384149553
0.0,5.0,5.0,0.0,120.0,0.0,0.0,0.0,0.0,-107.0,0.0,-45.0,0.0,0.0,0.0,34.27253218749016,17.55503396713325,4.5501938533313835,2.715932502113055,2.2615990544625255,1.9206096040235334,1.5057359680699443,1.1818053565884583,0.8176908647578423,0.41693104390089686,0.2220129409875781,0.13578992063888407,0.03263805060965914,0.030082506546090647,0.059724970315685064,-0.0064857805718424415,0.03564150797124202,6.965121076390173,5.055003495156441,4.421652971434266,3.8993516098843237,3.371005584027536,2.765587211279783,2.1319367939915335,1.4694493533058628,0.8576669782272152,0.5125376062917,0.23044167307038885,0.10532466242008356,0.06293430701143299,0.029547452401742298,0.026392081721552732
0.0,6.0,6.0,0.0,120.0,0.0,0.0,0.0,0.0,-107.0,0.0,-45.0,0.0,0.0,0.0,34.27253218749016,17.55503396713325,4.582051991574117,2.8070848252817675,2.2736141549171447,1.9262953430323118,1.5899454437718976,1.1204029824749115,0.8621309402808096,0.5382029076568223,0.32539388941044817,0.1051498739236338,0.09157822886898176,0.03928736268119352,0.003039590620372309,0.039329850409770606,-0.028703218868361854,6.991902813481855,5.053822504773485,4.433833594086713,3.942742877281947,3.4489396910721974,2.8324147566225184,2.1498870626123305,1.5632722288307455,1.0064232766632883,0.5649867137248565,0.2959197235349578,0.094352962926562,0.045302291093882535,-0.006319565547213444,0.03737042898452555
0.0,7.0,7.0,0.0,120.0,0.0,0.0,0.0,0.0,-107.0,0.0,-45.0,0.0,0.0,0.0,34.27253218749016,17.55503396713325,4.6157072330657485,2.744052203163511,2.304764878213606,1.9383269390503577,1.6364831456284448,1.2169672869779162,0.8824072229256154,0.48991948652648,0.3830530304538583,0.10582988272807747,-0.02089907860470676,0.04646775484539732,0.005609953698611355,-0.00989696170871623,0.03161444546039759,6.991578803581299,5.1033284646292065,4.4501845946892,3.9410973929542217,3.475987045033349,2.8924612983185027,2.2379958671602536,1.6428068586965743,1.0864962554571471,0.6434003237469155,0.31634651799804614,0.14373784216590507,0.04737433017473402,-0.022073063389225187,-0.002842169361030898
0.0,8.0,8.0,0.0,120.0,0.0,0.0,0.0,0.0,-107.0,0.0,-45.0,0.0,0.0,0.0,34.27253218749016,17.55503396713325,4.6102457282046005,2.871549977947025,2.348116827308975,2.017848605352375,1.5354440715243358,1.2244293684178005,0.8546541390911968,0.5959683623499902,0.381203295096445,0.13645841583062515,0.047688789036229653,-0.010865436613928327,-0.011644840579402752,0.0293298222869688,0.1290154734338239,7.038411454105051,5.098692650197157,4.505699661631918,4.00259456979562,3.4974155765221617,2.94031274985246,2.3132386343095344,1.677441769293056,1.1375045425973782,0.6496102621606075,0.3394720819627102,0.14312279621278487,0.0854855534316293,-0.01854039293045612,0.034539846391837756
0.0,9.0,9.0,0.0,120.0,0.0,0.0,0.0,0.0,-107.0,0.0,-45.0,0.0,0.0,0.0,34.27253218749016,17.55503396713325,4.628869255582645,2.8763865407615237,2.3966310794885963,1.991406758122362,1.578718875189767,1.2175596381340108,0.9278051015419614,0.6110554671580686,0.2965452375523036,0.11929509134771332,0.01054630591348621,0.10430178255875021,0.055565365154077125,-0.0024334565873418822,0.016841617623775087,6.992905332793482,5.086247989477814,4.543534106198462,3.98778045914541,3.4794947067763466,2.932670460689048,2.343263540333932,1.7330691696652178,1.1732374410664872,0.73876212822641,0.3924763377266594,0.1616693297953641,0.06925696273049357,0.007127728207593029,-0.005606615356631283
0.0,10.0,10.0,0.0,120.0,0.0,0.0,0.0,0.0,-107.0,0.0,-45.0,0.0,0.0,0.0,34.27253218749016,17.55503396713325,4.6353565712748575,2.813605794113502,2.4072121343546864,2.015764637055152,1.6099019152059633,1.2081263015675732,0.9278665691620774,0.6303251912542801,0.3705576025174098,0.17459444482821918,0.09694613217833492,-0.03198546675867189,0.013131669606594199,0.05889491521531461,-0.012828882400049115,6.990188608110868,5.173183518015818,4.603672645861368,4.067260109222691,3.562568118462022,2.951910055719287,2.335738116624573,1.7788909918500566,1.2461096823684918,0.8002629930534099,0.4177787347040887,0.20878838893499815,0.0709097416654051,0.045463771890154936,0.0007193810635196408
0.0,11.0,11.0,0.0,120.0,0.0,0.0,0.0,0.0,-107.0,0.0,-45.0,0.0,0.0,0.0,34.27253218749016,17.55503396713325,4.692219388337009,2.8822194106619117,2.3787419324036,2.065357428892421,1.6493498663408401,1.2965487845103787,0.9613931463509243,0.6251664380529632,0.3224557341665721,0.25371899241515583,0.09419994968393455,0.05494363009738349,-0.014290764887491833,0.001630687704590544,-0.050609221002832126,6.996702734823799,5.181098922183439,4.6120119918965825,4.149158741780296,3.5689833973994456,2.9837133529817765,2.361827544244909,1.8099120579567203,1.254029006738478,0.7976702567611391,0.4663820145978347,0.23984395946109824,0.05155302346750184,0.022106242645254945,0.019536276690082958
0.0,12.0,12.0,0.0,120.0,0.0,0.0,0.0,0.0,-107.0,0.0,-45.0,0.0,0.0,0.0,34.27253218749016,17.55503396713325,4.649470425830657,2.9841689683028734,2.452443739279678,2.0680121395370983,1.7440876271139625,1.3007304961995187,0.9659263261469314,0.6710825818929234,0.3951280996594007,0.2533521106825716,0.0851777502731629,-0.07186323850414221,0.0014642045856299944,0.0025171838641973284,-0.00397595281652176,6.970768204047074,5.243217108943847,4.599760404279754,4.149788646920374,3.5626726846377945,3.012026944947481,2.4328999648225405,1.8709069288870215,1.3042897961686635,0.8439039790854292,0.4963056221142288,0.20486843294539442,0.07625647685006604,0.036039108836735854,0.010189469310532119
0.0,13.0,13.0,0.0,120.0,0.0,0.0,0.0,0.0,-107.0,0.0,-45.0,0.0,0.0,0.0,34.27253218749016,17.55503396713325,4.622123764782486,2.906135370470947,2.5069159442459226,2.0521106929436628,1.6565323732091062,1.3156875215452595,0.916827058535706,0.6219549091352709,0.40077229437054507,0.20828032633972132,0.09764548174783201,-0.028930932579581507,0.07872059731289974,-0.09778057753171089,0.01805092816834553,7.021950052653653,5.241992987748004,4.656437822154028,4.158750103601021,3.5919638063416124,3.051537773027018,2.4439462090668753,1.8883454841760074,1.374674807828808,0.88525541838647,0.5308983612278688,0.24905319374367876,0.09215483625313807,0.0823528917527539,0.01688400339367413
0.0,14.0,14.0,0.0,120.0,0.0,0.0,0.0,0.0,-107.0,0.0,-45.0,0.0,0.0,0.0,34.27253218749016,17.55503396713325,4.585393782749085,2.980052367078511,2.4982571215950267,2.1375857001958365,1.7539547676308673,1.354991868950424,0.9943801343652284,0.6755573792748604,0.4362288122314826,0.2159816818641457,0.14801383040796257,0.09579846640157194,0.045034694625251406,0.030123689488507063,-0.0021158324308377936,6.986627418676966,5.306600030298741,4.716338123059228,4.177254086809922,3.656254352948094,3.010883879688861,2.4708017925842585,1.9277528905708232,1.406259454695472,0.9421914844488931,0.5557908859366382,0.26562298688887936,0.15787487395695643,0.04267744261621155,0.01195102309673771
0.0,15.0,15.0,0.0,120.0,0.0,0.0,0.0,0.0,-107.0,0.0,-45.0,0.0,0.0,0.0,34.27253218749016,17.55503396713325,4.6311393056775145,3.068501981085508,2.5395346880154155,2.141743879723853,1.7426580102634939,1.3938566632650813,0.8683821428333173,0.6967064036706089,0.43792542440047466,0.2677386520209566,0.1498005720363926,0.05744678240479337,0.004773777803471081,0.016676143700301006,0.050594329726440866,6.987286721193875,5.353693729358798,4.735180104669919,4.220541709432603,3.6143492693986925,3.055525704310276,2.444938000625077,1.9182575638545727,1.3979196073035096,0.9339226956776239,0.5874772387117754,0.3073506301670535,0.1022317165383099,0.038952851817861144,0.0008250483090113912
0.0,16.0,16.0,0.0,120.0,0.0,0.0,0.0,0.0,-107.0,0.0,-45.0,0.0,0.0,0.0,34.27253218749016,17.55503396713325,4.649740834280041,2.9985842060207744,2.620142927972377,2.1285594350514367,1.7200763213883472,1.3593519306664237,1.0085006916783006,0.7801969391547718,0.462604818168113,0.27765554387667213,0.09275014848119675,0.045406927130776535,0.05684365981063732,0.04877588309383237,0.008550045754734524,7.050034507087382,5.392886332461706,4.7567842902734565,4.233412869923714,3.6739931245036774,3.150957866377362,2.4684179010167924,1.9017745927882344,1.4198850022905174,0.9849145601308594,0.5727789745751712,0.2718762997168515,0.1028014420352837,0.059785850335921716,0.03578055571951657
0.0,17.0,17.0,0.0,120.0,0.0,0.0,0.0,0.0,-107.0,0.0,-45.0,0.0,0.0,0.0,34.27253218749016,17.55503396713325,4.664835757748841,3.0605928911851668,2.5139630059472395,2.214505714237496,1.7022522802408293,1.4290610686121772,0.9790999322489857,0.7787523676021674,0.4683471437783329,0.18252974395085145,0.19880903738622924,0.03741974124343654,0.018870211601552635,-0.020114241874193237,0.04067804230370423,7.074322523405219,5.367427996962412,4.775276818479569,4.3164892193030875,3.7636572850644354,3.1371742454382505,2.555429709997251,1.9482933311200474,1.4739000511030322,0.981504317431545,0.5962409502797646,0.32349111307137546,0.14098450047079145,0.05062770591202171,0.050029729391822805
0.0,18.0,18.0,0.0,120.0,0.0,0.0,0.0,0.0,-107.0,0.0,-45.0,0.0,0.0,0.0,34.27253218749016,17.55503396713325,4.724883723894875,3.1502066392129433,2.680298019538331,2.1934817011620487,1.874507948418076,1.3580072749724657,1.0144133257839176,0.6902198494805476,0.47787510758621154,0.24256081199420454,0.08425698090423303,0.08617706462125319,-0.017136235169731843,0.06937893896526517,0.016336743914553198,7.067900288582927,5.37673154405152,4.807747826834234,4.2886764776942226,3.75068427154023,3.131871771390954,2.5426003712644034,1.9570168732952988,1.4938855274039702,1.04015238854225,0.6017964078929243,0.3250244785460394,0.15821560854775257,0.06857780889832421,0.0018285907797257715
0.0,19.0,19.0,0.0,120.0,0.0,0.0,0.0,0.0,-107.0,0.0,-45.0,0.0,0.0,0.0,34.27253218749016,17.55503396713325,4.693850148555888,3.0634810128246306,2.6419295472941053,2.236887970327908,1.78497285740212,1.2487323242465354,1.0746892018562897,0.7005189445171272,0.4233886283157788,0.3368959544596916,0.15797731379106864,0.05837008672242389,-0.011978319423824785,-0.003475747471599006,0.002558889302937074,7.0889017091009245,5.452997010664713,4.79454271276217,4.324419362598652,3.7726368594722755,3.140584679453348,2.541223021630618,1.955394208615577,1.4955960579758911,1.0321887186529182,0.6666240803628861,0.34039258508853,0.1834272828271997,0.06206496807576084,0.027175889165408078
0.0,20.0,20.0,0.0,120.0,0.0,0.0,0.0,0.0,-107.0,0.0,-45.0,0.0,0.0,0.0,34.27253218749016,17.55503396713325,4.758675274532131,3.1656557358246094,2.687351313951802,2.294669590641274,1.7674252658530991,1.418508997203944,0.9563217865440933,0.7091990939269845,0.47269991774888875,0.3347065886900967,0.13495464579476477,0.07941861873312793,0.0034608210621370865,0.015286143249273538,0.06749871561357658,7.094149210977794,5.443628116685579,4.879521636049752,4.370062407830656,3.768939984921416,3.142882377362612,2.5692146059671903,1.9925790509835424,1.5154662488057742,1.0323746910066587,0.6282522609039131,0.3681199712102457,0.19073319057750912,0.09895554463633544,0.012217194984028129
0.0,21.0,21.0,0.0,120.0,0.0,0.0,0.0,0.0,-107.0,0.0,-45.0,0.0,0.0,0.0,34.27253218749016,17.55503396713325,4.757718440073773,3.1854505853601967,2.667654417002679,2.2466018190643977,1.8068429530406562,1.4461746091314305,1.1077960109205682,0.7141982345069724,0.4487089108932224,0.2611088029428293,0.14238527897309414,0.036168798512335384,0.04021419017888693,0.021656521423816515,-0.011297896649043213,7.022913729821703,5.5048515619721865,4.91820570986474,4.375160177969472,3.776274613898319,3.210188856354801,2.561140786721496,1.9889074811816638,1.4901966169668448,1.086169207563415,0.6937425510560566,0.37912131307987657,0.16693196888326978,0.08361820733691899,0.009979422599710613
0.0,22.0,22.0,0.0,120.0,0.0,0.0,0.0,0.0,-107.0,0.0,-45.0,0.0,0.0,0.0,34.27253218749016,17.55503396713325,4.764155928970451,3.1568925529694742,2.7434710791763246,2.297108266274923,1.892447975479791,1.3898091425478112,1.0230812773739921,0.6675414557137065,0.44023907626992365,0.304745130527851,0.1306271530804123,0.10396001174694455,0.011139708149091463,-0.012335853242965837,0.0034220869119695003,7.1075074960651285,5.542146602427028,4.965047392051212,4.454792745591037,3.83332138089641,3.19961348232405,2.584047497515697,2.056162372644356,1.525284206356599,1.086953686963393,0.676053300677884,0.3635167148952808,0.22700014089274728,0.06697024041591036,0.011090880949767668
0.0,23.0,23.0,0.0,120.0,0.0,0.0,0.0,0.0,-107.0,0.0,-45.0,0.0,0.0,0.0,34.27253218749016,17.55503396713325,4.771894523461756,3.2581328617861893,2.7906758217111602,2.3771569794038734,1.8736203763517258,1.4034527229246985,1.0807406073528696,0.7777170546776976,0.5023752670264331,0.318301149734097,0.14320529732698947,0.04142466388405189,0.08374941577029238,0.032780486682084053,0.02350575323655328,7.108360075299842,5.563171136608699,4.995247307669698,4.4648944245158315,3.832232732271636,3.243899753621332,2.60008920358765,2.0611778141350845,1.535488437969643,1.0733477532125058,0.7019139043317256,0.40027261140645126,0.1708748172599486,0.12099370146523822,0.05953025397113505
0.0,24.0,24.0,0.0,120.0,0.0,0.0,0.0,0.0,-107.0,0.0,-45.0,0.0,0.0,0.0,34.27253218749016,17.55503396713325,4.809625995482152,3.228825714212027,2.855436822893122,2.366455607754659,1.8675352981463818,1.4721522506885107,1.1064111738292568,0.7197550742433564,0.485181509531777,0.30497985297455216,0.19371924881359565,0.057102011831586676,0.02242400650151062,0.03418839289686142,0.01071681637172377,7.1599931047846805,5.581899755853505,5.0252594365763406,4.502822066068115,3.9280876729779877,3.2379893503909716,2.6539505553539833,2.0445354345679414,1.558129224393225,1.101806349782396,0.6845289577552267,0.41764965233747864,0.1959971692090654,0.09084120244438788,0.022733006624406922
0.0,25.0,25.0,0.0,120.0,0.0,0.0,0.0,0.0,-107.0,0.0,-45.0,0.0,0.0,0.0,34.27253218749016,17.55503396713325,4.812715747841161,3.313403576128544,2.8125429935534725,2.3758336996522074,1.914606678060389,1.4557365023970203,1.128798626090884,0.7802301517559397,0.48152292356478904,0.29810113569436136,0.11383641962346717,0.028907143915880222,0.09053799122745543,-0.042270108992381365,0.06734922814804145,7.195831113866971,5.622046736941936,5.11288272141381,4.472591562941132,3.911801570382494,3.2803540145841312,2.6648420374557142,2.114082801987762,1.5262373011812784,1.1072287075367788,0.7128657076875914,0.43099054148958504,0.21054822441588222,0.09811392488927564,0.03466868284154334
0.0,26.0,26.0,0.0,120.0,0.0,0.0,0.0,0.0,-107.0,0.0,-45.0,0.0,0.0,0.0,34.27253218749016,17.55503396713325,4.785860710894186,3.297244708560847,2.8433270976383627,2.3359046718727186,2.0179709436374282,1.5546739829546488,1.0760180694361603,0.7917027102672106,0.47981456851901255,0.3202078491014862,0.1566232081777379,0.07811861417262145,0.029013769402722482,0.03837096396948542,-0.027875412005676455,7.212549910702046,5.625520040403922,5.102845221207259,4.534601119532105,3.975849797005329,3.3813352173804407,2.6429793195110456,2.0878090843979082,1.6045929633913487,1.1393347564368246,0.7186988455252559,0.4391369324756348,0.20203386485224065,0.099860754112846,0.0025606990213654784
0.0,27.0,27.0,0.0,120.0,0.0,0.0,0.0,0.0,-107.0,0.0,-45.0,0.0,0.0,0.0,34.27253218749016,17.55503396713325,4.878774842550862,3.310216440168926,2.9382268482533185,2.4320772920933975,2.0453294336952075,1.5274057475119556,1.1466035719000525,0.73333898928653,0.4681912977120628,0.327087573158278,0.1504401647924461,0.09099366087225688,0.03623875678357704,0.0033301865246344684,-0.047693176961176816,7.19814635571998,5.70930333161295,5.188141685354646,4.57466059777758,3.9736432715351744,3.2986660741412486,2.71765573460993,2.032852492989706,1.569472919690662,1.1452351587716039,0.750855347649819,0.4407998021502287,0.26389403266212685,0.09207590086995646,0.029968975661488432
0.0,28.0,28.0,0.0,120.0,0.0,0.0,0.0,0.0,-107.0,0.0,-45.0,0.0,0.0,0.0,34.27253218749016,17.55503396713325,4.863221952605819,3.490997393917342,2.9689116239870135,2.4673206165395696,1.9910210394937127,1.5403280567178992,1.0880219677278624,0.8362296434838496,0.4540152663106372,0.35326040375666856,0.22636264113391702,0.04879048579659932,-0.0030629736852715306,-0.04765957577479994,-0.05674587910239439,7.243415462375666,5.746285729728711,5.138117043561737,4.6104299154699016,4.008535489076554,3.395055581748979,2.707936613765979,2.1221192686640675,1.603557821934204,1.1448073052520416,0.7388629458664674,0.5153621723435688,0.26969550863979386,0.12753223191344445,0.045191636337541675
0.0,29.0,29.0,0.0,120.0,0.0,0.0,0.0,0.0,-107.0,0.0,-45.0,0.0,0.0,0.0,34.27253218749016,17.55503396713325,4.872394373767263,3.4969103215849864,2.92905084539028,2.4642076566246414,2.07403401410177,1.4769987773283682,1.104483769416838,0.7782549576676019,0.5035509441846069,0.32154246762833216,0.18755538913698344,0.08288784531210096,0.0628010073737075,0.049708508668099866,0.01974371852695596,7.276254014174012,5.737595204765065,5.257768962332328,4.711368034583681,4.019779553470857,3.3429554395797507,2.727910775680076,2.1616860335314647,1.5998245894613923,1.1346900515475011,0.7500454166208921,0.4423966196256347,0.2803629400262461,0.05535365908363788,0.044171541572832
0.0,30.0,30.0,0.0,120.0,0.0,0.0,0.0,0.0,-107.0,0.0,-45.0,0.0,0.0,0.0,34.27253218749016,17.55503396713325,4.9248776261608604,3.487345007300996,3.0471279792036157,2.532688300412246,2.0905690861971653,1.6284025556983373,1.0113013140680394,0.729116925342794,0.5044188006824557,0.3628128309275028,0.13900365597938735,0.08441896753207719,0.11657702947427365,0.034370894416388034,0.041471872387759054,7.258929974389679,5.8507943285638,5.275172370569986,4.708481569238684,4.063461198335334,3.409576517922538,2.7142457469888988,2.119238214656485,1.5898336985675083,1.1685856399947436,0.7322087393781844,0.41134809057928556,0.2482049196808189,0.11527080741910686,0.047316288945804905
0.0,31.0,31.0,0.0,120.0,0.0,0.0,0.0,0.0,-107.0,0.0,-45.0,0.0,0.0,0.0,34.27253218749016,17.55503396713325,4.967478460644214,3.549701427150527,2.9997992124109203,2.5951821955503087,2.0088417340537132,1.5702234302621338,1.1566019998595074,0.8098660726254745,0.5220988724518412,0.2855071510345692,0.14475054177585442,0.1041453712452305,0.028133461106286655,-0.0272476367781493,0.05168478767697697,7.306830572289029,5.870579079727775,5.26271148424437,4.768797475024984,4.096540939523878,3.453343238995466,2.7776409347536037,2.14154455999441,1.622251052301738,1.1762194010920681,0.7742704424376866,0.4775763763374073,0.25882537457945337,0.15306462503347715,0.04390296270076579
0.0,32.0,32.0,0.0,120.0,0.0,0.0,0.0,0.0,-107.0,0.0,-45.0,0.0,0.0,0.0,34.27253218749016,17.55503396713325,4.966266358125486,3.548951624647314,3.001413933300468,2.514920677692138,2.0970707023104027,1.6265869757310223,1.175480584126196,0.8403294014416524,0.5535295233143119,0.31848056396403335,0.17527888556176646,0.15287422157080383,-0.0011595745907345134,-0.029780108784388925,-0.02905834956412775,7.3366042767689645,5.910508918553309,5.352568037436319,4.764216897505602,4.121127025572599,3.483824086012795,2.762140597505513,2.1586367745839263,1.6076017412960995,1.145899909775224,0.8107415486901497,0.499091814746231,0.2795087774576405,0.1296365748652263,0.06149436568651859
0.0,33.0,33.0,0.0,120.0,0.0,0.0,0.0,0.0,-107.0,0.0,-45.0,0.0,0.0,0.0,34.27253218749016,17.55503396713325,5.017841395597624,3.6236212285677483,3.0695603489751604,2.5822461272986486,2.148543129278572,1.6685373443056408,1.2030334501601394,0.7988529496355694,0.5359280337442117,0.375747024409227,0.23622603668915873,0.09392191153004922,0.038737213194508784,-0.024279522803144767,0.015850120442936936,7.289600387978595,5.914868408839889,5.341067141306407,4.812100695621342,4.2029961740294794,3.508270755574958,2.8018747282749272,2.204663148093754,1.6329573200697998,1.1875840355399725,0.7970075174665359,0.45877341338423927,0.24759588778813746,0.11693268246623666,0.06744698632973847
0.0,34.0,34.0,0.0,120.0,0.0,0.0,0.0,0.0,-107.0,0.0,-45.0,0.0,0.0,0.0,34.27253218749016,17.55503396713325,4.892959711851605,3.6333534071136295,3.128344506286466,2.647807518472851,2.1755361487754463,1.6502127558056692,1.2018620958207302,0.8654194143716885,0.4881301170070858,0.3551374650462288,0.19408506307888876,0.09510357813428294,0.0100477040684561,-0.04266761156164582,0.04800564511956147,7.340030553580874,5.940994472272405,5.423744652853194,4.822644355689929,4.169418430848041,3.508061695713701,2.8382620105596876,2.158858860861471,1.6573075916540356,1.1648204089859593,0.7946354608524867,0.44959397085806757,0.2946144137344111,0.12102841382437164,0.07890318979117332
0.0,35.0,35.0,0.0,120.0,0.0,0.0,0.0,0.0,-107.0,0.0,-45.0,0.0,0.0,0.0,34.27253218749016,17.55503396713325,5.047386449316191,3.680826795372624,3.1376610536052905,2.631599887751836,2.1860682302561214,1.6773125561534807,1.2391553483045645,0.8473183511756485,0.5713732663368538,0.36982084984308883,0.19297110506801518,0.13824192547320924,0.03299157363448872,0.025701853398299696,0.007302660365815421,7.392197390478566,6.027635529756039,5.4764900073485245,4.869442131336444,4.248185955458033,3.5038564809750112,2.790361885132414,2.2117841318872684,1.6587591120995167,1.191899983862031,0.7728777368977634,0.5049505845475685,0.2543974065381633,0.14125658883481795,0.03994540651618943
0.0,36.0,36.0,0.0,120.0,0.0,0.0,0.0,0.0,-107.0,0.0,-45.0,0.0,0.0,0.0,34.27253218749016,17.55503396713325,5.110476607994568,3.719623473276225,3.214654463420766,2.6443368478535434,2.1002461778823305,1.70012124930986,1.2228910735168166,0.8773258280732561,0.5941858780311511,0.3321368510279331,0.20765262790924507,0.11413361912249644,-0.00026045057043119074,-0.01643907687298639,-0.0014798290692767738,7.405440293828539,6.077172297035562,5.479254574725377,4.91113007759181,4.261634049142069,3.578641506115869,2.874232340007185,2.227645023424044,1.6674199283405913,1.1719411680115146,0.7837511359061626,0.5163496226459416,0.2809178211795588,0.13869869194245735,0.05418360100135232
0.0,37.0,37.0,0.0,120.0,0.0,0.0,0.0,0.0,-107.0,0.0,-45.0,0.0,0.0,0.0,34.27253218749016,17.55503396713325,5.1342409959620845,3.8688082675754942,3.2583291396638203,2.774267497998209,2.20003479111082,1.627307985942013,1.2032082382462905,0.8384337083790669,0.5389329783006724,0.37147506854382206,0.20638459700213183,0.09544760534471333,0.033081036590861174,0.008768337690650068,-0.007971959254172361,7.435442988310856,6.191834372586651,5.553193769540604,4.949592133908745,4.304546647261921,3.588271845879501,2.8916343264081728,2.1838056106633665,1.6999135864249248,1.2237905061492265,0.8026336445682375,0.5022311628721169,0.2950447129011538,0.1376836393256311,0.03804434069908236
0.0,38.0,38.0,0.0,120.0,0.0,0.0,0.0,0.0,-107.0,0.0,-45.0,0.0,0.0,0.0,34.27253218749016,17.55503396713325,5.0882325099725145,3.809042068305495,3.27939012486935,2.8009453118706853,2.2296359483721875,1.6929786987308058,1.178484800487637,0.8489818497943075,0.5605947576111473,0.3720560174429352,0.2923830098699407,0.09983285905642168,0.09858161512524824,0.0028931256335149175,0.04057778400485038,7.458276419702858,6.150244248288024,5.6575804474537685,4.944372053816335,4.2815210887848325,3.6415441252205327,2.897587134395006,2.2504866969061803,1.6974019515818737,1.1909838570344178,0.7890587456218153,0.5001697108895723,0.2932867671655632,0.12196884925260515,0.07395316975761805
0.0,39.0,39.0,0.0,120.0,0.0,0.0,0.0,0.0,-107.0,0.0,-45.0,0.0,0.0,0.0,34.27253218749016,17.55503396713325,5.207793399136201,3.8604432843288268,3.263819591742804,2.8679401172373282,2.1779451909237073,1.7022102461386133,1.2528239941028725,0.8353841688056649,0.6107641700826416,0.42233129346503856,0.20307599433165363,0.12021617970658022,0.04855316354003346,0.06679870507627764,-0.03661346818619091,7.515934396161978,6.182766600164727,5.613297853627221,5.008629284996845,4.388107245496373,3.6488737886478435,2.9555454235593324,2.2381779643776505,1.7273706840942464,1.1410615780891893,0.8001874567264304,0.5447444357536684,0.28486279239657974,0.12518856039109108,0.07278655945459783
0.0,40.0,40.0,0.0,120.0,0.0,0.0,0.0,0.0,-107.0,0.0,-45.0,0.0,0.0,0.0,34.27253218749016,17.55503396713325,5.2044053906730126,3.8645068636146442,3.3583870879157955,2.874075493858675,2.2794901678782304,1.7574417537434623,1.252211374623267,0.8130815702726394,0.5735446997838455,0.3312359297048081,0.21277347752858083,0.13024264176269953,0.04991007281934679,0.00013102574543823534,0.05172238945632773,7.489374991627385,6.248163971640897,5.644359186995428,5.036510875576887,4.406826613429979,3.675204206645605,2.976042915165964,2.2759008234213742,1.6868427888768474,1.1991542811646183,0.8667899683052877,0.5390436195809556,0.3006055690147369,0.1843987210887322,0.056569222344181644
0.0,41.0,41.0,0.0,120.0,0.0,0.0,0.0,0.0,-107.0,0.0,-45.0,0.0,0.0,0.0,34.27253218749016,17.55503396713325,5.299353815625976,3.9037671161327143,3.400496421835391,2.887089954503995,2.4231209026177982,1.7512372718612619,1.297204381856019,0.8842609351123479,0.5982182019520365,0.3195654799360993,0.22598263552982312,0.1294543094137284,0.004965645594169392,0.011090705058448629,0.06010587712289448,7.531277478876708,6.267145845207067,5.744581572049888,5.119547541775981,4.466643754976097,3.710826586758367,2.97554423941111,2.327270260526311,1.7170932784040713,1.2252213573243447,0.8285639773510678,0.5626666192688538,0.3015708790827005,0.14754359775992826,0.08980307470125565
0.0,42.0,42.0,0.0,120.0,0.0,0.0,0.0,0.0,-107.0,0.0,-45.0,0.0,0.0,0.0,34.27253218749016,17.55503396713325,5.307070054970733,4.082892316445757,3.4391438888092254,2.8978411960070023,2.356087478760708,1.795369223622287,1.2095422442940549,0.9072701217226585,0.6420065365326798,0.3451267593084101,0.19779450061215664,0.09922499218384605,0.025103168961845085,0.0036333946490816303,0.09143592948322322,7.57291461962556,6.348374728653978,5.795328966781397,5.165496165868804,4.4932445797207,3.712932966480206,3.0304438056050205,2.2810831419343134,1.7185494980048324,1.1916395481496227,0.8194535346822753,0.5073755482283433,0.3037918993710305,0.1619228235741179,0.09066819180242044
0.0,43.0,43.0,0.0,120.0,0.0,0.0,0.0,0.0,-107.0,0.0,-45.0,0.0,0.0,0.0,34.27253218749016,17.55503396713325,5.345183119223638,4.152640891709565,3.4522348149914173,2.9481378445722908,2.370816387416986,1.860081387035509,1.3641191578538052,0.9066504051989331,0.5858475409495894,0.37065822789194475,0.1891405614608939,0.1515340647472539,-0.013503344538542301,-0.012838359224769069,0.003699890163698101,7.61555778189748,6.405741577050707,5.766584385465067,5.19114569435428,4.542688616660126,3.7597692597324675,3.0041132783052826,2.339760962712273,1.7262813477083,1.1938866983196184,0.8545347157729907,0.5210700938324666,0.31849467426634104,0.1551722642728141,0.06484797117250984
0.0,44.0,44.0,0.0,120.0,0.0,0.0,0.0,0.0,-107.0,0.0,-45.0,0.0,0.0,0.0,34.27253218749016,17.55503396713325,5.351313908919817,4.1037972435146655,3.552746742169256,2.9830934380684906,2.4424426974136475,1.783488287965949,1.316511078436717,0.9257366109168773,0.554669586994889,0.3043657377213078,0.17366908877058065,0.13063655803581994,0.06847342452518004,0.0296247512091887,-0.01706803555246804,7.671564428393194,6.406364342063924,5.845042149300876,5.239255892149207,4.481522878884986,3.8008131304319495,3.022041092284096,2.3155638139074917,1.6911020230573066,1.264741928184308,0.8514059076196212,0.5307698431526027,0.32305986480689164,0.20103197769983894,0.08847849006807082
0.0,45.0,45.0,0.0,120.0,0.0,0.0,0.0,0.0,-107.0,0.0,-45.0,0.0,0.0,0.0,34.27253218749016,17.55503396713325,5.4669043924500444,4.154091684184319,3.585699769462784,2.9845449329183324,2.4232097162664323,1.871473435761141,1.3732982337933841,0.9063339319736795,0.5179752976249246,0.3630286617459912,0.20124738150887175,0.08041071526011653,0.07428465128787672,0.053723781059227024,0.03877451503359546,7.678617019110585,6.452706364343913,5.926341109305596,5.308585346159729,4.602616909413019,3.8234001334339784,3.0871158203348874,2.326660545595798,1.7418750297635868,1.2558930899876568,0.8281638636259043,0.5385519799675241,0.2812836739443798,0.1621406409433533,0.09507900065391636
0.0,46.0,46.0,0.0,120.0,0.0,0.0,0.0,0.0,-107.0,0.0,-45.0,0.0,0.0,0.0,34.27253218749016,17.55503396713325,5.4953301715333795,4.214968738790032,3.592802609144962,3.0100038634915043,2.4465115242441087,1.9006402915736516,1.3632603302376343,0.9622611176965915,0.6170200683867676,0.39400601408108804,0.18565447862823917,0.13561477797659907,0.08481201324102762,0.045415788586714745,0.02098694406276034,7.751274097955045,6.532170194510321,5.905068193233052,5.352363552079949,4.614743045966052,3.8069406319249652,3.130955067990456,2.3595004318531845,1.779930754207518,1.2690338781092971,0.855118967381515,0.5480950209904457,0.2985572962892672,0.1898310936997342,0.03907839150339505
0.0,47.0,47.0,0.0,120.0,0.0,0.0,0.0,0.0,-107.0,0.0,-45.0,0.0,0.0,0.0,34.27253218749016,17.55503396713325,5.537761576563117,4.2728898494080925,3.7005687805440597,3.0730059550014377,2.478885983120027,1.9996403909098677,1.3487537697036442,0.9144397832265861,0.5668152278140727,0.33659632320498206,0.17210584146797658,0.12593774713286973,0.08236516045659227,0.058316353640787244,-0.040848986962318624,7.785671044517963,6.564976423065239,5.965057317161277,5.375398673671784,4.658091636427772,3.8336045277303263,3.0322942570951685,2.3292140171321067,1.788425485535207,1.2283690259346578,0.8537816162406877,0.5380722042762273,0.33775799401644035,0.14217700750080672,0.09816879652765581
0.0,48.0,48.0,0.0,120.0,0.0,0.0,0.0,0.0,-107.0,0.0,-45.0,0.0,0.0,0.0,34.27253218749016,17.55503396713325,5.606711303836676,4.397372700258605,3.752084215506618,3.1221476285575656,2.4922649995752804,1.9350447459280926,1.34378998242188,0.9411430214308772,0.5916855244700225,0.3720827860703927,0.24872687291328038,0.12739486467291353,0.061935242011219895,0.01987373917595869,0.023161333199028654,7.853974008621444,6.643564473099161,6.008767601073241,5.4359091699683315,4.674753521846586,3.891111515586033,3.1593337241430683,2.406943382708839,1.7332453973868458,1.2946277725345312,0.8623753375164904,0.5515730546350781,0.3185436518242329,0.1829264777600574,0.0671774134603928
0.0,49.0,49.0,0.0,120.0,0.0,0.0,0.0,0.0,-107.0,0.0,-45.0,0.0,0.0,0.0,34.27253218749016,17.55503396713325,5.620826839377209,4.423126551959228,3.782464430108334,3.251354746865478,2.5294715641249237,1.862195389335567,1.3843501104619222,0.8180664908692307,0.5912383746076973,0.3972790426089321,0.24046484970198015,0.09746960160925972,0.08905773698755337,0.038250991947475735,-0.018641881876039948,7.915319758559903,6.733312135756791,6.047906206135713,5.485690814423545,4.7156103598559245,3.9359904379986737,3.1457394553790397,2.4123954124170353,1.7814582546170112,1.2230877196832721,0.862531433273331,0.56459721700285,0.29218107724157233,0.15231834347491657,0.06836952436385337
0.0,50.0,50.0,0.0,120.0,0.0,0.0,0.0,0.0,-107.0,0.0,-45.0,0.0,0.0,0.0,34.27253218749016,17.55503396713325,5.728957079777897,4.454658878683678,3.8054696474014476,3.263227513160785,2.5413156727035253,1.989988539436792,1.3975668905963254,0.8795487303707388,0.6374236889605933,0.3141914929957873,0.28538827783085463,0.10676741398899064,0.08912293238510333,0.03343928405484275,0.05865691110812293,7.961798651147318,6.772947192394463,6.185905211308969,5.488387840659889,4.769485879032651,3.9641480883612608,3.1791636737061704,2.4525933393262958,1.7874996941588404,1.2795208526440527,0.8610166546077556,0.5366361129955851,0.3049362184445081,0.19267693907289668,0.04600516605349333
0.0,51.0,51.0,0.0,120.0,0.0,0.0,0.0,0.0,-107.0,0.0,-45.0,0.0,0.0,0.0,34.27253218749016,17.55503396713325,5.818861019423082,4.509451557941699,3.834320916006263,3.156973213783959,2.6706203044702486,1.9559729682391072,1.4042165491004281,1.0035231670283258,0.6956570397467635,0.3901513208332895,0.22708752212942496,0.0764545021856242,0.012853189142387644,0.019493378011100685,0.029222113990574772,7.997100634721724,6.825888274152532,6.172524075213995,5.508098970550974,4.8159816429673565,4.041308557210612,3.1815006309219687,2.512977970639685,1.8161056922687921,1.2777834204275187,0.866244410763866,0.5401888312829556,0.3171300797712356,0.1686812413779834,0.08246882567592675
0.0,52.0,52.0,0.0,120.0,0.0,0.0,0.0,0.0,-107.0,0.0,-45.0,0.0,0.0,0.0,34.27253218749016,17.55503396713325,5.837197576546465,4.545441866095956,3.9161758372668007,3.2891040330180914,2.6375951273525065,2.0553549915632154,1.4591994359071605,0.9075175884311965,0.600492845405386,0.38124902896081186,0.2325865040174573,0.11229859210685597,0.10059563388791659,0.023073604830450952,0.017001585554233072,8.02801004867575,6.863936120755678,6.221161226906769,5.602262610488314,4.804988869737059,3.9846524565726495,3.218238324889127,2.4640497038054217,1.7849102778122665,1.2604729859772106,0.8696985875659001,0.5886950078680879,0.37258004270548156,0.20767248937924976,0.053484620985473796
0.0,53.0,53.0,0.0,120.0,0.0,0.0,0.0,0.0,-107.0,0.0,-45.0,0.0,0.0,0.0,34.27253218749016,17.55503396713325,5.933378492722202,4.613987641827251,3.9780628719542652,3.379210504076293,2.605010586264741,2.0543914244550328,1.436785360669717,0.9487068356028436,0.6276212826601473,0.3263655983785636,0.20116917379132188,0.1545174837574311,-0.012897832913108156,0.04430795096677105,-0.017612586447712318,8.099248633951614,6.907784318015891,6.269242650053432,5.61207086281483,4.882363305372822,4.077410224670539,3.2659239356006586,2.5257007487789336,1.8607931865925795,1.2648513404562443,0.8135894270369125,0.5714585547389582,0.3744156667525114,0.19553130088489895,0.043054974802121705
0.0,54.0,54.0,0.0,120.0,0.0,0.0,0.0,0.0,-107.0,0.0,-45.0,0.0,0.0,0.0,34.27253218749016,17.55503396713325,6.019219894693701,4.691134675063339,4.035879072184913,3.353908083766298,2.684194132248669,2.0722804096850136,1.45396676065781,0.9474687432306044,0.6901425797072256,0.3717212016707376,0.24009272731606382,0.10256522848751871,0.038334749272075044,-0.01902367691861522,-0.025778531350897957,8.164250393276902,6.992477995228927,6.3255099221349305,5.714700055181797,4.94916772635071,4.088837434974388,3.2614603961951523,2.461793726621459,1.8411258649579847,1.2913965290768386,0.8572865783537986,0.5848087558062888,0.33388006669106185,0.21500939398575958,0.08304051982479602
0.0,55.0,55.0,0.0,120.0,0.0,0.0,0.0,0.0,-107.0,0.0,-45.0,0.0,0.0,0.0,34.27253218749016,17.55503396713325,6.112266922283724,4.774615455050055,4.049170728504876,3.3482321645808306,2.687575732074103,2.0733232412922344,1.464817048754788,0.998497708765601,0.6153654845132959,0.3895056548475446,0.21233540854839172,0.1555944099008627,0.06531648806775998,-0.04528689977229654,-0.007120932817211694,8.223731768170346,7.0646608754330895,6.401675150509298,5.708153888582405,4.947991727057068,4.112609650388557,3.249058099869608,2.4956540280868342,1.859475235319964,1.2906017202979216,0.8628373101385727,0.5610783596156464,0.30661869878161285,0.16925174344843433,0.03738939599629024
0.0,56.0,56.0,0.0,120.0,0.0,0.0,0.0,0.0,-107.0,0.0,-45.0,0.0,0.0,0.0,34.27253218749016,17.55503396713325,6.174812531670079,4.847434301439286,4.167198828526904,3.4935687155357895,2.7799112668082175,2.066220509745877,1.4671982384722844,1.0197878564743224,0.6943876667089344,0.43736202132111224,0.2947931413267909,0.2121869191214747,0.1670904638679344,0.037599165035172445,0.06330604696036102,8.281956029117321,7.1260623907429315,6.4543123576236425,5.794361963049191,5.0188792886160805,4.128301994377366,3.2425798179617327,2.5223631844103123,1.8556641420749402,1.332070016478359,0.8824737519075911,0.5835872972428273,0.332979434398017,0.19072381869793406,0.05775220757800224
0.0,57.0,57.0,0.0,120.0,0.0,0.0,0.0,0.0,-107.0,0.0,-45.0,0.0,0.0,0.0,34.27253218749016,17.55503396713325,6.207260691657194,4.909118430139573,4.192732502868714,3.489255778633194,2.8135428718174498,2.0791710732276525,1.4973349895118553,1.0308573192481496,0.6076921273255445,0.44449003427045447,0.27905500112276227,0.06218230632082357,0.03999253330216228,0.0839704206680292,0.0603875322996249,8.309520948781811,7.129451071675141,6.5390597502046015,5.825359329790274,5.044991944737835,4.200464849865342,3.3407397298256765,2.55189656014807,1.881287290202255,1.3367414645515499,0.8593472319329474,0.5464849149962392,0.30957958611024106,0.2038238331481533,0.04680929766482981
0.0,58.0,58.0,0.0,120.0,0.0,0.0,0.0,0.0,-107.0,0.0,-45.0,0.0,0.0,0.0,34.27253218749016,17.55503396713325,6.290690046194136,4.972817627077463,4.215749129263492,3.513910140879904,2.773905480629973,2.136227554383391,1.541844250982518,1.0581776344573999,0.6709050010970095,0.4176176027185738,0.2118171356866783,0.10368579224440329,0.05781863358213034,0.05535631393677426,0.029675494246746204,8.39007085732243,7.211932513869405,6.625325220430857,5.868078214308673,5.099040038515525,4.25339267185985,3.337005584530121,2.5195141536573935,1.909589064362765,1.3302086896337622,0.8839750981415135,0.5240362351852113,0.28450669015905716,0.19447110032083384,0.08210096184766827
0.0,59.0,59.0,0.0,120.0,0.0,0.0,0.0,0.0,-107.0,0.0,-45.0,0.0,0.0,0.0,34.27253218749016,17.55503396713325,6.365258491316942,4.991467615881884,4.239722465690318,3.6310314808348156,2.8316756019719347,2.171589648071805,1.5923977278947103,0.9879883676656669,0.7120041504617282,0.42644403199201575,0.31126737319932807,0.13028557142494615,0.0737255306249376,-0.05641305964816812,0.017404626103576883,8.444312793808436,7.267374835974387,6.5915568279216075,5.953208665857293,5.098009896435628,4.274623013290355,3.399659033501782,2.6048361615517384,1.9044926191606497,1.3226946963209745,0.9054099488897404,0.5671773635776655,0.3675387173823308,0.18856484537158102,0.11120241597898023
0.0,60.0,60.0,0.0,120.0,0.0,0.0,0.0,0.0,-107.0,0.0,-45.0,0.0,0.0,0.0,34.27253218749016,17.55503396713325,6.386898867580088,5.053884570268097,4.363071984998875,3.5986789845003786,2.8587667478810377,2.1832097481940043,1.5721001333004676,1.0387965649666464,0.6726191597915053,0.4051410695304604,0.276395855800008,0.12450045429433992,0.07087949460937763,0.054343640743115026,-0.004650419025445159,8.520578427683906,7.382220405132477,6.652892846880502,5.98421960265342,5.193609486759155,4.2992244532370965,3.4200350055275934,2.6057491360799485,1.912143458085139,1.3113739526332593,0.8637772602910609,0.5397336177804173,0.34302127757923917,0.16014578089082288,0.09262454678637076
0.0,61.0,61.0,0.0,120.0,0.0,0.0,0.0,0.0,-107.0,0.0,-45.0,0.0,0.0,0.0,34.27253218749016,17.55503396713325,6.452479670444011,5.164279714711823,4.327442446962264,3.723621648941466,2.8791151430730864,2.1972330904507307,1.6448430455051137,0.9904822704177929,0.6226565450625285,0.4356214786784228,0.21255924922208852,0.15721392854105187,0.08174121697540088,-0.013364184447011703,0.01190939496415358,8.58784151259156,7.406667154839213,6.715171906671403,6.0150725920152714,5.1856259160137785,4.316570238067026,3.4186315070254243,2.634506849604213,1.9431719998353596,1.3669092549891244,0.8919281334976452,0.5698900715719006,0.33655123358574035,0.1901962185181928,0.11384063130413391
0.0,62.0,62.0,0.0,120.0,0.0,0.0,0.0,0.0,-107.0,0.0,-45.0,0.0,0.0,0.0,34.27253218749016,17.55503396713325,6.606788390316164,5.185931075646996,4.465682273683587,3.7040051468582447,2.917265180571812,2.228894753119675,1.5452635797953038,1.038352799635334,0.6895574485067252,0.48672683854823273,0.23297919780030926,0.13087985998507856,0.05185080226842467,0.02231557963985568,0.0158285987807924,8.59603321657694,7.5092059611894655,6.798984300366333,6.062890035893092,5.245701479461029,4.3500938573609815,3.4883345823416616,2.6846718057374677,1.9460764104186417,1.3411940983361257,0.9293691466568452,0.5776382627653667,0.32998358358844476,0.19187115376839378,0.1011795991061584
0.0,63.0,63.0,0.0,120.0,0.0,0.0,0.0,0.0,-107.0,0.0,-45.0,0.0,0.0,0.0,34.27253218749016,17.55503396713325,6.7596828780802465,5.2509258316277405,4.556173145684327,3.812772925243534,3.0102865409065522,2.2726883249946233,1.5772254095930534,1.13819699782164,0.6985922001938691,0.4390577591437126,0.2252147522443699,0.14774890143181424,0.034945106458892976,0.07276614797957395,0.08219416905293819,8.739003688546566,7.526274517723149,6.79517411714018,6.165246689545137,5.323867088491866,4.426740239530103,3.5062081015096846,2.6820049924451386,1.9576715513657308,1.4171687889925326,0.9272669266551907,0.583653806387433,0.32460986307060646,0.2282116337286335,0.11655722815996289
0.0,64.0,64.0,0.0,120.0,0.0,0.0,0.0,0.0,-107.0,0.0,-45.0,0.0,0.0,0.0,34.27253218749016,17.55503396713325,6.837980082951096,5.379388671502973,4.5910521301061005,3.789387579060631,3.090761650006734,2.2886259734780965,1.617769555855494,1.1234571582192694,0.7043986839417884,0.3953373038857903,0.2443642454122227,0.15509094489129394,0.06759085279942623,-0.017217864119793473,0.04114157634764129,8.742949202132378,7.638332109684617,6.90634948440167,6.186592441787326,5.349393521622663,4.473184222953425,3.476901606202117,2.7324670195093637,1.9789034307811901,1.3311149270885274,0.8818392741009341,0.5699955588225005,0.3369966298304457,0.21496801396966397,0.08978943809232437
0.0,65.0,65.0,0.0,120.0,0.0,0.0,0.0,0.0,-107.0,0.0,-45.0,0.0,0.0,0.0,34.27253218749016,17.55503396713325,6.816308148380203,5.475197249046476,4.689694140783955,3.85679706576574,3.121518976838157,2.3396320211914543,1.638401487697917,1.1042542589055346,0.6762335461098999,0.36606744492130217,0.27260806962225165,0.11013230977293828,0.035430138285903565,-0.03936344893426395,-0.04950640204226117,8.869501129282538,7.68102959144562,6.935371456958863,6.245787141218381,5.367605970671874,4.459916840387486,3.5225620158942808,2.712063097061874,1.9603161913059375,1.3726223240565119,0.9100494681146227,0.5828302580400925,0.37528511935663167,0.2141383082703329,0.11277216948368679
0.0,66.0,66.0,0.0,120.0,0.0,0.0,0.0,0.0,-107.0,0.0,-45.0,0.0,0.0,0.0,34.27253218749016,17.55503396713325,6.931866377009989,5.4819716758295165,4.739025521690784,3.944342667765786,3.1797185782954838,2.407383709172292,1.6575735545134636,1.1081767654605466,0.6829152319649923,0.4305054932670012,0.20924646616539247,0.11051205781027452,0.09306136223968567,0.023634893585926426,0.018465846204453656,8.952835841062189,7.752005579292273,7.079912020338866,6.291715130950055,5.4585474708541,4.497638499592832,3.5787421812125193,2.7210111103883334,1.9635054568022827,1.42285185285673,0.9175042977051633,0.6071634049645143,0.3413388804316839,0.234590201032497,0.059331637230448146
0.0,67.0,67.0,0.0,120.0,0.0,0.0,0.0,0.0,-107.0,0.0,-45.0,0.0,0.0,0.0,34.27253218749016,17.55503396713325,7.10781445153933,5.550894541236202,4.777608569744006,3.978537039367868,3.16655862006736,2.3294228959813394,1.592547591162234,1.1793089961072019,0.7530307400735676,0.4483202940726264,0.2558004733893133,0.1190404979513552,0.034498049140359234,0.04029581276338285,0.049909615816706304,8.957190032078678,7.797540492737435,7.092270791371906,6.300512318918333,5.471110896682593,4.539793457734551,3.5979575593649975,2.8008718050902326,1.9706870958993086,1.4152210795674964,0.8841784404298808,0.5995665487985566,0.34254025460384574,0.22895081867920594,0.10202344310253085
0.0,68.0,68.0,0.0,120.0,0.0,0.0,0.0,0.0,-107.0,0.0,-45.0,0.0,0.0,0.0,34.27253218749016,17.55503396713325,7.194071140017642,5.6509342643230935,4.911629401324988,4.005589227620681,3.2229604715406914,2.468282918005143,1.6525787559288292,1.1239858391005144,0.7324583901416305,0.4853500954130299,0.2571495184554277,0.1364993705691726,0.10849129267992366,0.019575680552862372,0.02058179984954582,9.038828892320945,7.886147931722112,7.13283416136999,6.388733608568128,5.515817056566522,4.602123673853421,3.704040877548914,2.728167413229084,2.0189521487875686,1.4137124724626777,0.9079912881195387,0.6030049534671329,0.36476470393951954,0.19279489847956163,0.06028179051001082
0.0,69.0,69.0,0.0,120.0,0.0,0.0,0.0,0.0,-107.0,0.0,-45.0,0.0,0.0,0.0,34.27253218749016,17.55503396713325,7.28352350204384,5.69638081870254,4.918889636997346,4.138132623893182,3.3005334731386085,2.4290317065950027,1.6669608567313,1.092026316524473,0.775734330498514,0.36752877606138434,0.21344717527928664,0.17019907888938984,0.06053160318844065,0.05002067522037337,-0.03303753708189431,9.146137087566277,7.974039452711034,7.211626948432461,6.530904653703769,5.581284249256372,4.6329539127529555,3.6504014175839474,2.786880725775263,2.0558604265634672,1.4077632102212292,0.9015781902319989,0.5905204866645868,0.3646267825242707,0.17023900056548671,0.08528614719813431
0.0,70.0,70.0,0.0,120.0,0.0,0.0,0.0,0.0,-107.0,0.0,-45.0,0.0,0.0,0.0,34.27253218749016,17.55503396713325,7.3474586464114,5.820371967085277,5.037886299816632,4.151851884724202,3.2748464410656974,2.42556267468302,1.7361283027845766,1.1604188447854167,0.7491820814622955,0.3140060142793769,0.22673714497097183,0.19015773111910483,0.06716898512204761,0.026599806459344674,0.026813550973596254,9.18776853648913,8.051213025787812,7.2808230192332495,6.533956853396725,5.626275150829118,4.643558943742565,3.660468654874055,2.7935798352831553,2.024970197994228,1.4083182407409272,0.9274301463727544,0.5782065200791056,0.37348335804001104,0.1905834523922774,0.07229337571255343
0.0,71.0,71.0,0.0,120.0,0.0,0.0,0.0,0.0,-107.0,0.0,-45.0,0.0,0.0,0.0,34.27253218749016,17.55503396713325,7.512215962330234,5.935537968766329,5.037551097864392,4.174324219889361,3.353770867590078,2.534628629393754,1.7604912529656134,1.1946948230214205,0.6681607905234909,0.41277383978633897,0.2671202280284468,0.1506868454166204,0.03698377550419618,0.05306030659194577,-0.01809176099141918,9.288112865857547,8.101729366844173,7.346898443960649,6.595848659950839,5.69328238600931,4.712973597691315,3.722057984545964,2.8221097257732826,2.0558078948865104,1.4423335223902438,0.9329348390649737,0.5965272992593329,0.3427299410452863,0.19798295885563996,0.08585228729842964
0.0,72.0,72.0,0.0,120.0,0.0,0.0,0.0,0.0,-107.0,0.0,-45.0,0.0,0.0,0.0,34.27253218749016,17.55503396713325,7.625808583628925,5.966216332163327,5.115700047182275,4.272831999819874,3.3814941216826315,2.536099379492141,1.7978833205902096,1.1546710773801925,0.7237714950174996,0.3927695823593429,0.23524361763604693,0.14800049073861146,0.08849381916147342,0.07202828086475582,-0.017721120348433303,9.395274873353634,8.143160035039681,7.423250784593563,6.667034779165726,5.79017538835721,4.756260067143643,3.7894167751219245,2.8395579371461164,2.0661963588232544,1.4612223696275208,0.9597160894118224,0.5922614537152013,0.3779356579053703,0.20681104651929008,0.09913194091993598
0.0,73.0,73.0,0.0,120.0,0.0,0.0,0.0,0.0,-107.0,0.0,-45.0,0.0,0.0,0.0,34.27253218749016,17.55503396713325,7.695193451259284,6.104553054078251,5.181990963684946,4.3710474093025224,3.3785285858623655,2.5449248698557594,1.7920728711440772,1.1497910805420695,0.7658238090669456,0.42702725137218606,0.2513423358583256,0.1294258378637771,0.06717737123368879,0.03622230256578415,0.020044570182762445,9.451974187111613,8.2279915489887,7.487657211961123,6.712988307452524,5.824941685587501,4.755326977186926,3.765667741511213,2.8236527231189426,2.048778432530014,1.45976462494586,0.9540589999097918,0.5858008418437702,0.3221262189817543,0.19392978725308496,0.07218881208191466
0.0,74.0,74.0,0.0,120.0,0.0,0.0,0.0,0.0,-107.0,0.0,-45.0,0.0,0.0,0.0,34.27253218749016,17.55503396713325,7.80717000668923,6.120746931130416,5.273530588199444,4.417666530774388,3.412245789754168,2.571897167668519,1.840433200326773,1.127134110129564,0.7004256405470861,0.4191359788406321,0.24552212411550461,0.16976185457870296,0.006789216836447384,0.03696221747563414,0.01088142727274968,9.480913715453475,8.311270957789013,7.578974837529827,6.806429371129774,5.847957006612524,4.8338729862438266,3.827596012599633,2.864701051431533,2.0759111526559644,1.444878260300795,0.9792664151792335,0.6098093060912472,0.3805475119975279,0.16457896085588627,0.11327960296012067
0.0,75.0,75.0,0.0,120.0,0.0,0.0,0.0,0.0,-107.0,0.0,-45.0,0.0,0.0,0.0,34.27253218749016,17.55503396713325,7.898687251077709,6.2266386518790755,5.343647855340818,4.4398083143453855,3.611064821782731,2.6541548787103717,1.848546349248277,1.2084631723362957,0.7936359423664199,0.4714472708270021,0.3338715738554203,0.11082322420279928,0.12349279226019114,0.08128298149620086,0.007649501278023959,9.57463309383893,8.439537466912235,7.6816348333014535,6.847597287048112,5.844565638482934,4.834792776706777,3.835705687790186,2.9298431442361235,2.1244933441941036,1.4704674474463908,0.9740824256491722,0.6135532597155269,0.38651455408040464,0.19344687677302022,0.07094643145947314
0.0,76.0,76.0,0.0,120.0,0.0,0.0,0.0,0.0,-107.0,0.0,-45.0,0.0,0.0,0.0,34.27253218749016,17.55503396713325,8.14143856275659,6.3516160534266435,5.36701471350629,4.546912867450178,3.5189286293808255,2.681031947821468,1.8434363547093042,1.129107997373437,0.7863364415983822,0.4972136590223866,0.2287781882742161,0.11592630923293509,0.09971411363897044,0.04735574989933548,0.056616814926551975,9.71141661068938,8.454971039492774,7.697477927657695,6.89610673706162,5.920182230424825,4.9380221369207415,3.8554783879760084,2.9473053627038857,2.122972584904943,1.4695354006904275,0.964015098075581,0.6004006396531636,0.3836826628260675,0.2313376312486823,0.06020011257070159
0.0,77.0,77.0,0.0,120.0,0.0,0.0,0.0,0.0,-107.0,0.0,-45.0,0.0,0.0,0.0,34.27253218749016,17.55503396713325,8.201944295482793,6.364899904112465,5.495921250635229,4.5560884936530535,3.5507873081889354,2.6497512002146597,1.8937116112998247,1.3165581341946837,0.7608550254235662,0.49040341750779015,0.3120180583690623,0.16285663877139284,0.14645137322295354,0.00917969755916763,-0.028551196503328005,9.750204531119635,8.551474279510133,7.770407584252109,6.962009992736148,5.968433581897982,4.920784856977931,3.8903386456182747,2.959303608322186,2.135274921950418,1.4623166847931433,1.0012234369951882,0.5982999124609985,0.3793002701202436,0.18070265941103494,0.12327319782272052
0.0,78.0,78.0,0.0,120.0,0.0,0.0,0.0,0.0,-107.0,0.0,-45.0,0.0,0.0,0.0,34.27253218749016,17.55503396713325,8.333024121612974,6.612694412008932,5.563014028748639,4.663036934249918,3.6805134391986,2.7589948283318737,1.9212024249147917,1.187813361235224,0.7666567818571939,0.5038938532933378,0.3070091598494898,0.11442644108047095,0.10372585490518804,0.05673202922678064,0.0682358603808266,9.83840387333193,8.628599773458022,7.805028067300114,7.003093508257672,6.009098371612699,5.017890353778606,3.8998240498987427,2.987686969527362,2.162052148784902,1.4963197270000246,0.9642201622038232,0.6011614621658348,0.34920772267022915,0.2079271577431621,0.14153538444710426
