Line_number,Fiducial,Easting,Northing,Height,Elevation,tx_pitch,tx_roll,tx_yaw,txrx_dx,txrx_dy,txrx_dz,rx_pitch,rx_roll,rx_yaw,PX,PZ,S0X_time_1.086e-05,S0X_time_3.256e-05,S0X_time_5.426e-05,S0X_time_8.680e-05,S0X_time_1.411e-04,S0X_time_2.279e-04,S0X_time_3.689e-04,S0X_time_5.860e-04,S0X_time_9.115e-04,S0X_time_1.411e-03,S0X_time_2.192e-03,S0X_time_3.418e-03,S0X_time_5.339e-03,S0X_time_8.301e-03,S0X_time_1.338e-02,S0Z_time_1.086e-05,S0Z_time_3.256e-05,S0Z_time_5.426e-05,S0Z_time_8.680e-05,S0Z_time_1.411e-04,S0Z_time_2.279e-04,S0Z_time_3.689e-04,S0Z_time_5.860e-04,S0Z_time_9.115e-04,S0Z_time_1.411e-03,S0Z_time_2.192e-03,S0Z_time_3.418e-03,S0Z_time_5.339e-03,S0Z_time_8.301e-03,S0Z_time_1.338e-02
0.0,0.0,0.0,0.0,120.0,0.0,0.0,0.0,0.0,-107.0,0.0,-45.0,0.0,0.0,0.0,34.27253218749016,17.55503396713325,4.4399341030259265,2.5488851968232176,2.083958020944287,1.7794998770043526,1.5483792354921275,1.3763808475804482,1.2233364598062773,1.075176971427988,0.929028120504773,0.7802800964585048,0.6300496906060317,0.48475970043696237,0.3527285379835959,0.2422068136226559,0.15060440443648562,6.48959965870285,4.472854051406144,3.855826701607458,3.423472059742383,3.077250993815754,2.8115917690329177,2.5728718699780453,2.337638863064728,2.098543130216202,1.8453710086120456,1.5765858326581217,1.30000872991648,1.028917968467561,0.780644100917272,0.5508286577646523
0.0,1.0,1.0,0.0,120.0,0.0,0.0,0.0,0.0,-107.0,0.0,-45.0,0.0,0.0,0.0,34.27253218749016,17.55503396713325,4.450751126719759,2.5731406008234132,2.1010932726745652,1.7667474937726744,1.4934199011104217,1.29411827372759,1.1347006936504478,0.99212773615902,0.8560454474881406,0.7193435100128129,0.5819816866543247,0.4492330007567624,0.32832759480867585,0.22667228421684207,0.14188203253936957,6.512611690828443,4.512247711620346,3.8905817321374103,3.4228666748488106,3.0164266867083676,2.702611795805583,2.4444629833542875,2.2098067982875436,1.9799842387337414,1.7404576034711354,1.4880574578840702,1.2291609118572993,0.975481122521089,0.7427343368171124,0.5264964948505207
0.0,2.0,2.0,0.0,120.0,0.0,0.0,0.0,0.0,-107.0,0.0,-45.0,0.0,0.0,0.0,34.27253218749016,17.55503396713325,4.461463676266545,2.5982118962102683,2.1250546636905763,1.77401208443299,1.4665721604780453,1.2352244668417245,1.0615427316703965,0.9199802634146441,0.7914826461670676,0.6649217030562636,0.5387326977456224,0.41703701564889534,0.306045610521686,0.21237119774522517,0.1337775680842773,6.534864578534459,4.551842385910439,3.932104723326516,3.446315135318989,2.9938909180358038,2.6279734779292263,2.3387470358105324,2.097238057316696,1.8731084213411402,1.6448610664618324,1.4068189603927288,1.1637537792003432,0.9258516145066953,0.7073033561950706,0.5035900915160674
0.0,3.0,3.0,0.0,120.0,0.0,0.0,0.0,0.0,-107.0,0.0,-45.0,0.0,0.0,0.0,34.27253218749016,17.55503396713325,4.4721199210545,2.6235574821315732,2.1510968311009764,1.7911986088548058,1.4594018769837833,1.1970250045092523,1.0033495926132323,0.8579177882279465,0.7344072581531066,0.6162471040317795,0.4997502866136051,0.38781200175020386,0.28567093728102394,0.19919152811120008,0.1262413099918534,6.556440303449771,4.591166693931402,3.9752547530695357,3.4811259180718093,2.9975183043394393,2.5838151817135753,2.2560312349024314,1.9997095366199489,1.777089730534135,1.5577402150257436,1.3321938350497953,1.1033001497957073,0.8797095183967834,0.6741596951181859,0.48201101714141276
0.0,4.0,4.0,0.0,120.0,0.0,0.0,0.0,0.0,-107.0,0.0,-45.0,0.0,0.0,0.0,34.27253218749016,17.55503396713325,4.482767180486307,2.6491308430049916,2.1777129682830565,1.8127909998160663,1.4646932537825614,1.1756037736165923,0.959173604330148,0.8053804525438663,0.6840990340080068,0.5726760195519706,0.4645579676340235,0.36124271809583247,0.26701558268229847,0.18703241293743894,0.11922785064349799,6.577417478146243,4.630213736081499,4.018475973331622,3.520591758026797,3.0172513051690637,2.564139953872868,2.195371546225009,1.9172081524751121,1.6913826130205112,1.4783993972012275,1.2635916188486422,1.0473662889652424,0.8367664412369084,0.6431287655943811,0.46166841174561735
0.0,5.0,5.0,0.0,120.0,0.0,0.0,0.0,0.0,-107.0,0.0,-45.0,0.0,0.0,0.0,34.27253218749016,17.55503396713325,4.49345152320826,2.6749574134579337,2.2045210945652554,1.836158155777633,1.4772783598604535,1.1668328636209295,0.9275095149843015,0.7618597310350583,0.6400123116839176,0.533673672286813,0.432744805032354,0.3370525535603685,0.2499124270473556,0.17580301954393757,0.11269571256168509,6.597871156182954,4.669039410694265,4.061408335211471,3.561608671182995,3.04607481116803,2.562654217231898,2.154554955296784,1.8495362068241161,1.6156582937403758,1.4062819582537505,1.2004994534832858,0.9955659024563261,0.7967622078678673,0.6140512999569114,0.4424783943826247
0.0,6.0,6.0,0.0,120.0,0.0,0.0,0.0,0.0,-107.0,0.0,-45.0,0.0,0.0,0.0,34.27253218749016,17.55503396713325,4.504217900232615,2.701068710154165,2.2314595173644602,1.860186015315348,1.4938510022146365,1.1670586404531016,0.9064848721741219,0.726751111180847,0.601719223511033,0.4988010813034043,0.4039568989862052,0.31499854766427526,0.23421275721547022,0.16542151109163553,0.10660700817867576,6.617873139529908,4.707702858922166,4.10401815676609,3.602906066407021,3.079603190581866,2.5738665856758454,2.130592733319952,1.7960733805100828,1.5496879307288356,1.3409593879645423,1.1424756945271226,0.9475551389718162,0.7594619144302235,0.5867819306426184,0.4243635115089369
0.0,7.0,7.0,0.0,120.0,0.0,0.0,0.0,0.0,-107.0,0.0,-45.0,0.0,0.0,0.0,34.27253218749016,17.55503396713325,4.515110355866224,2.7274954030483833,2.258539198647119,1.88445981235674,1.5124710575837532,1.1733765436894354,0.8941268002681969,0.6993063183920728,0.568847843537714,0.4677001161102598,0.3778904189617386,0.2948671639216339,0.2197840980182588,0.1558141107712043,0.1009271244519674,6.637492327242868,4.746260425319506,4.146341271178725,3.6440352214947414,3.115317777986176,2.5934787412561677,2.120272287577673,1.7557517623539025,1.4932188031559313,1.2821078999642601,1.0891448925596268,0.9030284069127583,0.724653340982181,0.5611878968546866,0.4072522262649958
0.0,8.0,8.0,0.0,120.0,0.0,0.0,0.0,0.0,-107.0,0.0,-45.0,0.0,0.0,0.0,34.27253218749016,17.55503396713325,4.526172214690757,2.754266685001028,2.285782700686034,1.9088514066274263,1.5320838040100724,1.1836442388887394,0.8885718691753134,0.6786606920110986,0.5410336459497702,0.4400755252765215,0.3542856347299093,0.27647069091943277,0.20650831950539292,0.1469142582754847,0.095624432600162,6.656795018797745,4.784765041842082,4.18842257704309,3.68487515269795,3.151880011887197,2.618367488847013,2.1205547569913503,1.727170064691718,1.4458882446798371,1.2294729318464999,1.0401925363723374,0.8617148796497955,0.6921447001929013,0.5371478679753938,0.39107844850785717
0.0,9.0,9.0,0.0,120.0,0.0,0.0,0.0,0.0,-107.0,0.0,-45.0,0.0,0.0,0.0,34.27253218749016,17.55503396713325,4.537446246886002,2.781410092169382,2.3132129053886303,1.9333369281515735,1.5521578194831849,1.1963718293138086,0.8881876872790782,0.6638932020589589,0.5178928751153118,0.4156758636361286,0.3329212586399476,0.2596441811356854,0.1942799890686069,0.13866185238683076,0.09067002231202141,6.675845183881579,4.823266101023391,4.230305575373237,3.7254202246020838,3.1886343354840627,2.6463918649462506,2.128791354386916,1.7087533553621963,1.4071904557496,1.182829864775616,0.9953578354552829,0.8233755781105199,0.6617626778610736,0.514550879177637,0.37578110325536074
0.0,10.0,10.0,0.0,120.0,0.0,0.0,0.0,0.0,-107.0,0.0,-45.0,0.0,0.0,0.0,34.27253218749016,17.55503396713325,4.548974821479104,2.808951514140299,2.340851749103421,1.9579254926985326,1.5724475161146263,1.210574469716674,0.8916212137670347,0.6540878075148815,0.49901597051333657,0.394276357540889,0.31360865569610086,0.2442428312782699,0.18300493537573556,0.1310025746395926,0.08603745875051282,6.69470471064182,4.861809570284473,4.272031332696588,3.765699351558097,3.225291158089695,2.676157012909935,2.1428027950030537,1.6988981264935807,1.3764868001083757,1.1419503292476743,0.9544239440487691,0.7878008007724044,0.6333507232585791,0.49329537871926604,0.3613037328048826
0.0,11.0,11.0,0.0,120.0,0.0,0.0,0.0,0.0,-107.0,0.0,-45.0,0.0,0.0,0.0,34.27253218749016,17.55503396713325,4.560800049027246,2.8369153086231496,2.368720196275933,1.9826346797001622,1.5928523662070917,1.225631227186685,0.8977988090949156,0.6483812563656943,0.4839741986627597,0.37566590465216293,0.29618591175190345,0.23013968340475857,0.17259899588140926,0.12388728890496846,0.08170256017527379,6.71343363496945,4.900438207784782,4.3136384807901464,3.8057490471216693,3.2617429958926425,2.706797260171426,2.1608741354052476,1.696078722839984,1.3530411446504789,1.1065796980992604,0.9172064218349474,0.7548075754372938,0.6067675591496613,0.4732883834318217,0.34759412777542553
0.0,12.0,12.0,0.0,120.0,0.0,0.0,0.0,0.0,-107.0,0.0,-45.0,0.0,0.0,0.0,34.27253218749016,17.55503396713325,4.572963912900283,2.8653244320452775,2.3968382330747064,2.007483287536927,1.6133402192670168,1.2411686250809537,0.905899271970684,0.6459937914830781,0.47233242126421504,0.359638893618284,0.28051207120393895,0.21722352732936423,0.16298692437080897,0.11727151037707062,0.07764319427429262,6.732090351190547,4.939191777682917,4.355163240292919,3.8456057862006507,3.2979662215161243,2.7378018350593063,2.1817050669962637,1.6989132513851881,1.3360636270764268,1.076426769947322,0.8835414914626054,0.7242368560765717,0.5818858811171372,0.45444473292294024,0.3346039843985242
0.0,13.0,13.0,0.0,120.0,0.0,0.0,0.0,0.0,-107.0,0.0,-45.0,0.0,0.0,0.0,34.27253218749016,17.55503396713325,4.585508388697295,2.8942005538871176,2.4252248829084215,2.032489613152838,1.633908640247653,1.25697315643797,0.9153147192685867,0.6462447242765099,0.463662886450153,0.34599132197255206,0.26646194316846145,0.2053969210794017,0.15410143602444235,0.11111493625326853,0.07383909188677382,6.750731804549904,4.978107237136733,4.3966395020968925,3.8853043225834805,3.333972433405837,2.7688864729744824,2.2043418438816116,1.7061963784079803,1.3247520149337482,1.0511635368205825,0.8532756218327386,0.6959503547208625,0.5585912032310271,0.4366864293381022,0.32228858749883676
0.0,14.0,14.0,0.0,120.0,0.0,0.0,0.0,0.0,-107.0,0.0,-45.0,0.0,0.0,0.0,34.27253218749016,17.55503396713325,4.598475551818848,2.9235641548860767,2.453898271360276,2.0576711946532433,1.6545668464416445,1.2729300256909897,0.9256087140604962,0.6485565728409888,0.457557171488097,0.3345200937171508,0.25392178084133926,0.19457429754382524,0.1458823666277777,0.10538103022305241,0.07027167722758786,6.7694136660466375,5.017218900628754,4.4380989750875,3.9248775038206793,3.3697861770346464,2.799904902235943,2.228106498143742,1.7169083751638854,1.3183253463875269,1.030431698395158,0.8262574440892194,0.6698270834834174,0.5367807956995484,0.41994204944260227,0.3106065194559776
0.0,15.0,15.0,0.0,120.0,0.0,0.0,0.0,0.0,-107.0,0.0,-45.0,0.0,0.0,0.0,34.27253218749016,17.55503396713325,4.611907673496956,2.95343461586242,2.48287571925028,2.083044838284352,1.6753279264815468,1.2889826801342315,0.9364770775534828,0.6524514174603526,0.45363510854591316,0.32502428802885724,0.24278597006514357,0.1846801688493462,0.13827592283454584,0.10003665354485701,0.06692391382918131,6.7881904903765005,5.056558591141894,4.479571361852595,3.964356351537338,3.405435570696778,2.830791138055721,2.252531881500296,1.7302086609175267,1.3160483452918137,1.013852681940191,0.8023323691137008,0.6457598068393738,0.5163626607995286,0.4041462175199005,0.2995193950817772
0.0,16.0,16.0,0.0,120.0,0.0,0.0,0.0,0.0,-107.0,0.0,-45.0,0.0,0.0,0.0,34.27253218749016,17.55503396713325,4.625847305572899,2.9838303016615284,2.5121738394730384,2.1086266693095954,1.696205794850639,1.3051074102362397,0.947714095252782,0.657542472724048,0.45155055603982325,0.3173073853602379,0.23295470458621437,0.17564746355628377,0.1312340032757545,0.09505173645490776,0.06378016529981621,6.807115857723352,5.096155783675098,4.521084531408432,4.003770158569846,3.4409487544661133,2.8615236966998676,2.277306474223276,1.7454201814185986,1.3172471914138637,1.0010386593406495,0.7813397600877336,0.6236516441986852,0.4972545073832598,0.3892391291928854,0.28899162148220797
0.0,17.0,17.0,0.0,120.0,0.0,0.0,0.0,0.0,-107.0,0.0,-45.0,0.0,0.0,0.0,34.27253218749016,17.55503396713325,4.640337354192898,3.0147686420656163,2.541808625926679,2.1344321782181597,1.7172141467046966,1.321298144255228,0.959185042885148,0.6635231365280735,0.45099438543452264,0.31117972939273486,0.22433251740117616,0.1674160354241952,0.12471357532111098,0.090398984519846,0.06082606982346733,6.826242500053148,5.136037743331853,4.56266467698946,4.043146584187057,3.4763527402488403,2.892104422404387,2.3022300444796238,1.7620091654037895,1.3213181086907366,0.9916029224096099,0.7631122049397183,0.6034130330948408,0.4793827058722207,0.3751661170603662,0.2789901812027324
0.0,18.0,18.0,0.0,120.0,0.0,0.0,0.0,0.0,-107.0,0.0,-45.0,0.0,0.0,0.0,34.27253218749016,17.55503396713325,4.6554211425486,3.0462662102876514,2.571795532371746,2.1604762689355232,1.7383661749630657,1.3375577523721192,0.9708048717315025,0.6701551293801944,0.4516952351005684,0.3064607810505058,0.21682748582518932,0.1599313725786953,0.1186760980360675,0.08605361520586337,0.05804842720559437,6.845622412463971,5.176229658856692,4.604336458416181,4.082511755415688,3.5116731482903454,2.9225465276688243,2.327179586851224,1.7795633656125687,1.3277304252182318,0.9851687260328544,0.7474763149718865,0.5849591951824114,0.4626812274112799,0.36187724937226556,0.2694844365179576
0.0,19.0,19.0,0.0,120.0,0.0,0.0,0.0,0.0,-107.0,0.0,-45.0,0.0,0.0,0.0,34.27253218749016,17.55503396713325,4.671142462755605,3.0783387993596723,2.6021495428295305,2.186773311518264,1.7596745398749463,1.3538932992258756,0.9825223135516005,0.6772568165681684,0.45341859423141284,0.30298093677554744,0.21035092057889854,0.15314351994757575,0.11308698697051993,0.08199312046293689,0.05543509723228062,6.865306949901028,5.216754772121087,4.646123132093493,4.121890374492889,3.5469342235594863,2.952868156359073,2.3520841387286704,1.7977708070987206,1.336025623016597,0.9813762491172654,0.7342544906453573,0.5682081697010026,0.44709058726759093,0.34932695352441173,0.2604459525849996
0.0,20.0,20.0,0.0,120.0,0.0,0.0,0.0,0.0,-107.0,0.0,-45.0,0.0,0.0,0.0,34.27253218749016,17.55503396713325,4.687545616855483,3.111001496738767,2.6328852355728785,2.213337197015769,1.7811514045967343,1.3703135787258502,0.9943084328836156,0.6846924006308287,0.4559647176159018,0.300582829909831,0.20481736948881402,0.14700621170587275,0.10791512004479409,0.07819705162360804,0.05297490814285016,6.8853469091656985,5.257634503932008,4.6880466713327005,4.16130582733737,3.582158918618758,2.983089101302335,2.376906783860688,1.8164002663815817,1.3458136448879903,0.9798876636434114,0.7232671833477509,0.5530794113237129,0.4325568212703621,0.3374736573662729,0.2518483372057703
0.0,21.0,21.0,0.0,120.0,0.0,0.0,0.0,0.0,-107.0,0.0,-45.0,0.0,0.0,0.0,34.27253218749016,17.55503396713325,4.704675446790452,3.144268757470899,2.6640168421038415,2.2401813913213737,1.8028084795921648,1.3868279067856621,1.0061486396798958,0.692362364768142,0.4591657872669917,0.2991221223857494,0.2001447995206313,0.14147619759226637,0.10313238574965498,0.0746468234553252,0.05065757408994778,6.9057925958143365,5.298888576412125,4.730127878380697,4.200780287964616,3.617368981583499,3.013229238021774,2.4016321887517207,1.8352841260121031,1.3567674629793613,0.9803904874856461,0.7143352966158601,0.5394929003148657,0.41903052541190594,0.3262794431933303,0.24366709503279757
0.0,22.0,22.0,0.0,120.0,0.0,0.0,0.0,0.0,-107.0,0.0,-45.0,0.0,0.0,0.0,34.27253218749016,17.55503396713325,4.722577353108159,3.178154476214351,2.6955583018275533,2.2673189858781018,1.824657063554583,1.403445573786764,1.0180372794356753,0.7001953237426337,0.46288265238810067,0.2984678403589513,0.1962548564450558,0.13651273861515173,0.09871327536718792,0.07132553478547721,0.0484736205530326,6.926693875386784,5.340535132094815,4.772386488536793,4.240334815753753,3.652585037800658,3.043307844677382,2.42625822378597,1.8543038417474285,1.3686166795089583,0.9825994775087795,0.7072824824999714,0.5273686840916217,0.40646598451152427,0.3157097115439238,0.23587949416291198
0.0,23.0,23.0,0.0,120.0,0.0,0.0,0.0,0.0,-107.0,0.0,-45.0,0.0,0.0,0.0,34.27253218749016,17.55503396713325,4.7412973021196745,3.2126720583548365,2.7275233127218312,2.2947627443493652,1.846708080788282,1.4201756244214092,1.029974072546229,0.7081412837932277,0.467001403207862,0.2985023269421098,0.19307313349870314,0.1320772437213057,0.09463452037642515,0.06821780369898504,0.04641431676815156,6.9481002084235355,5.382590849836163,4.814841266292343,4.279989444366025,3.687826666068414,3.073343352991671,2.450790491878204,1.8733779868130742,1.3811407345417475,0.9862573375473008,0.7019371836894012,0.516626757743157,0.3948204084072534,0.3057328541356208,0.2284644431943042
0.0,24.0,24.0,0.0,120.0,0.0,0.0,0.0,0.0,-107.0,0.0,-45.0,0.0,0.0,0.0,34.27253218749016,17.55503396713325,4.7608818212328226,3.2478344903680054,2.759925378140525,2.322525145194272,1.8689721165872952,1.4370267894953108,1.041961836664576,0.7161662142388755,0.47142996878205967,0.2991208891218643,0.19052940633848756,0.12813301858913656,0.09087477509334892,0.06530961583834533,0.044471614333419014,6.970060668858336,5.4250710576729535,4.857510093402673,4.319763262323532,3.723112471010888,3.1033532934688135,2.475238859408788,1.8924526695936146,1.3941621366730064,0.9911345007306586,0.69813434471169,0.5071871922238406,0.3840532855936537,0.2963199371138506,0.22140237699138485
0.0,25.0,25.0,0.0,120.0,0.0,0.0,0.0,0.0,-107.0,0.0,-45.0,0.0,0.0,0.0,34.27253218749016,17.55503396713325,4.781377982200862,3.2836544095110147,2.7927778498715283,2.3506184204790266,1.8914594513319356,1.4540074821884181,1.0540050720524596,0.7242477783942731,0.47609487369629166,0.3002312117609183,0.18855781094416776,0.12464509973736118,0.08741434329906952,0.06258818477378748,0.04263809124455616,6.992623945556344,5.467989842819443,4.900410048989994,4.359674485863347,3.7584601519888294,3.133354319104202,2.4996153240081336,1.9114940316526712,1.4075400047447801,0.9970282157737711,0.6957167667644656,0.4989704281371987,0.37412585612274524,0.28744439704014935,0.21467514961913378
0.0,26.0,26.0,0.0,120.0,0.0,0.0,0.0,0.0,-107.0,0.0,-45.0,0.0,0.0,0.0,34.27253218749016,17.55503396713325,4.802833372066816,3.3201441728562022,2.8260939676133554,2.379054591368703,1.9141800932622117,1.4711258179753541,1.0661091104966756,0.7323720485866463,0.48093824294577264,0.30175260378756774,0.1870969546071442,0.12158015058135405,0.08423494640825419,0.060041823735396245,0.04090690070784733,7.0158383269755005,5.511360159060807,4.943557482025758,4.399740524921885,3.7938865681792695,3.163362255076914,2.5239327485895378,1.930482499873662,1.4211641071931336,1.0037611327490337,0.6945361140401952,0.4918976663502982,0.3650006988711575,0.2790817526650362,0.2082659331702909
0.0,27.0,27.0,0.0,120.0,0.0,0.0,0.0,0.0,-107.0,0.0,-45.0,0.0,0.0,0.0,34.27253218749016,17.55503396713325,4.825296051652083,3.357315925616276,2.859886895088951,2.4078455007255073,1.9371438095983888,1.4883896408101012,1.078279621672816,0.740531029281262,0.48591510734745386,0.30361513269034346,0.1860899589256432,0.11890640010192535,0.08131952978218944,0.057659828208288244,0.03927172416800339,7.039751669135839,5.555193931836572,4.986968076761511,4.439978043161855,3.8294077993929436,3.193392153062637,2.5482041401703386,1.9494084710078396,1.4349495061973947,1.011179550686211,0.6944535990405836,0.48589130123953983,0.3566414233604234,0.27120933557352184,0.2021591214976253
0.0,28.0,28.0,0.0,120.0,0.0,0.0,0.0,0.0,-107.0,0.0,-45.0,0.0,0.0,0.0,34.27253218749016,17.55503396713325,4.84881450153277,3.3951816686505008,2.8941697530614063,2.4370028431817046,1.9603601557137462,1.505806549115684,1.0905223395647845,0.7487208252356873,0.4909910329012978,0.3057586944586234,0.1854844390286714,0.11659360883592197,0.07865210316266893,0.055432369000250226,0.03772672807395088,7.064411347266179,5.599502161293108,5.030656911829931,4.480403012931842,3.8650392024859963,3.2234583429878922,2.572442260903021,1.9682691341146783,1.448831853190657,1.0191514592580733,0.6953403843593379,0.48087535628622263,0.3490124532257543,0.263806042392006,0.19634023815577575
0.0,29.0,29.0,0.0,120.0,0.0,0.0,0.0,0.0,-107.0,0.0,-45.0,0.0,0.0,0.0,34.27253218749016,17.55503396713325,4.8734375555625435,3.433753324982207,2.928955649546785,2.466538192998126,1.9838385022239988,1.5233839197739385,1.1028429201292804,0.7569403118019067,0.496140075756832,0.3081320576600218,0.18523242613643112,0.11461305059673922,0.07621761089259088,0.053350395420948354,0.03626652398432124,7.089864191646718,5.64429502351209,5.074638513813201,4.521030765989218,3.900795463566092,3.2535744808289313,2.5966594350946615,1.9870661751220908,1.4627633376903773,1.0275644803855903,0.697077742024926,0.4767758939546452,0.3420788869510149,0.25685211055962287,0.1907958481292258
0.0,30.0,30.0,0.0,120.0,0.0,0.0,0.0,0.0,-107.0,0.0,-45.0,0.0,0.0,0.0,34.27253218749016,17.55503396713325,4.899214322133386,3.47304280509759,2.964257707533836,2.496463029974311,2.0075880600189953,1.5411289300194344,1.1152468745182644,0.7651901874175079,0.5013430489618026,0.3106919126158417,0.1852902418645055,0.11293750150295137,0.07400182755474498,0.051405548187856885,0.03488613168450319,7.116156408282774,5.6895819699947,5.118926906081234,4.561876040734629,3.9366906464428997,3.283753592992623,2.620867467647064,2.00580415022493,1.476709260257212,1.0363237927356759,0.6995570111969205,0.47352138184448855,0.3358064212972106,0.2503289188427234,0.18551347315599465
0.0,31.0,31.0,0.0,120.0,0.0,0.0,0.0,0.0,-107.0,0.0,-45.0,0.0,0.0,0.0,34.27253218749016,17.55503396713325,4.926194093516632,3.5130620707361504,3.000089090521266,2.526788763642794,2.0316179033754556,1.5590485775982663,1.12773954402051,0.7734723109840969,0.5065860769979706,0.3134019496865674,0.18561833299370145,0.11154123047682792,0.07199127484073883,0.049590081619632576,0.03358094504721571,7.143333485144778,5.73537182531537,5.163535653653828,4.602953026606141,3.972738237889542,3.3140081181740237,2.645077623131545,2.0244893560752137,1.490645180269398,1.0453501024640905,0.7026793925136282,0.4710430049629332,0.33016132359333666,0.24421881292905476,0.18048151063920698
0.0,32.0,32.0,0.0,120.0,0.0,0.0,0.0,0.0,-107.0,0.0,-45.0,0.0,0.0,0.0,34.27253218749016,17.55503396713325,4.954426243801517,3.5538231968277754,3.0364630261733154,2.557526755953107,2.055936991347641,1.57714969955461,1.1403260968422606,0.7817892474731569,0.5118594082430146,0.31623198452298096,0.18618107516431368,0.11039998739308607,0.07017315579220579,0.04789679461185667,0.032346700418173495,7.171440084814918,5.781672882673479,5.208477904756163,4.644275406168091,4.008951190283642,3.344349947411874,2.6693006360827223,2.0431290618437905,1.5045545778321987,1.0545777068356186,0.7063556138113934,0.4692749197982118,0.3251104404015748,0.2385049556647417,0.17568915626681555
0.0,33.0,33.0,0.0,120.0,0.0,0.0,0.0,0.0,-107.0,0.0,-45.0,0.0,0.0,0.0,34.27253218749016,17.55503396713325,4.983960116151775,3.5953384311867076,3.0733928283766816,2.588688342627567,2.08055418764813,1.595438989895655,1.1530115354848975,0.7901439628795595,0.5171564529669578,0.31915714277431406,0.18694655337372929,0.10949098657712938,0.06853530297651922,0.04631896982689409,0.03117944734780224,7.20051992451113,5.828492996889532,5.253766429633778,4.685856395310698,4.04534196212281,3.374790462790555,2.693546736159629,2.061730999942092,1.5184269644441644,1.0639526832413055,0.7105054979605707,0.468154449998877,0.3206212317368969,0.2331712008458909,0.17112633053543433
0.0,34.0,34.0,0.0,120.0,0.0,0.0,0.0,0.0,-107.0,0.0,-45.0,0.0,0.0,0.0,34.27253218749016,17.55503396713325,5.014844900335772,3.637620251543895,3.1108919179589325,2.6202848533486547,2.1054782792189455,1.6139230162815539,1.165800708646077,0.7985396243214464,0.5224730143898213,0.32215711216378207,0.18788632641836725,0.10879288445504386,0.06706613761959078,0.0448503204783279,0.030075521519952304,7.230615644629078,5.875839674232946,5.299413657084125,4.727708781859628,4.081922556797748,3.4053405750106074,2.7178256795173614,2.080303038199259,1.532256377177427,1.0734312243855235,0.7150574595765714,0.46762222621031246,0.3166618218007935,0.22820198897278962,0.1667836094038181
0.0,35.0,35.0,0.0,120.0,0.0,0.0,0.0,0.0,-107.0,0.0,-45.0,0.0,0.0,0.0,34.27253218749016,17.55503396713325,5.047129496073441,3.6806814228869054,3.1489738478446774,2.652327627030029,2.1307179951858766,1.632608235404202,1.1786983246256302,0.8069794727913772,0.5278066819266287,0.3252154660245245,0.18897518161722165,0.10828575093047758,0.06575463718098884,0.043484944055865477,0.02903151974274828,7.261768668216032,5.923720167912253,5.345431707644117,4.7698449590157805,4.1187045615123274,3.4360107596385236,2.7421467820491636,2.0988529769513367,1.546040194539591,1.0829781308232767,0.7199479535668889,0.46762227431525666,0.3132010589288062,0.2235822630221965,0.1626521593050885
0.0,36.0,36.0,0.0,120.0,0.0,0.0,0.0,0.0,-107.0,0.0,-45.0,0.0,0.0,0.0,34.27253218749016,17.55503396713325,5.0808623873700824,3.7245350389268554,3.1876523089543856,2.68482803952172,2.1562820203667687,1.6515010086949455,1.1917089644651253,0.8154667451606646,0.5331563584105284,0.3283190592936749,0.19019088533860748,0.1079510345836665,0.06459030929530062,0.04221728232055562,0.02804427692111922,7.294019053216604,5.972141550232302,5.391832449931052,4.81227699024973,4.155699180019832,3.466811078695561,2.7665189598992717,2.1173884277827955,1.559778218346445,1.092565464242833,0.7251208949777569,0.4681020572475831,0.3102085790533886,0.21929740208260384,0.1587236767979694
0.0,37.0,37.0,0.0,120.0,0.0,0.0,0.0,0.0,-107.0,0.0,-45.0,0.0,0.0,0.0,34.27253218749016,17.55503396713325,5.116091487082732,3.769194570437498,3.226941153404359,2.7177975171897457,2.1821790180533176,1.6706076144916808,1.2048370946204037,0.8240046288652643,0.5385218963094418,0.33145749554283976,0.19151393405181197,0.10777152212181747,0.0635631704017385,0.041042086901925144,0.027110844856251218,7.327405374957269,6.021110907288827,5.43862767911324,4.855016788849972,4.192917275111821,3.497751105681377,2.7909508163387966,2.135916731543179,1.573471975458758,1.102171358398947,0.7305270664797752,0.4690124759248368,0.3076548683924039,0.21533317061068838,0.15499033388982836
0.0,38.0,38.0,0.0,120.0,0.0,0.0,0.0,0.0,-107.0,0.0,-45.0,0.0,0.0,0.0,34.27253218749016,17.55503396713325,5.152864007202571,3.814673922125875,3.266854419866928,2.7512475454290772,2.2084176267575177,1.6899342669519273,1.2180870790722307,0.8325962379368642,0.5439038210182368,0.3346226619811902,0.19292730980987421,0.10773129272274815,0.06266372773043033,0.03995438984616054,0.02622847281687852,7.361964427344403,6.070635024614528,5.485828596506117,4.898075597229932,4.23036938358756,3.52884035878471,2.815450471807186,2.154445000626433,1.587124167782897,1.1117789865782888,0.7361235260180437,0.47030783496783507,0.30551132228338107,0.21167568105486714,0.15144472283477764
0.0,39.0,39.0,0.0,120.0,0.0,0.0,0.0,0.0,-107.0,0.0,-45.0,0.0,0.0,0.0,34.27253218749016,17.55503396713325,5.191226295397386,3.8609874556154993,3.3074063429345357,2.7851896939588747,2.235006492973499,1.7094871224832215,1.2314631904772884,0.8412446021202133,0.5493031236916914,0.33780832764443514,0.19441624347557795,0.10781566798840306,0.061882963617709875,0.03894947849492492,0.025394589774098593,7.397731204820312,6.12072084957106,5.533446412660768,4.941464596570243,4.268065766732475,3.5600879154718084,2.8400258033924786,2.1729800413257583,1.6007382970049282,1.121375663502087,0.7418730271425013,0.47194577839397506,0.30375029802523834,0.2083113677458884,0.14807981404318546
0.0,40.0,40.0,0.0,120.0,0.0,0.0,0.0,0.0,-107.0,0.0,-45.0,0.0,0.0,0.0,34.27253218749016,17.55503396713325,5.231223697182423,3.908150027569212,3.348611371427055,2.819635629474799,2.2619542781714403,1.7292722938707672,1.2449696205245258,0.8499526644688129,0.5547211076627724,0.3410097998506398,0.19596798813594418,0.10801115831790563,0.0612123213598257,0.03802287411434541,0.02460678820539542,7.434738692620892,6.171375410399395,5.581492181725796,4.985194743729658,4.306016434789016,3.591502582847269,2.864684402877296,2.19152838648617,1.614318368792595,1.130952082741457,0.7477434585973365,0.47388720052371425,0.3023451604277748,0.20522697000388931,0.14488891290820494
0.0,41.0,41.0,0.0,120.0,0.0,0.0,0.0,0.0,-107.0,0.0,-45.0,0.0,0.0,0.0,34.27253218749016,17.55503396713325,5.272900417450861,3.956177018916071,3.390484184635137,2.8545971305630404,2.2892696716050263,1.7492958614984815,1.258610489722801,0.858723283643461,0.5601592765102288,0.3442236330613865,0.19757160467706597,0.1083054064764988,0.06064369202243804,0.03717031374055079,0.023862809378397114,7.473017710925979,6.222605863142945,5.629976827381311,5.0292768002490496,4.344231176080214,3.6230929263242078,2.8894336039074435,2.210096311211475,1.627868684940771,1.140501670428489,0.7537073104853506,0.47609613663645234,0.3012703193316942,0.20240952266080978,0.14186562258545035
0.0,42.0,42.0,0.0,120.0,0.0,0.0,0.0,0.0,-107.0,0.0,-45.0,0.0,0.0,0.0,34.27253218749016,17.55503396713325,5.316299391089548,4.005084359880813,3.4330397082789808,2.890086102120678,2.3169614025423044,1.769563883932632,1.2723898566055771,0.8675592388308315,0.5656192537625291,0.34744738437808476,0.19921776087252605,0.10868712912775277,0.06016940178021653,0.036387734758529286,0.023160530020707143,7.512596767875413,6.274419530581754,5.678911167331236,5.073721359743847,4.382719584526925,3.654867296672646,2.9142805077606364,2.228689852278642,1.6413936971064036,1.1500200435014063,0.759741171418907,0.47853963760017976,0.30050125883489215,0.19984635236594794,0.13900381109801496
0.0,43.0,43.0,0.0,120.0,0.0,0.0,0.0,0.0,-107.0,0.0,-45.0,0.0,0.0,0.0,34.27253218749016,17.55503396713325,5.3614621663577555,4.054888551157142,3.4762931302036866,2.9261145893257763,2.34503825195118,1.7900824079029443,1.2863117263948793,0.8764632359348146,0.5711027263817312,0.35067940997340624,0.20089854485406,0.10914605705263826,0.059782199486561494,0.035671261782966465,0.022497950282961192,7.553501925578479,6.3268239333224106,5.728305936286552,5.11853887362305,4.421491085483574,3.686833855384297,2.9392320076487226,2.2473148289319194,1.6548979065391645,1.1595045596306583,0.7658252597209101,0.48118763224612476,0.3000145582895301,0.19752507825197588,0.13629758253675459
0.0,44.0,44.0,0.0,120.0,0.0,0.0,0.0,0.0,-107.0,0.0,-45.0,0.0,0.0,0.0,34.27253218749016,17.55503396713325,5.40842880381296,4.105606681289062,3.5202599160536048,2.9626947923221465,2.373509065611502,1.8108574784737594,1.3003800578581346,0.8854379148151925,0.5766114056903354,0.35391869708667256,0.2026072933915878,0.10967287472929221,0.05947524426965182,0.03501719546087544,0.021873182917952053,7.595756691676478,6.379826834442465,5.77817183899243,5.1637397160547875,4.46055499578527,3.7190005865913105,2.9642947928343917,2.2659768755308716,1.668385793489535,1.1689539475555353,0.7719429902843953,0.4840127808545782,0.29978790536942534,0.19543361573694742,0.1337412525341619
0.0,45.0,45.0,0.0,120.0,0.0,0.0,0.0,0.0,-107.0,0.0,-45.0,0.0,0.0,0.0,34.27253218749016,17.55503396713325,5.457237792066615,4.157256439596507,3.564955825071115,2.99983908379449,2.4023827728283047,1.8318951513932265,1.3145987655453366,0.8944858583397395,0.582147000586767,0.3571647266609619,0.2043384350308333,0.11025915989165797,0.05924209302376023,0.03442200286497121,0.021284443614931297,7.639381959034009,6.433436345593266,5.828519704763851,5.209334381143639,4.499920699968575,3.751375269353234,2.98947528984614,2.2846815123084463,1.6818617574672454,1.1783680086826451,0.7780805774178827,0.48699032273930704,0.2998001016660117,0.19356018242537865,0.13132932872900605
0.0,46.0,46.0,0.0,120.0,0.0,0.0,0.0,0.0,-107.0,0.0,-45.0,0.0,0.0,0.0,34.27253218749016,17.55503396713325,5.507926010768031,4.20985613690141,3.610396921311351,3.0375600018208426,2.431668361500143,1.8532014873205847,1.3289717504720986,0.9036095882490012,0.5877112045399133,0.36041736056232165,0.20608734818935343,0.11089732355723664,0.05907668772769846,0.03388230919643617,0.020730042017410997,7.684395786984361,6.487660555875914,5.87935993016226,5.255332757728401,4.539597015924658,3.783965710702412,3.0147800219858323,2.303433947700477,1.6953301682894388,1.1877473541571157,0.7842266773618362,0.49009792014471343,0.3000310612984243,0.19189330535315735,0.1290564845215355
0.0,47.0,47.0,0.0,120.0,0.0,0.0,0.0,0.0,-107.0,0.0,-45.0,0.0,0.0,0.0,34.27253218749016,17.55503396713325,5.560528682425947,4.263424709048087,3.6565995931668285,3.0758702847863613,2.461374926270955,1.8747825745189608,1.343502881310169,0.9128115827132738,0.5933056815720861,0.3636767527258795,0.20785023298320535,0.11158055115145224,0.05897334253767831,0.03339489054691143,0.020208374251083728,7.730813524355814,6.542507950585688,5.930703116937104,5.30174495309687,4.5795929198256475,3.816779533488372,3.0402152609324604,2.3222393288460355,1.7087952719080266,1.1970932275927508,0.7903720604444283,0.49331550154939924,0.3004618032925123,0.19042182866309523,0.12691755250828324
0.0,48.0,48.0,0.0,120.0,0.0,0.0,0.0,0.0,-107.0,0.0,-45.0,0.0,0.0,0.0,34.27253218749016,17.55503396713325,5.615079380715246,4.317981730041777,3.7035805660971386,3.114782875852303,2.491511664668689,1.8966445313886697,1.3581960094167815,0.922094277954849,0.598932062198434,0.3669432768939096,0.20962399695015443,0.11230274500128844,0.05892673066665791,0.03295666752409915,0.0197179158894405,7.778647747501074,6.59798727179475,5.982559874479488,5.3485810353422805,4.619917322299674,3.849824272057209,3.065787167974465,2.341102677625154,1.722261213774461,1.20640734201275,0.7965093211148125,0.4966251053807585,0.30107443819423857,0.18913492140140825,0.12490750887297633
0.0,49.0,49.0,0.0,120.0,0.0,0.0,0.0,0.0,-107.0,0.0,-45.0,0.0,0.0,0.0,34.27253218749016,17.55503396713325,5.671610064396937,4.373547422517458,3.7513569170819947,3.1543109350616,2.5220878860678475,1.9187935134870346,1.3730549746819904,0.9314600734207101,0.6045919411197436,0.3702174697063327,0.21140615346530686,0.11305846863426194,0.05893187105566331,0.03256469956628526,0.019257215791468746,7.8279082896125045,6.654107517165521,6.03494083309006,5.3958510489450795,4.660579083879018,3.883107387349755,3.0915018087323753,2.3600289047715117,1.7357320396031928,1.215691756443708,0.8026326190215645,0.5000107262280772,0.3018521496288391,0.18802208488912955,0.12302146305979202
0.0,50.0,50.0,0.0,120.0,0.0,0.0,0.0,0.0,-107.0,0.0,-45.0,0.0,0.0,0.0,34.27253218749016,17.55503396713325,5.730151144665971,4.4301426685428655,3.799946089023285,3.1944678512789637,2.5531130202808248,1.9412357201579888,1.3880836109664216,0.9409113365414151,0.6102868769806282,0.37349998603933077,0.21319473205936065,0.11384289316500842,0.05898411486827928,0.03221617980603283,0.018824890628716666,7.87860230705793,6.710877936730587,6.0878566558515494,5.443565028800729,4.701587028884015,3.9166362804433774,3.117365166357451,2.379022822501416,1.7492116993357107,1.2249487794557439,0.8087374500306664,0.5034581648082409,0.30277917140370675,0.18707315937540453,0.12125464946885223
0.0,51.0,51.0,0.0,120.0,0.0,0.0,0.0,0.0,-107.0,0.0,-45.0,0.0,0.0,0.0,34.27253218749016,17.55503396713325,5.790731593088673,4.487789029540974,3.849365914628813,3.235267264115903,2.584596634671885,1.9639774030018102,1.4032857425958707,0.950450408600116,0.6160183940597026,0.37679156404863406,0.21498819970575087,0.11465174602986031,0.05907913183943238,0.031908430370700375,0.01841962015650952,7.93073441177706,6.768308096043654,6.141318152516011,5.491733159418004,4.742950140617192,3.950418438309407,3.143383054837276,2.3980891164043276,1.7627040911616436,1.2341808813984452,0.8148204474087439,0.5069548825538882,0.3038407607025347,0.18627832980533413,0.1196024237353766
0.0,52.0,52.0,0.0,120.0,0.0,0.0,0.0,0.0,-107.0,0.0,-45.0,0.0,0.0,0.0,34.27253218749016,17.55503396713325,5.853378971752918,4.546508691516206,3.8996346508864694,3.2767231219531796,2.6165483784516215,1.987024882956582,1.4186652029181677,0.9600796060711734,0.6217879828659935,0.38009299891222853,0.21678539215842837,0.11548126216403494,0.059212896558172454,0.031638898015342296,0.01804014244006957,7.984306727231217,6.826407798925747,6.195336172145158,5.540365462476914,4.78467718765806,3.98446118026244,3.1695613291548184,2.4172324340300073,1.7762129908886675,1.2433906635053045,0.8208792007574386,0.5104898626270128,0.3050231681151137,0.18562813029999228,0.1180602520737345
0.0,53.0,53.0,0.0,120.0,0.0,0.0,0.0,0.0,-107.0,0.0,-45.0,0.0,0.0,0.0,34.27253218749016,17.55503396713325,5.918119801858324,4.606324614738203,3.950770927358655,3.31884953127792,2.6489780955828035,2.0103845212550295,1.434225845464742,0.9698012234066308,0.6275971026015822,0.38340512247966546,0.21858545432353382,0.11632813788058881,0.059381674687037485,0.03140515002808647,0.017685250588895668,8.039319156369542,6.885186958433019,6.249921400702082,5.589471877599461,4.826776822136624,4.018771674862972,3.195905874424607,2.436457387303582,1.7897420658301124,1.2525808119375965,0.8269121034139034,0.5140534768342402,0.3063136047970784,0.1851134475756887,0.11662370772691878
0.0,54.0,54.0,0.0,120.0,0.0,0.0,0.0,0.0,-107.0,0.0,-45.0,0.0,0.0,0.0,34.27253218749016,17.55503396713325,5.984979668031266,4.667260477727204,4.00279379042094,3.3616608764700198,2.6818957975695654,2.0340627449638995,1.4499715289601836,0.9796175398099651,0.633447184536925,0.38672878760619056,0.2203877888013688,0.11718948749985099,0.059582009181470066,0.031204870345394743,0.017353789266232312,8.09576955650914,6.944655764739995,6.30508468057777,5.639062513804385,4.869257852367428,4.053357186760414,3.222422447995163,2.455768493763218,1.8032949454716407,1.261754043280997,0.8329182242193892,0.5176373590852623,0.30770020729675324,0.1847255232092911,0.11528847302152598
0.0,55.0,55.0,0.0,120.0,0.0,0.0,0.0,0.0,-107.0,0.0,-45.0,0.0,0.0,0.0,34.27253218749016,17.55503396713325,6.053983381622125,4.729340667276883,4.055722737250941,3.4051718524621397,2.7153116402508153,2.0580660580317267,1.4659061266492415,0.9895308212119952,0.6393396339612574,0.39006485703371446,0.22219201171332786,0.11806280269740634,0.059810706591021695,0.031035855820081372,0.017044651473753565,8.153653937893035,7.004824655982354,6.360836967825404,5.68914751364053,4.9121290928090025,4.0882249713330845,3.249116770723586,2.47517021619073,1.8168751949511435,1.27091309149636,0.8388971913794964,0.5212342866642147,0.30917200068902134,0.1844559544948758,0.11405033508776961
0.0,56.0,56.0,0.0,120.0,0.0,0.0,0.0,0.0,-107.0,0.0,-45.0,0.0,0.0,0.0,34.27253218749016,17.55503396713325,6.125155247854207,4.792590317008095,4.109577718236188,3.4493974481144916,2.7492359492378347,2.0824010398473676,1.4820335314011694,0.9995433228472824,0.645275832595377,0.3934141951655831,0.22399791495576651,0.11894591464935798,0.06006482346568657,0.03089601261490101,0.016756775941836274,8.212966719534458,7.065704287496303,6.417189301050838,5.7397370689447,4.955399378143578,4.12338227812838,3.2759945328644933,2.494666968545036,1.8304863202959525,1.2800606902989258,0.844849094771529,0.5248380687231152,0.310718860296127,0.184296694118902,0.11290518450829232
0.0,57.0,57.0,0.0,120.0,0.0,0.0,0.0,0.0,-107.0,0.0,-45.0,0.0,0.0,0.0,34.27253218749016,17.55503396713325,6.198519156204622,4.857035233494386,4.164379167948934,3.4943531017825706,2.783679244374731,2.1070743071338556,1.498357671981276,1.0096572906819214,0.651257140479515,0.3967776624008922,0.22580543406144324,0.1198369589417463,0.06034165292143897,0.03078335269145804,0.016489144529980942,8.273701000120415,7.127305636895036,6.474152961676639,5.790841505620418,4.9990774486225105,4.158836398217896,3.303061384331376,2.5142631262764055,1.8441317716794396,1.2891995607463418,0.8507744025843424,0.5284434422660375,0.3123314724305395,0.1842400486427759,0.11184901519925611
0.0,58.0,58.0,0.0,120.0,0.0,0.0,0.0,0.0,-107.0,0.0,-45.0,0.0,0.0,0.0,34.27253218749016,17.55503396713325,6.274099228519882,4.922702184155212,4.220148039101951,3.5400543772890325,2.8186521609021487,2.132092640708542,1.5148824777680232,1.0198749687946316,0.6572848984953409,0.400156110716532,0.22761462119556763,0.12073434312267581,0.06063871142719192,0.03069599037253643,0.016240780730356053,8.335848841753107,7.189639761230683,6.531739099295076,5.842471031943518,5.043172243542241,4.194594585488173,3.3303229696660503,2.533963017388092,1.8578149511391264,1.2983324014937103,0.856673890734586,0.5320459755486057,0.31400129452558395,0.1842786758549446,0.11087792243246157
0.0,59.0,59.0,0.0,120.0,0.0,0.0,0.0,0.0,-107.0,0.0,-45.0,0.0,0.0,0.0,34.27253218749016,17.55503396713325,6.351919827361206,4.989618714551744,4.276905762902513,3.5865171570620906,2.8541655440360763,2.157462889327117,1.5316118989638483,1.0301986007303512,0.6633604347854296,0.4035503783058974,0.22942562314601422,0.12163671674298777,0.060953725846943765,0.030632138978452725,0.016010746771878588,8.399401452122568,7.25271794138758,6.589959068039599,5.894636105479045,5.0876929402134214,4.23066435363126,3.357785087366824,2.553770764730307,1.8715391844318232,1.3074619234996028,0.8625485706140463,0.5356419806003716,0.3157205151678403,0.18440558071603644,0.10998810975909708
0.0,60.0,60.0,0.0,120.0,0.0,0.0,0.0,0.0,-107.0,0.0,-45.0,0.0,0.0,0.0,34.27253218749016,17.55503396713325,6.4320057684773,5.057813154373588,4.334674291767874,3.6337577004769224,2.8902304582882747,2.1831919992045417,1.5485499401961116,1.0406304208569135,0.6694850548253032,0.40696129555089605,0.23123865982231126,0.1225429445698806,0.061284620727826956,0.0305901074582152,0.015798142552825623,8.464349460570938,7.316551597323357,6.648824245004203,5.947347072302634,5.132648381929415,4.267052808473163,3.385453241360398,2.5736907357408327,1.8853078010053905,1.316590739122757,0.8683996714653764,0.5392284264581053,0.31748201346256194,0.18461411155363197,0.10917587298172034
0.0,61.0,61.0,0.0,120.0,0.0,0.0,0.0,0.0,-107.0,0.0,-45.0,0.0,0.0,0.0,34.27253218749016,17.55503396713325,6.514382581148747,5.127314659823572,4.393476161385952,3.681792700461959,2.9268582487181747,2.2092869450998323,1.5657006553742288,1.051172657771072,0.6756600548194232,0.410389677376342,0.2330540103653474,0.12345208129315059,0.0616295059958982,0.030568297129597813,0.01560210391997353,8.530683266599388,7.381152436096924,6.708346245376687,6.000614466455212,5.178047477150153,4.303767127796572,3.413333014303947,2.5937271962140276,1.8991240794501953,1.32572144043549,0.8742285733210597,0.542802867470425,0.3192793195524139,0.18489795377543125,0.10843761306792431
0.0,62.0,62.0,0.0,120.0,0.0,0.0,0.0,0.0,-107.0,0.0,-45.0,0.0,0.0,0.0,34.27253218749016,17.55503396713325,6.599076911783318,5.198153301703193,4.4533345131018445,3.7306391926599685,2.9640604000463164,2.235754818365747,1.5830681335167298,1.0618275430876762,0.6818867191324595,0.41383632431071654,0.23487199958281502,0.12436334901255355,0.06198666496971606,0.030565198419976146,0.015421800839866794,8.598393227392151,7.446532319974909,6.768536763544471,6.054448876978459,5.223899214321957,4.340814635034356,3.4414300028142635,2.613884344214284,1.9129912475688986,1.3348565948696476,0.880036772793804,0.546363374471636,0.3211065752816386,0.18525112346499495,0.10776983480408349
0.0,63.0,63.0,0.0,120.0,0.0,0.0,0.0,0.0,-107.0,0.0,-45.0,0.0,0.0,0.0,34.27253218749016,17.55503396713325,6.686116844656148,5.270360038716451,4.51427302035653,3.7803144342879738,3.0018484824867206,2.262602938020677,1.6006564610213847,1.0725973274177873,0.6881663155553484,0.4173020243955183,0.23669298662215255,0.12527611687920126,0.06235454277370203,0.030579387635504742,0.015256435260135072,8.667469751053686,7.5127031145244905,6.829407447264984,6.108860919674572,5.2702127478727485,4.378202720465333,3.469749751977375,2.6341663647997255,1.9269124921359633,1.3439987324670906,0.8858258574911321,0.5499084718089388,0.32295849556410783,0.18566796030937396,0.10716914487546736
0.0,64.0,64.0,0.0,120.0,0.0,0.0,0.0,0.0,-107.0,0.0,-45.0,0.0,0.0,0.0,34.27253218749016,17.55503396713325,6.775532049046257,5.3439666830458155,4.576316003323009,3.8308361758044236,3.04023438388176,2.2898386667048465,1.6184697815388462,1.0834842598015495,0.6945001047103601,0.42078755116410094,0.2385173565573211,0.12618988256143904,0.06273173519243315,0.03060952377292332,0.015105241112162352,8.737903735038618,7.57967697016972,6.890970150095496,6.163861389733729,5.316997246106987,4.415938738501384,3.498297835973026,2.6545774057095564,1.9408909655631836,1.3531503448238282,0.8915974817850254,0.5534370808437475,0.32483033069516704,0.18614311978337378,0.10663225361335282
0.0,65.0,65.0,0.0,120.0,0.0,0.0,0.0,0.0,-107.0,0.0,-45.0,0.0,0.0,0.0,34.27253218749016,17.55503396713325,6.867354202310884,5.419005948158821,4.6394884185237455,3.8822225956964447,3.079230221686572,2.3174694804754465,1.6365122792365832,1.0944905966173963,0.7008893381636535,0.42429366490083026,0.2403455129446106,0.12710425572721282,0.06311697794374439,0.030654345357337232,0.01496748291613778,8.809686669225815,7.647466252436849,6.953236807787404,6.219461184132023,5.364261939743849,4.4540300600273435,3.527079826275545,2.6751215895678255,1.9549297844301865,1.3623138852797414,0.8973533468661825,0.5569484689258201,0.32671782975932695,0.18667156475390254,0.10615597418944085
0.0,66.0,66.0,0.0,120.0,0.0,0.0,0.0,0.0,-107.0,0.0,-45.0,0.0,0.0,0.0,34.27253218749016,17.55503396713325,6.96161734724218,5.495511519594193,4.703815903039771,3.9344923705478023,3.1188483787092784,2.3455029393448865,1.654788171906816,1.1056186124455505,0.7073352560568001,0.4278211137929911,0.24217787191667123,0.12801894320783055,0.06350913642248449,0.03071266731070125,0.014842455259693741,8.882810776715417,7.716083621034439,7.016219435192606,6.275671276228082,5.412016083071715,4.492484042075444,3.556101325212302,2.6958030022326787,1.9690320346517882,1.371491767622056,0.903095184723323,0.5604422034553757,0.3286172052495928,0.1872485565953778,0.10573722192436823
0.0,67.0,67.0,0.0,120.0,0.0,0.0,0.0,0.0,-107.0,0.0,-45.0,0.0,0.0,0.0,34.27253218749016,17.55503396713325,7.058358171543061,5.573518138184129,4.769324759831841,3.987664677200773,3.1591014829568356,2.3739466694042584,1.6733017356279747,1.1168705919154405,0.713839091272515,0.43137063352550903,0.2440148576958206,0.12893373573191882,0.06390719591010828,0.03078337786114858,0.014729481461795526,8.95726904774759,7.785542076968728,7.079930093928187,6.332502657519091,5.460268933100682,4.5313080506657,3.5853679774793785,2.716625684766609,1.9832007752781453,1.3806863656046087,0.9088247448556707,0.5639181107891004,0.330525098984485,0.18786964588860527,0.10537301312592892
0.0,68.0,68.0,0.0,120.0,0.0,0.0,0.0,0.0,-107.0,0.0,-45.0,0.0,0.0,0.0,34.27253218749016,17.55503396713325,7.157615961652055,5.6530614946957,4.83604166484436,4.041758936746941,3.2000023008659113,2.4028085572671105,1.692057337799207,1.1282487843619,0.7204020868595017,0.4349429450279437,0.24585689884423395,0.12984849629831996,0.06431025219863369,0.03086543550838309,0.014627909703854894,9.033055134121716,7.855854920150599,7.144380910283221,6.3899664384050245,5.509030034292287,4.570509623373656,3.6148852724003735,2.7375937170536093,1.997439010520972,1.3899000217166426,0.9145437814229052,0.5673762399364626,0.33243854937411876,0.18853066275475877,0.1050604661056542
0.0,69.0,69.0,0.0,120.0,0.0,0.0,0.0,0.0,-107.0,0.0,-45.0,0.0,0.0,0.0,34.27253218749016,17.55503396713325,7.259432869354046,5.7341787188075655,4.903993993129094,4.096795144299606,3.2415639588453775,2.4320965401271475,1.7110593623405295,1.1397554853108216,0.7270254710018054,0.43853875766661704,0.2477044261339644,0.13076314929995167,0.06471750288055526,0.030957865991344515,0.014537114867557885,9.110163919865952,7.92703596417943,7.209584270739257,6.44807378431046,5.5583089759392434,4.6100963322151385,3.6446588784008327,2.7587111804565994,2.011749638089884,1.399135043495553,0.9202540536878705,0.5708168277858765,0.33435495987534786,0.18922770750709908,0.10479680237680324
0.0,70.0,70.0,0.0,120.0,0.0,0.0,0.0,0.0,-107.0,0.0,-45.0,0.0,0.0,0.0,34.27253218749016,17.55503396713325,7.363854058105839,5.816908538194009,4.973209761890573,4.152793715151486,3.283799879179165,2.461818676235023,1.7303122429435878,1.1513930037584437,0.7337104670943543,0.44215877029681583,0.24955786925330223,0.13167767171035452,0.065128238899131,0.031059759321735346,0.014456495839585115,9.188592007004482,7.999099292517469,7.2755528765074935,6.506835892451752,5.608115422482536,4.650075798055591,3.674694477579384,2.7799821430728437,2.026135510510597,1.4083937022600437,0.9259573122716006,0.5742402717156858,0.33627206960783135,0.18995714002941824,0.1045793441415463
0.0,71.0,71.0,0.0,120.0,0.0,0.0,0.0,0.0,-107.0,0.0,-45.0,0.0,0.0,0.0,34.27253218749016,17.55503396713325,7.470928356366981,5.901291437657031,5.043717796026029,4.209775457897451,3.3267237989495437,2.4919831517107585,1.7498204550220526,1.1631636461067811,0.7404582926914588,0.4458036802973124,0.2514176510267513,0.1325920862211447,0.065541836435464,0.031170266830610166,0.014385475106007281,9.26833851175221,8.072058825947254,7.34229977000985,6.566263883070535,5.658458878988217,4.690455389141123,3.704997415694302,2.8014104992765136,2.0405997053478715,1.4176782152732477,0.931655271052422,0.5776471093091338,0.3381879265471108,0.19071556763940936,0.10440550321643774
0.0,72.0,72.0,0.0,120.0,0.0,0.0,0.0,0.0,-107.0,0.0,-45.0,0.0,0.0,0.0,34.27253218749016,17.55503396713325,7.580709524922942,5.987369452706705,5.115547963484292,4.267761531064296,3.370349753147606,2.522598284156265,1.7695885289051987,1.175069745540734,0.74727016328042,0.4494741702547303,0.2532841925510993,0.13350645214393633,0.06595774987930342,0.031288598349286864,0.014323500486623328,9.349405698701705,8.145927872307459,7.4098385002670835,6.626369098272037,5.70934900743398,4.731242713596216,3.7355732542380364,2.8230002218682158,2.055145102781027,1.426990774134289,0.9373496380728681,0.581037987427142,0.3401008587875285,0.19149983761329475,0.10427279879639516
0.0,73.0,73.0,0.0,120.0,0.0,0.0,0.0,0.0,-107.0,0.0,-45.0,0.0,0.0,0.0,34.27253218749016,17.55503396713325,7.693258038505737,6.07518549630917,5.188731491737097,4.326773479431355,3.414692043521048,2.5536725059752277,1.7896210406047184,1.1871136689958581,0.7541472825990656,0.45317091697626355,0.25515790884178874,0.1344208601560574,0.0663755047121795,0.031414019369245684,0.014270046396723869,9.43179855745978,8.22071867810012,7.478182836520995,6.6871630931367365,5.760795440027957,4.772445433929749,3.7664275965516643,2.844755252927292,2.0697745501694857,1.4363335344712793,0.9430420984418235,0.5844136455480371,0.3420094503425658,0.19230702562737242,0.10417884682562156
0.0,74.0,74.0,0.0,120.0,0.0,0.0,0.0,0.0,-107.0,0.0,-45.0,0.0,0.0,0.0,34.27253218749016,17.55503396713325,7.8086422202209915,6.164782252196324,5.263301099553376,4.386833323378963,3.459765164048047,2.5852143525618096,1.8099226361083642,1.1992978245762453,0.7610908352774196,0.45689459471258864,0.25703920760462456,0.13533542693511943,0.06679469102722337,0.03154584827458068,0.014224612069486171,9.515522679978867,8.296442773200077,7.547346239654538,6.748657715121634,5.812807756030257,4.814071291313302,3.797566132677272,2.866679478646842,2.084490869284366,1.4457086140761426,0.9487343124551023,0.5877748981895304,0.3439125176693302,0.19313442534766295,0.10412135442495436
0.0,75.0,75.0,0.0,120.0,0.0,0.0,0.0,0.0,-107.0,0.0,-45.0,0.0,0.0,0.0,34.27253218749016,17.55503396713325,7.926936521381889,6.256201414712712,5.3392907130297935,4.447963855426685,3.505583960765006,2.617232748489737,1.8304980320031903,1.2116245212630727,0.768102064698682,0.4606458499403621,0.2589284950864416,0.13625028929683095,0.06721495759735555,0.031683453725949176,0.014186719374613568,9.600581463583435,8.373113056307025,7.617341566802335,6.81086550877167,5.865395782061252,4.856128088867646,3.8289943067188763,2.8887768387688935,2.0992968537216226,1.4551180929506051,0.9544279110452019,0.5911226210588848,0.34580908728227855,0.19397953815987018,0.10409812047080885
0.0,76.0,76.0,0.0,120.0,0.0,0.0,0.0,0.0,-107.0,0.0,-45.0,0.0,0.0,0.0,34.27253218749016,17.55503396713325,8.048216352195622,6.349485005116194,5.416734624439573,4.510188855260502,3.5521634066485244,2.6497367017532674,1.8513519668591478,1.2240961515464517,0.7751821817777751,0.46442533210523645,0.26082616783041507,0.1371656017347239,0.06763600604502967,0.03182625196053076,0.014155903352641925,9.686975830956449,8.450746081459874,7.688180208785977,6.873799116651591,5.918569289588846,4.898623634005608,3.860717713192453,2.911051226743916,2.114195258541863,1.464564018527743,0.9601244959094317,0.5944577366933181,0.34769837561108324,0.19484006280743446,0.10410703459557355
0.0,77.0,77.0,0.0,120.0,0.0,0.0,0.0,0.0,-107.0,0.0,-45.0,0.0,0.0,0.0,34.27253218749016,17.55503396713325,8.172554786769949,6.444679330506228,5.495666109987862,4.573533188556626,3.599518656147745,2.6827354151827723,1.8724892392569212,1.2367151245538277,0.7823323968140504,0.4682336837163124,0.26273261525783076,0.13808153234664777,0.06805758570525415,0.03197370425973271,0.014131715252665282,9.774712995457659,8.529363495196595,7.759872807772571,6.937471044331671,5.972338208049102,4.941565731333117,3.8927419732377357,2.9335065190803897,2.1291888071392657,1.474048403322284,0.9658256380530458,0.5977812034639729,0.34957976976467486,0.19571388530980804,0.10414609006071163
0.0,78.0,78.0,0.0,120.0,0.0,0.0,0.0,0.0,-107.0,0.0,-45.0,0.0,0.0,0.0,34.27253218749016,17.55503396713325,8.300032578713385,6.541839856953699,5.576116723322706,4.638022547971004,3.647665089928388,2.716238265726665,1.8939147203294595,1.249483866315386,0.7895539194664054,0.4720715408685768,0.26464821953988793,0.13899825985013822,0.06847948879860391,0.03212531446590461,0.014113741610189927,9.863816893781399,8.60898825030808,7.832431447794115,7.001893187056044,6.026712720265972,4.984962145719418,3.925072739267553,2.956146576916123,2.1442801916111858,1.4835732252248102,0.9715328770081096,0.6010940057699687,0.3514528098134972,0.19659906900960034,0.10421338760914055
