Line_number,Fiducial,Easting,Northing,Height,Elevation,tx_pitch,tx_roll,tx_yaw,txrx_dx,txrx_dy,txrx_dz,rx_pitch,rx_roll,rx_yaw,PX,PZ,S0X_time_1.086e-05,S0X_time_3.256e-05,S0X_time_5.426e-05,S0X_time_8.680e-05,S0X_time_1.411e-04,S0X_time_2.279e-04,S0X_time_3.689e-04,S0X_time_5.860e-04,S0X_time_9.115e-04,S0X_time_1.411e-03,S0X_time_2.192e-03,S0X_time_3.418e-03,S0X_time_5.339e-03,S0X_time_8.301e-03,S0X_time_1.338e-02,S0Z_time_1.086e-05,S0Z_time_3.256e-05,S0Z_time_5.426e-05,S0Z_time_8.680e-05,S0Z_time_1.411e-04,S0Z_time_2.279e-04,S0Z_time_3.689e-04,S0Z_time_5.860e-04,S0Z_time_9.115e-04,S0Z_time_1.411e-03,S0Z_time_2.192e-03,S0Z_time_3.418e-03,S0Z_time_5.339e-03,S0Z_time_8.301e-03,S0Z_time_1.338e-02
0.0,0.0,0.0,0.0,120.0,0.0,0.0,0.0,0.0,-107.0,0.0,-45.0,0.0,0.0,0.0,34.27253218749016,17.55503396713325,4.463625815272589,2.527209512499013,2.105448572255802,1.7686239801227415,1.528939142835949,1.3811767567343651,1.192466185506842,1.1092030077516637,0.9443701848592543,0.812026642073955,0.6705494232791795,0.41245959899636786,0.3434663122918706,0.2735958578619614,0.19875285286989014,6.471001771567458,4.531011577883983,3.875944675643454,3.433961736047707,3.1048705836686556,2.8023016799841045,2.597590249734952,2.3440611250318706,2.0904044384048337,1.8328800728162264,1.5913799293484132,1.3403777610382466,1.0534552465046318,0.7996954788878823,0.5699411150935045
0.0,1.0,1.0,0.0,120.0,0.0,0.0,0.0,0.0,-107.0,0.0,-45.0,0.0,0.0,0.0,34.27253218749016,17.55503396713325,4.477199421156126,2.6007634921591296,2.168235362050679,1.7968221334876555,1.5147251787220564,1.2151876448218286,1.1286941129762822,1.0378714637501067,0.9421149673757663,0.752093780132847,0.6172227045752334,0.4744206462114833,0.2937160895313753,0.2510117709626955,0.16568134118689784,6.5282354220905345,4.46227261303425,3.9002281914466583,3.4408618083718983,3.002388544659098,2.698502611732513,2.4032953361981577,2.2012685701591153,2.011688806748715,1.734434970789664,1.5078660753170279,1.247093517260415,0.9666238233309931,0.713457962076445,0.5505617942634379
0.0,2.0,2.0,0.0,120.0,0.0,0.0,0.0,0.0,-107.0,0.0,-45.0,0.0,0.0,0.0,34.27253218749016,17.55503396713325,4.467224053407898,2.675589504870369,2.0777972598143677,1.824081413394226,1.3877969520244793,1.284189360729829,1.0700545174100236,0.9636228785049127,0.8075207779647884,0.6781839624097868,0.5297564646717768,0.45156033004153684,0.33047064119959046,0.19760992557228757,0.1704906883551272,6.4858782484054815,4.556115880597976,3.904213539344558,3.454186414720438,2.9957210810982593,2.6113068225987304,2.3328750313309907,2.1191140985499786,1.8808252999843635,1.6407809523741586,1.3886273157414153,1.1864944309794896,0.9392483133332603,0.7030873889079391,0.5154277196093336
0.0,3.0,3.0,0.0,120.0,0.0,0.0,0.0,0.0,-107.0,0.0,-45.0,0.0,0.0,0.0,34.27253218749016,17.55503396713325,4.4637029249079445,2.6786882919515462,2.219980327174706,1.74353777825756,1.4487136539098517,1.2211424570233258,1.0164847643823975,0.8317580741339701,0.723061084927914,0.6073944147352156,0.5664453630152532,0.40754020319318707,0.3017847957983558,0.19091721133347905,0.14988692729959208,6.552497042213046,4.629409879552245,4.000941419810668,3.44344847048415,2.9873167938091907,2.588602687540416,2.238873131046274,1.9986722791915001,1.7674564336833756,1.5475010691753912,1.3227241592147476,1.1082460345442955,0.8491230727122813,0.6957944238530532,0.45458423440865026
0.0,4.0,4.0,0.0,120.0,0.0,0.0,0.0,0.0,-107.0,0.0,-45.0,0.0,0.0,0.0,34.27253218749016,17.55503396713325,4.524304802415579,2.642864705810666,2.086701656091609,1.7996109665256876,1.462291016944857,1.1940298832584848,0.9421123239519247,0.8065678474420626,0.6894028105806801,0.6312022412371489,0.4667605220604672,0.3687885961112715,0.24103291457019327,0.19632847033543077,0.1504851278910742,6.565184193558065,4.63102465101098,4.034790089064935,3.533991217904329,3.0052315595662313,2.6072695660929406,2.217330707629411,1.9214311197895078,1.7209483433233304,1.4611048271309108,1.2799799942078944,1.0656554342379274,0.8381583150926821,0.6488572948575085,0.4349905217737078
0.0,5.0,5.0,0.0,120.0,0.0,0.0,0.0,0.0,-107.0,0.0,-45.0,0.0,0.0,0.0,34.27253218749016,17.55503396713325,4.507312396755102,2.6691682315730505,2.211000778001866,1.8866236570026818,1.450375816290944,1.1548836562839668,1.0077575445992804,0.7082916802707964,0.649297096348868,0.5465245824773978,0.41907502643999284,0.3272384718202271,0.24416061179883747,0.14415047044594242,0.14014477306880654,6.600487472508811,4.650183172871206,4.035561952082239,3.559146642511635,3.0573491399086636,2.572162631729962,2.1471487780262453,1.8389636137414476,1.6172847142844295,1.3819376567502102,1.1577302637206621,0.9838400777407511,0.8035299751034501,0.5917571558804059,0.483338578416017
0.0,6.0,6.0,0.0,120.0,0.0,0.0,0.0,0.0,-107.0,0.0,-45.0,0.0,0.0,0.0,34.27253218749016,17.55503396713325,4.490567191895916,2.812515727803936,2.2452926823451858,1.8487526280734894,1.4387983631038952,1.1481907601384411,0.9424907275798439,0.7662980826886946,0.6619127878415667,0.4843571508398981,0.3353963611976525,0.24985768722902274,0.20673152033706343,0.15145941734601853,0.08835614831547427,6.653299045600547,4.758121963077814,4.089651359465036,3.6033945045272553,3.0452636065703538,2.580849980168827,2.101860013105061,1.7735595574053928,1.5680531978634378,1.3353097972998351,1.1584162374153182,0.9091754999313036,0.7737289178515219,0.564119721690746,0.40837971007097074
0.0,7.0,7.0,0.0,120.0,0.0,0.0,0.0,0.0,-107.0,0.0,-45.0,0.0,0.0,0.0,34.27253218749016,17.55503396713325,4.5148085148382755,2.6461459541928463,2.2641989013678323,1.8594796825760342,1.5281280213198278,1.1874413572331408,0.9422807763230093,0.6745988212391414,0.6384013097785672,0.4116925603889394,0.4261469671853569,0.26438988197290186,0.20191323431686953,0.18588242241148362,0.06526773444151852,6.593383673022909,4.729999027933413,4.1325071364536115,3.659718605452836,3.1403969844958195,2.58144374894937,2.123631980412958,1.7440848198248309,1.4907661047161938,1.2878504000586644,1.1166102478626425,0.9252919748242797,0.6894380412912082,0.5372020113124178,0.40707854454855313
0.0,8.0,8.0,0.0,120.0,0.0,0.0,0.0,0.0,-107.0,0.0,-45.0,0.0,0.0,0.0,34.27253218749016,17.55503396713325,4.629693424273511,2.721665377912809,2.3316658154236154,1.899612671684098,1.5351075113501242,1.1300836856874592,0.9150038316000957,0.7060473130556227,0.5526807271775289,0.43248496369758266,0.3622852979278561,0.27077628507602775,0.26706397612200733,0.16443486028480306,0.1361423620156384,6.673702958475813,4.7559528487385085,4.169552638604351,3.687451461304601,3.1275889917871402,2.6325892930804664,2.1329983026094435,1.7088884729893767,1.414349131930875,1.2067120709082946,1.0018828557513155,0.8301897300433387,0.7071244630056448,0.5412284827433455,0.38742664329533877
0.0,9.0,9.0,0.0,120.0,0.0,0.0,0.0,0.0,-107.0,0.0,-45.0,0.0,0.0,0.0,34.27253218749016,17.55503396713325,4.528656341393979,2.7561277225540315,2.329010749928808,1.9140612039758302,1.5696367776238604,1.2088370702368856,0.8917683444649227,0.7461240079205033,0.43631455739719344,0.40699445259004685,0.3302144380512776,0.2621885383314344,0.1785708506237188,0.1690669938542003,0.09802856502603599,6.708530654004299,4.817189619298358,4.264218520743909,3.7164384676656437,3.1946670555133516,2.607380557454006,2.0970974399685347,1.6836492189756804,1.385203278959428,1.1697144660822316,1.0124131438589608,0.836299076338336,0.6374133883425209,0.5116494863606638,0.387203368261518
0.0,10.0,10.0,0.0,120.0,0.0,0.0,0.0,0.0,-107.0,0.0,-45.0,0.0,0.0,0.0,34.27253218749016,17.55503396713325,4.5700176363707765,2.8063075364522656,2.2316173013941656,2.0350865697444913,1.6360170779501273,1.1847954600211938,0.8253924950351502,0.573339808583148,0.5315823530683125,0.3679015316978759,0.3352066582067497,0.22608226341421425,0.2005964186982209,0.11751017233522626,0.05012862378274944,6.720480639225107,4.808807551703591,4.240755917222329,3.765057390418871,3.2393861761865756,2.642358148523197,2.1443075945676324,1.6636678162235907,1.396588088057122,1.1635245339205464,0.9619980520771145,0.7806895123404427,0.6187093123510096,0.45960108171858577,0.3887203243077634
0.0,11.0,11.0,0.0,120.0,0.0,0.0,0.0,0.0,-107.0,0.0,-45.0,0.0,0.0,0.0,34.27253218749016,17.55503396713325,4.560784534611071,2.7916257147057095,2.303142701420011,1.959725214005077,1.5325560102160947,1.2368039049283386,0.9476028623523988,0.686093521092383,0.45148231104644393,0.37069509512275894,0.2999684208322022,0.19041556553242675,0.1512611740014088,0.10433542286193843,0.05654761928034345,6.731392701309111,4.914042303553402,4.307764093803819,3.8066786043293197,3.2281932492104524,2.696308540456813,2.1598116628550135,1.7102933806199416,1.3887605537662133,1.1222839795724968,0.9411067216364156,0.7368085735985443,0.6036639401994519,0.4742696996570664,0.3575065425843862
0.0,12.0,12.0,0.0,120.0,0.0,0.0,0.0,0.0,-107.0,0.0,-45.0,0.0,0.0,0.0,34.27253218749016,17.55503396713325,4.581781834971906,2.891109480880865,2.370546258935978,1.991213941349073,1.5718807222762967,1.2760718796087527,0.8633352664217193,0.6686771872034738,0.4746968739078597,0.36223935261848544,0.26364051628994867,0.2859721373478913,0.21007283758239143,0.07685128518031228,0.0853567594577992,6.733326693209548,4.9658667504931735,4.377722415060262,3.8574473349144442,3.323279121006715,2.711135279188821,2.1721390689601763,1.7006755697138891,1.3607203885209145,1.061454030250088,0.9041568219686849,0.6936865975212612,0.5577253482619189,0.47084434316928214,0.33457725758186674
0.0,13.0,13.0,0.0,120.0,0.0,0.0,0.0,0.0,-107.0,0.0,-45.0,0.0,0.0,0.0,34.27253218749016,17.55503396713325,4.599574874518125,2.934911187863437,2.4447033648840724,2.0243373121597026,1.6816677624630545,1.2311329512795206,0.8544203949147923,0.6283530896006657,0.47802205438163115,0.34033587575822916,0.27519280131612167,0.2651759534561776,0.11892164891308156,0.09816057982524294,0.0959046566449169,6.761127729526038,4.995890541387942,4.4243116119153,3.9347771928128776,3.3195492983459616,2.752432625404515,2.2142037728137502,1.7208046829810224,1.3095291580873578,1.0663774038207146,0.8634339930110952,0.7133834675259522,0.604707987533949,0.46798460378268897,0.33331690850649476
0.0,14.0,14.0,0.0,120.0,0.0,0.0,0.0,0.0,-107.0,0.0,-45.0,0.0,0.0,0.0,34.27253218749016,17.55503396713325,4.563743541672432,2.9015072489636693,2.386912120629718,2.0898849831563027,1.65168882813161,1.27144905379524,0.8762771882167865,0.5837008760458298,0.4305835052469225,0.2886505828833729,0.2890159900760921,0.19859297792693,0.09280432262902968,0.09487107608280662,0.09977802956007714,6.7969995411153095,4.97996286639421,4.445652382057876,3.9253485987842707,3.3455282066601635,2.8002742254504014,2.217056495264599,1.6881754448814104,1.2924931960220651,1.0338320604708986,0.7780506002378474,0.6987061282436111,0.5033696943923235,0.4454507080783105,0.28093474960570164
0.0,15.0,15.0,0.0,120.0,0.0,0.0,0.0,0.0,-107.0,0.0,-45.0,0.0,0.0,0.0,34.27253218749016,17.55503396713325,4.634743539478861,2.9659390538202115,2.444309827213812,2.10650199308791,1.6599280593339436,1.2244956449467446,0.9269388727888574,0.5673603035064864,0.40109757808832813,0.3359363771754232,0.22989229599940647,0.22287295515151545,0.10230114543235601,0.09257399350306099,0.028096015555023474,6.778932572794401,5.067257627331646,4.457996393589709,3.9793211398140858,3.409635564455035,2.8159268369604087,2.2789707676829605,1.728541476087999,1.2958511592533746,1.0104107288657849,0.7654923814762935,0.6348015517245071,0.5154722206550441,0.4082871544348003,0.2631203028194167
0.0,16.0,16.0,0.0,120.0,0.0,0.0,0.0,0.0,-107.0,0.0,-45.0,0.0,0.0,0.0,34.27253218749016,17.55503396713325,4.682215550945157,2.975233081747951,2.493411337959298,2.1387051726798925,1.6902582160224007,1.2750045386329987,0.9310734326429121,0.7251137726959533,0.5071077714214716,0.3743189792517583,0.23499637066708234,0.17329106613961917,0.13493073234859476,0.09626703199966254,0.06191990435068989,6.798450271215228,5.069519259588542,4.540071354846038,3.9743734101911814,3.42898231219472,2.8339413696535924,2.270629431062859,1.73321625903188,1.2933735777257092,0.9933528294284578,0.7985769900711799,0.6135587854839147,0.5085913356244677,0.4066997953119329,0.31461186090900606
0.0,17.0,17.0,0.0,120.0,0.0,0.0,0.0,0.0,-107.0,0.0,-45.0,0.0,0.0,0.0,34.27253218749016,17.55503396713325,4.650463028602772,3.021593047893923,2.504064075314905,2.109056039979236,1.7317743229748763,1.3038616926365594,1.0219710196867622,0.6498985479354031,0.40756271510728537,0.2747502502602079,0.2227828571287667,0.14986060816155417,0.09870032445714871,0.0562440670623853,0.08492385142184315,6.8355896955986815,5.138299896177836,4.566570251237101,4.057473233813319,3.48779280763387,2.8969124995026365,2.2838618337656538,1.758265098561274,1.3429022989241473,1.0118320461692618,0.8182614492206748,0.6092058809715708,0.47014364004685216,0.35900688733256086,0.2537954497920676
0.0,18.0,18.0,0.0,120.0,0.0,0.0,0.0,0.0,-107.0,0.0,-45.0,0.0,0.0,0.0,34.27253218749016,17.55503396713325,4.686163287699503,3.0448737248678857,2.540679386634218,2.1169028836759893,1.7924825029943485,1.2887113140651882,0.9900159913812219,0.6601988879644671,0.4347938355197013,0.3089867127622191,0.21411696496992716,0.12854449012950617,0.06915868957232278,0.06340094962407333,0.0007600012584341176,6.814835037722597,5.1612134035784285,4.5432978162242295,4.0618229480622,3.504390229710074,2.9436156358111365,2.330480918181117,1.7847825820496506,1.3246633144569628,0.996295674971924,0.8024951531433724,0.5668003730165388,0.5020724617237047,0.3682502307709537,0.29872877387664076
0.0,19.0,19.0,0.0,120.0,0.0,0.0,0.0,0.0,-107.0,0.0,-45.0,0.0,0.0,0.0,34.27253218749016,17.55503396713325,4.674765850283516,3.0865624376226486,2.62774274145064,2.1639083685815788,1.780040643526116,1.349307100390526,0.9639937502573127,0.6739652327069114,0.39398434562996315,0.3788783241126966,0.20281329323985522,0.1791612146438099,0.18304165630549593,0.16344164502732345,0.10188254617381924,6.831338784781827,5.259050070503953,4.564751459631938,4.099190088515188,3.5620477092409835,2.930155681390281,2.373300534345571,1.7654597789850643,1.3641151561980838,0.9756261280512423,0.7449720142228451,0.5525385036663996,0.46736087792772996,0.36822737038425934,0.24621865826479458
0.0,20.0,20.0,0.0,120.0,0.0,0.0,0.0,0.0,-107.0,0.0,-45.0,0.0,0.0,0.0,34.27253218749016,17.55503396713325,4.676686982395082,3.1004858418903543,2.697413067545935,2.269207466433936,1.800806309488272,1.3988044575056615,1.0006950031059196,0.7076433811942975,0.4728085965876173,0.24069163145532024,0.2255779554864315,0.08444813324539541,0.09849118931961219,0.08717231486127294,0.035585470912011544,6.890833763965346,5.2702180202900895,4.69011685803007,4.1642799228778795,3.5757399135604935,2.9952602864197795,2.368902672100084,1.7778864822543163,1.3206392858438192,1.0137161432917308,0.7074662086752657,0.5465577344559229,0.46205839843583624,0.33072927594095247,0.28105305170986655
0.0,21.0,21.0,0.0,120.0,0.0,0.0,0.0,0.0,-107.0,0.0,-45.0,0.0,0.0,0.0,34.27253218749016,17.55503396713325,4.7061341388188245,3.160394663232301,2.783123855406346,2.192467265396074,1.808690810161975,1.3465851494770327,0.983805682592666,0.6489052733160344,0.43348310823926706,0.28908695141067575,0.1842904708681293,0.09316112585295266,0.08536055672436021,0.0628920818142869,0.03487636665134147,6.898066873894169,5.288991939977823,4.736484624415289,4.148467606927441,3.6021182082380285,3.0238230844451484,2.42322023652822,1.8039747483335784,1.3724841018305036,0.9948156027083636,0.7106637229544819,0.5579159329577366,0.43687821519976644,0.3170482065897894,0.21138398353578913
0.0,22.0,22.0,0.0,120.0,0.0,0.0,0.0,0.0,-107.0,0.0,-45.0,0.0,0.0,0.0,34.27253218749016,17.55503396713325,4.738410107068807,3.22290985930453,2.619093685528364,2.3023478615929402,1.8376200320722973,1.3974847567174753,0.9629544921146884,0.7008985699093169,0.4275152785304539,0.37863191204205543,0.20018462227331912,0.1712360417460749,0.08484115947121317,0.08347647548547837,0.04320170600797268,6.949362551247431,5.32821446385242,4.761538604169527,4.264993194714893,3.6144130253061673,3.02869327174532,2.4292892057226134,1.8663726359187087,1.3560627484478498,0.9856953392037199,0.6873895439294508,0.5317413004717358,0.38928976981192426,0.3360391575609585,0.27042778094604003
0.0,23.0,23.0,0.0,120.0,0.0,0.0,0.0,0.0,-107.0,0.0,-45.0,0.0,0.0,0.0,34.27253218749016,17.55503396713325,4.735914609949545,3.1703947830903823,2.72427543692437,2.23105337253943,1.852107287919259,1.3777057901953496,1.0565428167770978,0.7789341181256849,0.4189514146212132,0.24749933768880572,0.12950451554433173,0.07211222293125019,0.09867219586228247,0.13183553162368503,0.07172400964493889,6.950463300615994,5.363879515540361,4.806491986751004,4.319899617482015,3.6980813152890835,3.050601121647958,2.476992306705507,1.8504544518118882,1.3500260079877877,0.961123018473916,0.694798943034528,0.5020819333173483,0.4124610646412341,0.2980059800409315,0.2671613399122438
0.0,24.0,24.0,0.0,120.0,0.0,0.0,0.0,0.0,-107.0,0.0,-45.0,0.0,0.0,0.0,34.27253218749016,17.55503396713325,4.7741513478559785,3.2455145386109896,2.7997501050995632,2.3422137767099005,1.8296686545986804,1.4195724062254824,1.0519914934540184,0.7328205493107078,0.486194245786258,0.34319811969922615,0.1971970763103726,0.16964269495946355,0.06176518484712172,0.10277540668781472,0.08214116648978079,7.025692131049537,5.45457078304294,4.854520580928883,4.345665556128954,3.7101289035771052,3.1547200895686265,2.4444303982615696,1.8653082674552584,1.3874906395014996,1.012788001528393,0.6498358886893838,0.515805527855437,0.3887096786825104,0.29836906575568223,0.23019624876740938
0.0,25.0,25.0,0.0,120.0,0.0,0.0,0.0,0.0,-107.0,0.0,-45.0,0.0,0.0,0.0,34.27253218749016,17.55503396713325,4.742368397403247,3.309603453776297,2.7736444203387554,2.3753259271106364,1.8915008393506274,1.415663194425484,1.0458742430278734,0.6953999043340412,0.46966752105533377,0.32961062657324486,0.20256373060256527,0.13441569777803575,0.05688707283648772,0.09230043287713151,0.04799107692467077,6.958026748958055,5.45592809153252,4.8646236030407675,4.330993571166909,3.743711348806843,3.1497524364959233,2.4860688705606986,1.940753026429762,1.361301739017607,1.0079821171735899,0.6633427933201116,0.5284907699723922,0.35774484300722154,0.2938745665184758,0.20213438916605314
0.0,26.0,26.0,0.0,120.0,0.0,0.0,0.0,0.0,-107.0,0.0,-45.0,0.0,0.0,0.0,34.27253218749016,17.55503396713325,4.789133505742351,3.3255144272795603,2.813987869462052,2.3865947929278155,1.8884183230508722,1.5750889633960004,1.0525167382246858,0.7667800327158165,0.5760146281927948,0.30409880546680734,0.20243128828530318,0.13058612141056042,0.12176752767551391,0.09740450056305786,0.0081457022257461,7.040657630822463,5.504915168782359,4.9441288650757365,4.432333004902047,3.770564475415539,3.18702257986067,2.523980809643263,1.9427253418480772,1.4329336382053168,0.998221981830799,0.7229825852075358,0.5147796993682429,0.35590386577594557,0.2950322863496796,0.21601643521757366
0.0,27.0,27.0,0.0,120.0,0.0,0.0,0.0,0.0,-107.0,0.0,-45.0,0.0,0.0,0.0,34.27253218749016,17.55503396713325,4.780231430541275,3.4271255747654927,2.7800919779227753,2.4398404312443702,2.010221888373281,1.4932959439068332,1.05990551296916,0.7178607452289912,0.4825599084940212,0.2640161002791847,0.1308645156517691,0.1685512316834472,0.07251347559909258,0.059078382323562544,0.010466173251610585,7.055109127443482,5.519282161228308,4.985862002028263,4.480271431788515,3.8260837971869206,3.187725066715487,2.541506220858934,1.9542311362408697,1.4017329758791632,0.9994640439285748,0.6821003067302452,0.4750856666350028,0.3704551113675667,0.2754678230260666,0.17384283483122634
0.0,28.0,28.0,0.0,120.0,0.0,0.0,0.0,0.0,-107.0,0.0,-45.0,0.0,0.0,0.0,34.27253218749016,17.55503396713325,4.917470218644612,3.3980615559217355,2.8533573849735974,2.36343977246638,1.9404012975297817,1.5375497453162055,1.06470781775952,0.743780287420198,0.44074108049706806,0.2633587255064436,0.18592950260478042,0.05179495232899857,0.07173402940967571,0.012465048066753859,-0.002758774791475585,7.037775276615108,5.630406030226035,5.005715656031623,4.48424064393943,3.8607523576527734,3.2433047191096303,2.56363042537255,1.9693226608595,1.4571918892904168,1.03870456924422,0.7081606576065003,0.4849526260491209,0.3486114385597235,0.24663162690623192,0.1999335806847483
0.0,29.0,29.0,0.0,120.0,0.0,0.0,0.0,0.0,-107.0,0.0,-45.0,0.0,0.0,0.0,34.27253218749016,17.55503396713325,4.920450624088602,3.452038169483937,2.8963456935378478,2.4788863626589293,1.9544207483713067,1.5175053226773223,1.0549801141093167,0.7673745031036858,0.5084828765964942,0.3052814017484952,0.26927468788275066,0.07793103162511289,0.057872669069367,0.09302704156227845,0.004069803331914784,7.167427320705038,5.6069911004092745,5.103816809168501,4.487823859732859,3.9086192889279308,3.282322641725778,2.612563812162509,1.9688900752351375,1.4323229442016574,1.0508284441482911,0.6650542529013354,0.5291265258932899,0.3914971597703747,0.26563496582497625,0.2022375213342778
0.0,30.0,30.0,0.0,120.0,0.0,0.0,0.0,0.0,-107.0,0.0,-45.0,0.0,0.0,0.0,34.27253218749016,17.55503396713325,4.913880520159012,3.4812422297852703,3.051378514631991,2.488404705742761,2.0228611381675545,1.4850203110656326,1.109517926157867,0.781209229118277,0.48317078347184844,0.30304826083647124,0.16819870956528848,0.05440285806339438,0.10016784777318649,-0.008822081074813366,0.014864264212302955,7.080953872056134,5.654472274544957,5.099643766865843,4.54966022612248,3.939484100921271,3.264856776674749,2.5842760704576904,2.020976783249635,1.4837460301339613,1.0407921172470547,0.6824214280009626,0.4560547302600142,0.3248113881123423,0.2652174898696718,0.17453267580964313
0.0,31.0,31.0,0.0,120.0,0.0,0.0,0.0,0.0,-107.0,0.0,-45.0,0.0,0.0,0.0,34.27253218749016,17.55503396713325,4.878803459003231,3.4934103794582523,2.9085208413790773,2.55228331260663,2.042722884747795,1.5188160146632805,1.1623395251622988,0.7458496695300301,0.49660204579234807,0.3145744360811818,0.233816472715307,0.1231716242462812,0.07049870216506081,0.0030583659875285246,-0.029703204080138823,7.158681823963636,5.720598417918393,5.158287638119224,4.608027217842824,3.9588617130904007,3.2958248832750225,2.6744587306224523,2.0552202056663353,1.5332319800906329,1.0643506310739879,0.7160450900976885,0.46501970746499127,0.3445529001398305,0.23951047924393296,0.18291704439473078
0.0,32.0,32.0,0.0,120.0,0.0,0.0,0.0,0.0,-107.0,0.0,-45.0,0.0,0.0,0.0,34.27253218749016,17.55503396713325,4.914880516124993,3.544478974360562,3.0230285389194234,2.4889357125643294,2.115771126531104,1.563756908449184,1.1792349826606876,0.7446008272243737,0.5358635740751457,0.31741498627260883,0.12857639255435296,0.1316294049517741,0.05362456874415167,0.009432290457953393,0.006665879306461769,7.147656127179973,5.777168027834954,5.193573643116938,4.6530513138033065,4.013928730729832,3.3633460230836834,2.708105040767431,2.051395505357719,1.4620471325907336,1.0683535309480285,0.7278865584460219,0.48713250421335363,0.3065785740979228,0.21583823716082975,0.19177054237625463
0.0,33.0,33.0,0.0,120.0,0.0,0.0,0.0,0.0,-107.0,0.0,-45.0,0.0,0.0,0.0,34.27253218749016,17.55503396713325,5.008356938614122,3.5477754791546627,3.1225876472485377,2.579067159797768,2.037128269991496,1.6793445265488152,1.14749453843906,0.8123864653262083,0.5016488705106117,0.3883269850826603,0.1345807857489238,0.16490795139366687,0.09969325810007137,0.10489606999471612,0.0706185699257347,7.241330798342425,5.8643429475318545,5.275337744158964,4.686204103552122,4.061405272665727,3.4089069512098833,2.691119968111862,2.0497571845033353,1.4820502205625603,1.0950120151988991,0.7278978223871584,0.46842989242651434,0.3249817300789193,0.2048620425566401,0.17344093838872507
0.0,34.0,34.0,0.0,120.0,0.0,0.0,0.0,0.0,-107.0,0.0,-45.0,0.0,0.0,0.0,34.27253218749016,17.55503396713325,4.9618023595468435,3.698958564095788,3.1975155969504785,2.6195609119709764,2.0934890563062574,1.5998481730828806,1.1667101669960502,0.819777944589282,0.519907802499072,0.3499256209886093,0.17542430493475034,0.08018485601424077,0.059718500261602456,0.1035939434554666,-0.005892596995284202,7.226996271893625,5.891494220593577,5.290029535927667,4.7844777857903615,4.089587405723063,3.427854145960001,2.718034479653168,2.1349044586001584,1.5402807122763542,1.0754010153414595,0.7120964804686721,0.48064096753717017,0.33370650427732684,0.22098036605877877,0.14477679892677958
0.0,35.0,35.0,0.0,120.0,0.0,0.0,0.0,0.0,-107.0,0.0,-45.0,0.0,0.0,0.0,34.27253218749016,17.55503396713325,4.997709843159209,3.7061389372811977,3.1605975123334176,2.687126887989527,2.1424854734602663,1.5980479981564817,1.1990256000201085,0.8620685508680104,0.5749238980255273,0.3638607431123638,0.18050894033986215,0.061269903278326106,0.06088992319424433,0.02266865066943032,0.02300527100039753,7.209590600214048,5.915241071657429,5.319532892518337,4.76257569145402,4.115809553927892,3.397943415641316,2.73976307228236,2.096298985652498,1.5613588059492691,1.0741984987012645,0.7160013482107986,0.4353745934351041,0.3818651447261168,0.22392930026700403,0.15101848860756334
0.0,36.0,36.0,0.0,120.0,0.0,0.0,0.0,0.0,-107.0,0.0,-45.0,0.0,0.0,0.0,34.27253218749016,17.55503396713325,5.042930521452352,3.705906101424561,3.1292823128684146,2.681842583231934,2.1708429245084035,1.659799976523227,1.2147240124835856,0.8491478783699876,0.5781128200057151,0.33638235117549753,0.20780024903826586,0.11748771235876387,0.07935993264178114,0.12039082741754453,0.04381981622841414,7.317520970508746,5.965495478918474,5.3859511185678866,4.789764505616644,4.133855591967062,3.508581908424026,2.757460678977326,2.1360856948569866,1.5368399128065349,1.068333601872873,0.7176106109580289,0.47448243572025695,0.3373838431658402,0.23014021552398073,0.16410719663854412
0.0,37.0,37.0,0.0,120.0,0.0,0.0,0.0,0.0,-107.0,0.0,-45.0,0.0,0.0,0.0,34.27253218749016,17.55503396713325,5.1112090811161695,3.8127662436324914,3.273919162910286,2.7264040047641367,2.2058760146886365,1.6240921195944231,1.2505551806096795,0.7896705449658598,0.5041141802637149,0.339671452543558,0.24324347650863873,0.14210051273596172,0.09604090313120994,0.012150302550223577,0.11699020867539198,7.3419256870142,5.951249473800416,5.388148009225823,4.870945081495675,4.14001659369948,3.480671879156744,2.7810525523372513,2.1117023683358744,1.5788772824631516,1.1052157017892983,0.7339812212409346,0.4555642977198801,0.31209795043856386,0.23851642218241956,0.15439848918654875
0.0,38.0,38.0,0.0,120.0,0.0,0.0,0.0,0.0,-107.0,0.0,-45.0,0.0,0.0,0.0,34.27253218749016,17.55503396713325,5.211658755325277,3.816441462551268,3.306482374853717,2.7405232363667773,2.2296935938220512,1.5858396680577846,1.315393866142216,0.7753715456303094,0.5527107996649948,0.3855495398556605,0.19161409482198996,0.04893215668806828,0.03579513822360964,0.06548258502980114,0.02499717002918016,7.349488908699046,6.13276248492416,5.519900319057903,4.9023396679448465,4.201815708370211,3.5115445225075628,2.801129708438484,2.1550947951279484,1.5679934789612497,1.131016895498787,0.6921615686675329,0.48713119921375453,0.305606502319418,0.2153187761835522,0.16063786750935655
0.0,39.0,39.0,0.0,120.0,0.0,0.0,0.0,0.0,-107.0,0.0,-45.0,0.0,0.0,0.0,34.27253218749016,17.55503396713325,5.146032680658338,3.9378511508532155,3.2875331140319184,2.8172240506027615,2.245662570415831,1.6517067635101108,1.2487230948037078,0.8101928845094855,0.5787209243977771,0.37273126918386046,0.17298604831891443,0.10652983680803924,0.09122710135810423,0.041595774480364854,0.029835243086354355,7.380946381757041,6.116372431078051,5.5598304739356825,4.946755997078784,4.262308117249086,3.538191474487419,2.8219754818271383,2.172081845559493,1.636101362032198,1.1308151071544466,0.7763243701894709,0.4744461927873535,0.32240171467128514,0.20725815722493032,0.10945321642616414
0.0,40.0,40.0,0.0,120.0,0.0,0.0,0.0,0.0,-107.0,0.0,-45.0,0.0,0.0,0.0,34.27253218749016,17.55503396713325,5.187877299005622,3.9174942355228293,3.3818673064080085,2.8355769696872524,2.230868129953962,1.7626810524395036,1.3255271142426273,0.8747277488098524,0.5067805371851501,0.38163417416708334,0.2007021677181442,0.11590879052859157,0.11147788069910557,0.013992248549385276,0.06140933541653365,7.427652651754458,6.147815937771931,5.60993767391856,4.979357995774824,4.343903285705558,3.60609623423922,2.8693290042838857,2.189440954064801,1.6249661399820088,1.1075401205392075,0.7525403053366129,0.46677527209626096,0.3314068773549498,0.1938847433386895,0.153733864961044
0.0,41.0,41.0,0.0,120.0,0.0,0.0,0.0,0.0,-107.0,0.0,-45.0,0.0,0.0,0.0,34.27253218749016,17.55503396713325,5.296482013528155,4.043630049792391,3.431253723586537,2.817717889686655,2.268209250911986,1.7961980611299653,1.2714746939349764,0.8494029145735008,0.5521450939564296,0.35321266701438464,0.23033894806694966,0.11118824857290652,0.04214050855639087,0.09248869934675549,0.0320301175269668,7.515776000310408,6.212543331864827,5.623065988134811,5.008231777448365,4.319339552402102,3.6426188748067356,2.9024423982725285,2.2006126308996534,1.6314563377743418,1.10392911272564,0.7629715168757305,0.45690697142581826,0.33559354384822565,0.22119846156709302,0.14453456548105775
0.0,42.0,42.0,0.0,120.0,0.0,0.0,0.0,0.0,-107.0,0.0,-45.0,0.0,0.0,0.0,34.27253218749016,17.55503396713325,5.312605538110519,3.985344656773982,3.5165200686576106,2.867986184872693,2.310152802272392,1.7864658665418687,1.2107407142312456,0.8386638656034678,0.6030303439106066,0.3705927294391574,0.21583688990256425,0.06703319565433039,0.01899670327877446,0.10333518133501339,0.04606487295037999,7.540937931141913,6.265133856997161,5.679249488404688,5.028795244048212,4.364713935873365,3.66620996775369,2.886725801978457,2.2303801026238843,1.6121408645671689,1.1470738728034315,0.7533199139106042,0.49998839728778877,0.3081047504262364,0.2336335786152893,0.16394315501843237
0.0,43.0,43.0,0.0,120.0,0.0,0.0,0.0,0.0,-107.0,0.0,-45.0,0.0,0.0,0.0,34.27253218749016,17.55503396713325,5.397125984535801,4.008441240403615,3.494432094983438,2.909657486810127,2.3884883252471094,1.7919895805632269,1.338910418002668,0.8816420646693154,0.5982820515533803,0.3400143954021753,0.18149854641275662,0.1253069073885405,0.08464276114537744,0.06476635720502762,0.025804074795772958,7.5142410405179385,6.236524780540034,5.666284918683008,5.127098092302799,4.475768673001951,3.6947409856811095,2.919043637671053,2.2638454210944388,1.625729345275082,1.1504608391668087,0.7439876667388681,0.48779611345804574,0.28761160187751794,0.17790639557076074,0.14426264615324463
0.0,44.0,44.0,0.0,120.0,0.0,0.0,0.0,0.0,-107.0,0.0,-45.0,0.0,0.0,0.0,34.27253218749016,17.55503396713325,5.3469146181118745,4.121964856362426,3.5312464623685353,2.9869136280375264,2.309089645529185,1.7797817769007567,1.3652979913731118,0.8699549007438273,0.5831968980797445,0.38764015439901073,0.27198638270344383,0.08796192507018963,0.09307127726161483,-0.03923392417450162,-0.040830629942816846,7.576961966125481,6.397329470604983,5.767412564097106,5.151924240836797,4.420821507864694,3.7149081489008715,2.942431222793555,2.2898446110983057,1.682627672834141,1.2222222074260898,0.7937622627330075,0.493814773205628,0.31438495917702824,0.18984464643077478,0.16053029501686322
0.0,45.0,45.0,0.0,120.0,0.0,0.0,0.0,0.0,-107.0,0.0,-45.0,0.0,0.0,0.0,34.27253218749016,17.55503396713325,5.460344672828037,4.108575063495728,3.5255755689336423,2.982114282135556,2.461072381628359,1.825704241944672,1.3509864676570635,0.8637574279380589,0.5967304433534399,0.3526925043552876,0.18902044904071258,0.15327996572613833,0.09189906428374478,-0.026974264375662096,-0.014570995839326886,7.657509878535706,6.428824828542036,5.837479312908655,5.228551385527887,4.531783895048925,3.7670118586427526,2.971202300200473,2.316348864659648,1.6737294670123328,1.186107996543427,0.7746733477108467,0.48585170218931834,0.3286229799981413,0.21472438289112014,0.11538185557459955
0.0,46.0,46.0,0.0,120.0,0.0,0.0,0.0,0.0,-107.0,0.0,-45.0,0.0,0.0,0.0,34.27253218749016,17.55503396713325,5.510899162671756,4.276809097315473,3.5638898397115413,3.033588024736911,2.3409888007026387,1.8379945157719977,1.29040201980854,0.9082127515359764,0.6236706086740655,0.380890285455304,0.22433019472088228,0.13144799093403006,-0.02951345106601474,0.017836370512641548,-0.038819683804264885,7.684977256012034,6.4681577263843435,5.879794039328685,5.231958217430663,4.54140153988905,3.763654262365111,2.9867083680098383,2.340650397993387,1.713362978860705,1.2319876845969704,0.7949435738850487,0.4634413192411345,0.2990831190792132,0.21442422403054892,0.13893968423441533
0.0,47.0,47.0,0.0,120.0,0.0,0.0,0.0,0.0,-107.0,0.0,-45.0,0.0,0.0,0.0,34.27253218749016,17.55503396713325,5.580354115936903,4.2096290864479595,3.6486584152459933,3.0952434527736155,2.5151641682642514,1.9009372492872763,1.3426870127716977,0.9571358256160478,0.611110995079737,0.4077781900312213,0.15671621234380276,0.11425801463366698,0.08761135029321983,0.04505594623467041,0.09794728513053527,7.743678588346646,6.545001792042647,5.939915431105691,5.295521041311081,4.597115944545154,3.82527543468803,3.0422955404725807,2.3369950361622607,1.694789620937214,1.1790094563585594,0.7897235563721886,0.5044626273565085,0.31427623247235925,0.20515108350860936,0.14033577536307756
0.0,48.0,48.0,0.0,120.0,0.0,0.0,0.0,0.0,-107.0,0.0,-45.0,0.0,0.0,0.0,34.27253218749016,17.55503396713325,5.63878611101796,4.300718095824581,3.739281521847699,3.1840690991157983,2.5052605160970134,1.9151558047201618,1.388004155156393,0.9077915892730357,0.5943876907714889,0.33853060154007103,0.2114280875508368,0.15088633420958963,0.06923505411103588,0.030881608600609636,0.015295741578497146,7.809251586489137,6.558769595704099,5.978973869075383,5.3567805535060495,4.567721751759458,3.8209485150463447,3.1177525597358637,2.35154815208217,1.7290004691868734,1.2110143158118611,0.7905497157511312,0.5170938435630382,0.30585576769717604,0.17240830900444684,0.09968653505118058
0.0,49.0,49.0,0.0,120.0,0.0,0.0,0.0,0.0,-107.0,0.0,-45.0,0.0,0.0,0.0,34.27253218749016,17.55503396713325,5.718229965414492,4.278232354469964,3.7270948849895573,3.1780599244051655,2.594863021769398,1.9822418342607337,1.3983490668991139,0.9065891527343067,0.5874013020510241,0.36101243003908506,0.20477115220448783,0.08465494775505018,0.07915597528155309,0.03988583509848196,0.0040695767100170175,7.8379317882629165,6.604488471292306,6.023224991681306,5.387128314177564,4.655276677904845,3.8621287685891166,3.1227699168662664,2.344618018994718,1.7319782883016261,1.247531529287804,0.8143346731148927,0.5072015241577812,0.2457379456935927,0.16909855648191632,0.15577081544188887
0.0,50.0,50.0,0.0,120.0,0.0,0.0,0.0,0.0,-107.0,0.0,-45.0,0.0,0.0,0.0,34.27253218749016,17.55503396713325,5.693486939829656,4.376566150380533,3.8100039722111396,3.2083970586031976,2.551047343745968,1.9222310516342498,1.445557914547746,0.9769725082948753,0.6161130618616492,0.3425055981545994,0.16391665056798127,0.14047928791808592,0.14248159790920453,0.009114164263709968,0.031090175920840877,7.903447303794614,6.730471645937675,6.074916041568243,5.408013227678638,4.691846725880442,3.9099598618490017,3.0975941039423964,2.367167554658677,1.7686659715790711,1.232706822245059,0.8072325696683902,0.47986247537485044,0.29045344318459937,0.1575041933811008,0.13895082020888264
0.0,51.0,51.0,0.0,120.0,0.0,0.0,0.0,0.0,-107.0,0.0,-45.0,0.0,0.0,0.0,34.27253218749016,17.55503396713325,5.837554351983085,4.464949175864139,3.862124183519299,3.2484319973280056,2.628281694684915,1.957753750644467,1.4378816691003473,0.9227570743766652,0.6107356497619569,0.39508889195773267,0.2526462495793154,0.16705051801566823,0.059230166821372866,0.03297978372487145,-0.03142847749239061,7.902685680775426,6.783708164012472,6.11423638255189,5.506104071723726,4.712000419665151,3.9208206989076237,3.206501234314423,2.4093158345371664,1.751929436697918,1.1953885390233154,0.8126704250568003,0.5645625309316848,0.2887489726192766,0.1660291551111206,0.11102006079290361
0.0,52.0,52.0,0.0,120.0,0.0,0.0,0.0,0.0,-107.0,0.0,-45.0,0.0,0.0,0.0,34.27253218749016,17.55503396713325,5.907931134426818,4.569949661179384,3.8662438922611218,3.2024851040910964,2.6084250735467,1.9974271407520512,1.4045153761337472,0.9396223437684237,0.6203184552977344,0.3542423666572458,0.20009418769946652,0.10819841262616313,0.0888788442308588,0.027028022878355963,-0.006931192285570823,7.950372213031612,6.825026413774323,6.21275664701436,5.545990889960668,4.710184700330908,4.0073969252305535,3.1758139817698243,2.407794798535446,1.7790620375085326,1.2446380168379068,0.8510038843398084,0.5273717759108927,0.2942248553860697,0.19101835023636943,0.11588627794986324
0.0,53.0,53.0,0.0,120.0,0.0,0.0,0.0,0.0,-107.0,0.0,-45.0,0.0,0.0,0.0,34.27253218749016,17.55503396713325,5.852935335897628,4.6036357032907205,3.9526216182875213,3.3198206994914163,2.68051407256028,1.9668904006816441,1.448739620420518,0.9843915205376541,0.6578199180382166,0.4257533589090859,0.2553135076223141,0.07436762546880164,0.03161702006341916,0.06535089160302929,0.0034483790113011403,8.065291888610602,6.8449717617818076,6.223419345215675,5.578537773893658,4.838529122011708,4.027835725741183,3.1913236453278038,2.4079508368275104,1.7886685937607734,1.2263127391851205,0.8556330009187361,0.4780840019760571,0.292834525018382,0.19430401873428388,0.1258452847452531
0.0,54.0,54.0,0.0,120.0,0.0,0.0,0.0,0.0,-107.0,0.0,-45.0,0.0,0.0,0.0,34.27253218749016,17.55503396713325,6.043059080122566,4.598967360186168,4.021183269507849,3.43159599671235,2.6875445824710114,2.104871724558993,1.4660410321317523,0.9761379759992097,0.6173545778275542,0.37735403791933575,0.22974828020493515,0.09363256267719058,0.08070374861749091,0.014917835593600833,0.01701033952157798,8.088717361144601,6.9465101862362575,6.333416925237448,5.630178685982896,4.892819131033479,4.028045130903216,3.208044242011644,2.4315199117246418,1.7936212004851566,1.299882041203675,0.8176588117075106,0.47143312419375655,0.29431909779041593,0.16962326604549824,0.10583123325040346
0.0,55.0,55.0,0.0,120.0,0.0,0.0,0.0,0.0,-107.0,0.0,-45.0,0.0,0.0,0.0,34.27253218749016,17.55503396713325,6.065609447288704,4.706147561030693,4.054554985694758,3.3869581515506564,2.6735378407099595,2.017153912444108,1.4527064764672064,1.003519832558541,0.5633471284166978,0.3979890730718463,0.28778333663193967,0.17879040788640174,0.05888965910769274,0.0998548287340727,0.01229950640743845,8.167081423485948,7.024439567984327,6.337420799289126,5.617647760003365,4.937536401703933,4.042614554277535,3.2834549328835543,2.4601036410759516,1.8557851219401995,1.2671164547441511,0.8351066890175074,0.512626042887069,0.2954638373564603,0.15028592502544144,0.10344672190695
0.0,56.0,56.0,0.0,120.0,0.0,0.0,0.0,0.0,-107.0,0.0,-45.0,0.0,0.0,0.0,34.27253218749016,17.55503396713325,6.039097270540414,4.750092354709802,4.107855127264556,3.496675218767186,2.753841629557581,1.9811084568659134,1.441111882244984,1.0302478263673585,0.6354947380624771,0.39413015014068603,0.18170439687893172,0.1862183320586469,0.08004002625355734,0.1259317612951703,0.01846073533706206,8.23007896024685,7.038974683795452,6.377451135178545,5.764281779060722,4.991927706085093,4.082336499229205,3.3074156952451084,2.5042159140846323,1.841361415513375,1.2584766664898315,0.8200241946929334,0.5336691266789305,0.30477461341094536,0.19239292256339832,0.10894954481134801
0.0,57.0,57.0,0.0,120.0,0.0,0.0,0.0,0.0,-107.0,0.0,-45.0,0.0,0.0,0.0,34.27253218749016,17.55503396713325,6.183498796424259,4.900366858748945,4.105953343372478,3.441969191707162,2.7900922143282907,2.124220203009008,1.4373291121529008,1.0233781585788961,0.6992148019728479,0.4752217824257907,0.22271011915460065,0.1479964294985953,0.08105382959605423,-0.02106739932297903,0.06850552105669738,8.241161493395825,7.1348558514158515,6.481515099303833,5.7531071712873345,5.0334378821432955,4.180044588709905,3.2762766787113553,2.485695862270089,1.86624837477966,1.2656401301212465,0.8180011885092517,0.5711841315404452,0.3211131011642725,0.190714705669761,0.11982963438749829
0.0,58.0,58.0,0.0,120.0,0.0,0.0,0.0,0.0,-107.0,0.0,-45.0,0.0,0.0,0.0,34.27253218749016,17.55503396713325,6.236492075685876,4.99609796452029,4.267059552854191,3.614239880721566,2.8643683975380707,2.1661614089289167,1.4723044539173586,1.035311426778824,0.7012137428037933,0.38626031582605397,0.2588689733532732,0.1575976931164632,0.013004015980884638,0.004166331970403496,-0.009481479452487344,8.328913691386775,7.177432113177423,6.499713673606518,5.81909779477903,5.031889228753826,4.212899972549388,3.3102562152038124,2.542667961660083,1.8891590222950179,1.3096509876161486,0.878950313761196,0.5238296324770201,0.33457259881633944,0.15091371407212617,0.16018071507153114
0.0,59.0,59.0,0.0,120.0,0.0,0.0,0.0,0.0,-107.0,0.0,-45.0,0.0,0.0,0.0,34.27253218749016,17.55503396713325,6.312821720797692,5.031843765293344,4.243296587325708,3.6346046871915743,2.908658726070631,2.075130695998531,1.5631963316785227,1.0167942075740926,0.6236485056983864,0.41762805889538707,0.25556900604925287,0.08187416283569293,0.11428728604219168,0.03257618134066417,0.0054222944113499205,8.435611368802013,7.271122332677789,6.560108305106971,5.942022022253438,5.084565326199717,4.191702173036522,3.3824321815262466,2.5577373766147913,1.8802540418184361,1.295831779641411,0.8340019164533761,0.5784824946016803,0.3409912612605283,0.17114036964687646,0.1149452001907636
0.0,60.0,60.0,0.0,120.0,0.0,0.0,0.0,0.0,-107.0,0.0,-45.0,0.0,0.0,0.0,34.27253218749016,17.55503396713325,6.43830688738188,5.073025905351416,4.40249223440924,3.6447005980847296,2.8705210339631275,2.1928396223958937,1.5146639699025823,1.0908934992618304,0.6527186526398898,0.3730283709428632,0.2595701564718949,0.11937283351416038,0.04403302435220019,0.018704893933584453,0.04740916906930491,8.504204912128564,7.345632627551117,6.613510313815451,5.960569985842526,5.131552928117238,4.248174307121571,3.3871285907565283,2.5310702157098413,1.9065019916509576,1.3333559568833553,0.8717323470335339,0.5299830121125905,0.3229318017328492,0.17804752305958688,0.13401330071976178
0.0,61.0,61.0,0.0,120.0,0.0,0.0,0.0,0.0,-107.0,0.0,-45.0,0.0,0.0,0.0,34.27253218749016,17.55503396713325,6.5625339139405545,5.124696978777298,4.376953250862162,3.676741912483044,2.925600367618151,2.218556480596923,1.5338867430340462,1.0526325560082337,0.6851231035783931,0.4046192038236989,0.2212980361239622,0.06016023909301067,0.09358514911187105,-0.06501886668143828,-0.009684973538951284,8.529278931357233,7.394756690057543,6.7140699839562235,5.99868805879768,5.202366547153041,4.289669311558992,3.3904193184475884,2.5820597461890253,1.8959843429367476,1.3248195190654788,0.8756244100381642,0.5814137300741336,0.3362678807535108,0.15989253100969208,0.09093152744360619
0.0,62.0,62.0,0.0,120.0,0.0,0.0,0.0,0.0,-107.0,0.0,-45.0,0.0,0.0,0.0,34.27253218749016,17.55503396713325,6.641733066715576,5.257928074027958,4.449431808509013,3.7630229246430043,2.9325015328332404,2.2460285753607674,1.5901417220083804,1.1351862907942096,0.694519206926596,0.41193299532203015,0.2889830066583882,0.10580681260632593,0.0863437100423453,0.007145317826112083,0.032209087499524176,8.608385253861476,7.456850626325187,6.7463926518752855,6.008779030403283,5.234890486706247,4.328036738254127,3.4360621030698564,2.6049600534935835,1.9202510884982285,1.3408784089663075,0.8657326797610192,0.5337384205237183,0.2983256621488747,0.18755627463947658,0.13010829942691576
0.0,63.0,63.0,0.0,120.0,0.0,0.0,0.0,0.0,-107.0,0.0,-45.0,0.0,0.0,0.0,34.27253218749016,17.55503396713325,6.7168226090128345,5.325618929235682,4.558560137658569,3.788298452625032,3.045460919717981,2.2693872172172496,1.6046549223604867,1.101578373213715,0.7015731641160697,0.3799058199833738,0.2769855685736415,0.08974837853860734,0.040982935359707096,0.03895915228109349,0.019802107293982164,8.614221337408159,7.505068257749503,6.830538680194924,6.102570289449104,5.183603369814554,4.348292792767144,3.4673461733846955,2.619235088711157,1.9171897930025537,1.3837348404352798,0.888256280816946,0.5765976349421847,0.323640431367411,0.19090618983424157,0.08956453924918395
0.0,64.0,64.0,0.0,120.0,0.0,0.0,0.0,0.0,-107.0,0.0,-45.0,0.0,0.0,0.0,34.27253218749016,17.55503396713325,6.748103022118331,5.397848759361645,4.526276652902646,3.781885393543907,3.075565286350471,2.2075833261801137,1.6162017192763345,1.0621125264183697,0.7115010151441851,0.46643136239949234,0.2491090362639218,0.06649063140635314,0.04470739803077746,0.0468167424707893,0.0022834029082078565,8.715550834777439,7.604051175004679,6.881438043266331,6.144841177079569,5.333443302118696,4.442056605334505,3.5081667473041964,2.6390853937058067,1.9500744705051134,1.332667938051468,0.900564977317987,0.5508679020401566,0.3174384822273691,0.167617920525501,0.12018461143609023
0.0,65.0,65.0,0.0,120.0,0.0,0.0,0.0,0.0,-107.0,0.0,-45.0,0.0,0.0,0.0,34.27253218749016,17.55503396713325,6.8317605904241665,5.425411468671518,4.628140457309044,3.876485275687465,3.1226025995536575,2.379959506460639,1.636146212805858,1.1326456083974596,0.6769393391503497,0.4532533352381874,0.16920304466046945,0.0747517703289523,0.022729488945139875,-0.04715644849125895,0.010343506019875187,8.83551416182163,7.647376599978186,6.986958526731953,6.2865881122443,5.359356059240807,4.414117867396677,3.5029793258314266,2.6583723311253675,1.9938395350984615,1.3408224045377224,0.9280612691300509,0.547728727667849,0.3516523152440994,0.21361614807460533,0.09929324938871822
0.0,66.0,66.0,0.0,120.0,0.0,0.0,0.0,0.0,-107.0,0.0,-45.0,0.0,0.0,0.0,34.27253218749016,17.55503396713325,6.950747529835116,5.500534490454012,4.703349894215724,3.958504056366219,3.061434871721299,2.3532411559389064,1.6798863014878633,1.149116051797374,0.7321142627113534,0.47252133931273244,0.1516999587004307,0.14868737990225916,0.10952491600958775,0.047915104297808986,0.03546042185635115,8.927787366565507,7.635392700555697,7.043578737437815,6.261828743722843,5.373659391345413,4.4895881527781185,3.5750778234660956,2.722219679172414,2.004190608126884,1.341694701177128,0.8833451371955743,0.517574892306915,0.31944833770170883,0.17444177358519997,0.10043378950289486
0.0,67.0,67.0,0.0,120.0,0.0,0.0,0.0,0.0,-107.0,0.0,-45.0,0.0,0.0,0.0,34.27253218749016,17.55503396713325,7.115967922327371,5.601063981332766,4.685812694950497,3.957601578779384,3.1411332785820543,2.3654322592911075,1.6503388253894078,1.146308012575515,0.8007504453660756,0.4812892683298952,0.21373918116058305,0.19238155922861028,0.0902697593939722,0.0015629985739830272,0.031082473248013952,8.99858913093432,7.721853454998978,7.072285215494706,6.342880879582737,5.474539260546138,4.554365206365268,3.596485427578068,2.69861709019736,1.9783593149014522,1.3732317336001452,0.8551382525764799,0.6210364858365245,0.3396026784314641,0.23418426111839383,0.09632810155034904
0.0,68.0,68.0,0.0,120.0,0.0,0.0,0.0,0.0,-107.0,0.0,-45.0,0.0,0.0,0.0,34.27253218749016,17.55503396713325,7.2187935546641055,5.679826247382585,4.854237352970668,4.11941929283393,3.2145145090059075,2.3905313132888537,1.7195363630763973,1.2040720885255611,0.7244301396391262,0.40227381715638916,0.19345550685985,0.13056754701844073,0.08388386975106651,-0.04504987072885763,0.009262438770836937,9.045679506162568,7.874284985481989,7.133556657425697,6.3999061111002815,5.490933043511916,4.595289991473299,3.624064909621739,2.751033097688675,1.992608983568907,1.3776785014811066,0.9307039655513366,0.5876905547306309,0.3563554656912101,0.23471822555315064,0.0969348522035994
0.0,69.0,69.0,0.0,120.0,0.0,0.0,0.0,0.0,-107.0,0.0,-45.0,0.0,0.0,0.0,34.27253218749016,17.55503396713325,7.282084710694896,5.739820740847023,4.797746182597853,4.079479495150703,3.2535704272047536,2.4190511968210533,1.7141702043324336,1.1916470763186953,0.8079249847833774,0.46586446814239546,0.2910022552545719,0.14836861965026768,0.02996326760575431,0.04163081484947815,-0.01584429774386608,9.129182785794548,7.895289086400206,7.166186260742643,6.454276731171332,5.5877176193507925,4.639020813718116,3.6462867173989637,2.752637041577956,1.992200635565022,1.4035293464368939,0.929324018757736,0.5692490149985803,0.34074608584715854,0.18966511200727432,0.12487019845777637
0.0,70.0,70.0,0.0,120.0,0.0,0.0,0.0,0.0,-107.0,0.0,-45.0,0.0,0.0,0.0,34.27253218749016,17.55503396713325,7.42416805439863,5.825904244498985,4.940198133986421,4.148059473585062,3.2864678201455333,2.494269623254118,1.849776689414099,1.1756128663966532,0.7050904458032002,0.4140509271483749,0.2748758145618695,0.08522605267099145,0.030776994351506756,-0.03380450785926123,0.012503906911532758,9.20712684686489,8.046852243111225,7.2786898780963005,6.525345969984394,5.548145540170394,4.609627180939428,3.7089082766511017,2.785875995519552,2.0164112296336567,1.4204660792773984,0.9388051893944757,0.5848742169623072,0.3219586894783646,0.19129735628609792,0.05278790642415538
0.0,71.0,71.0,0.0,120.0,0.0,0.0,0.0,0.0,-107.0,0.0,-45.0,0.0,0.0,0.0,34.27253218749016,17.55503396713325,7.517992976549185,5.951289072300359,5.068056969880261,4.1795065649381025,3.3128104111526637,2.4856007762300143,1.7404598063119903,1.1080509259418567,0.7696204433040109,0.4392448440226548,0.2373063370356874,0.19981838750554737,0.00532293778161249,0.030516622361678125,0.021976220822681244,9.199457586042323,8.04854614746156,7.325711085539728,6.5279980541399665,5.663095390294418,4.694709126904006,3.7182474335992493,2.7771824442496804,2.0640121627440298,1.4330092168631228,0.9294710721017961,0.5742716623171196,0.3562174574825265,0.1777332507089513,0.08964932531923483
0.0,72.0,72.0,0.0,120.0,0.0,0.0,0.0,0.0,-107.0,0.0,-45.0,0.0,0.0,0.0,34.27253218749016,17.55503396713325,7.631256209581156,5.923594899426254,5.135006026539491,4.220988785392227,3.4007878500634354,2.4666316692210555,1.7568703507835435,1.1836135860920183,0.7298841728879144,0.46714887813188555,0.2668177347815878,0.1384354813959867,0.09327928910570715,0.05821175758222495,-0.012531352411209977,9.405917994604275,8.112250785916865,7.370112068667818,6.601113954981452,5.686151647078924,4.718360269409771,3.731723424877766,2.841488051146731,2.061371637247376,1.4002681564349664,0.9213285217406116,0.5690578476325212,0.3198329070406603,0.18094998646775315,0.10579793226192488
0.0,73.0,73.0,0.0,120.0,0.0,0.0,0.0,0.0,-107.0,0.0,-45.0,0.0,0.0,0.0,34.27253218749016,17.55503396713325,7.704842280185553,5.989551237328834,5.128779093373085,4.300108496627011,3.4150454875225584,2.4894588009626712,1.8484887949094546,1.2376209174368755,0.7583781134268273,0.4155287566233524,0.2796962691339082,0.11298069738485442,0.08861120323593401,-0.044325380737196225,0.0063595962180006405,9.450887934062404,8.18391526961274,7.48642612794973,6.666804824534563,5.7239526801776135,4.807540970137524,3.7717518877214102,2.8456998169042467,2.0991595493236583,1.4426088116139584,0.933692040335285,0.5644124627848007,0.36086239152197813,0.2071029051582765,0.07121169148243173
0.0,74.0,74.0,0.0,120.0,0.0,0.0,0.0,0.0,-107.0,0.0,-45.0,0.0,0.0,0.0,34.27253218749016,17.55503396713325,7.821216630946217,6.165919924265649,5.304122455024007,4.428707940729988,3.4523321239744633,2.5172990210200843,1.8600229538935231,1.2092962532828866,0.7608408744596471,0.438072414727009,0.26256193186765825,0.09640634970773153,0.16127404357400685,-0.011944346924907416,0.026116506455739822,9.56881683467745,8.362093698156436,7.614231659127891,6.751939281680791,5.8482006578097625,4.826412776793003,3.809292707415149,2.857459806318842,2.0683616944593655,1.4431325126403445,0.933892778235618,0.5865174377762371,0.3363190452716431,0.18895927218476063,0.15052470666335915
0.0,75.0,75.0,0.0,120.0,0.0,0.0,0.0,0.0,-107.0,0.0,-45.0,0.0,0.0,0.0,34.27253218749016,17.55503396713325,7.918366729386145,6.29634841580978,5.350697040116257,4.466585655467452,3.5799007408818486,2.624532084748092,1.8513612126744308,1.2135704836391612,0.7820121523148184,0.3820222798558125,0.27316421502219906,0.21627049804911563,0.09680294702380768,0.01595438319459512,0.06274107325996699,9.580310285247553,8.36959699248167,7.653205137457609,6.799905587616626,5.853202308809691,4.856674106488907,3.8204140762730496,2.8386834034846817,2.1226852746624387,1.4300822791678833,0.966302376997559,0.5786392117800211,0.33744416932176163,0.15418212966547346,0.06995591647278279
0.0,76.0,76.0,0.0,120.0,0.0,0.0,0.0,0.0,-107.0,0.0,-45.0,0.0,0.0,0.0,34.27253218749016,17.55503396713325,8.064411549456237,6.363317457074698,5.404128284139771,4.54041229402809,3.5534134068916954,2.7190030796899127,1.8333563391687884,1.234567891275588,0.7742898902296018,0.4761980083794298,0.20950602595627682,0.10069694387468309,0.03625353556816938,0.021410543391927776,0.010939057462052261,9.72135802394092,8.466796572621512,7.713803437362575,6.842760674644531,5.902786693099489,4.889482897454128,3.866081491230236,2.8928588443416303,2.121019088569795,1.453562525058384,0.9501304770815915,0.6198318021219256,0.3411341561582378,0.18673407063167713,0.03261166253498468
0.0,77.0,77.0,0.0,120.0,0.0,0.0,0.0,0.0,-107.0,0.0,-45.0,0.0,0.0,0.0,34.27253218749016,17.55503396713325,8.13221545107454,6.487246654535416,5.454936494172769,4.586972525564802,3.633544634942059,2.7279408679676767,1.8817601883452417,1.1917867112149498,0.7573535818496031,0.46769147662426785,0.2731193837403663,0.1414090275754096,0.016075669575792366,0.06496142347118375,0.004095321588248137,9.736521165973503,8.505787610624061,7.730759707384931,6.957465094115856,6.005519017228098,4.967898344870458,3.8505423451891208,2.939913090434217,2.1463496354054032,1.4675486405605362,0.9422543716094669,0.5829673384269161,0.33929100674284646,0.1803522539222753,0.10223752599200976
0.0,78.0,78.0,0.0,120.0,0.0,0.0,0.0,0.0,-107.0,0.0,-45.0,0.0,0.0,0.0,34.27253218749016,17.55503396713325,8.300905195297656,6.543606766211055,5.5898976554011925,4.609961859652749,3.6298612008476283,2.69955686359492,1.9253893013388408,1.2898135172053207,0.7566664275793478,0.4814615354191768,0.2639387164538642,0.12216593594650774,0.06890324335121632,0.025978115077686215,0.004762918721939907,9.834830084270859,8.614883971618704,7.797035828266456,6.990265388929987,5.991512810631685,4.994861796150313,3.9396093587129895,3.008748986720815,2.102455451504486,1.4856714914105376,0.9817708479399703,0.6214626263659987,0.369418579397122,0.18041977096289197,0.11390590751947308
