Line_number,Fiducial,Easting,Northing,Height,Elevation,tx_pitch,tx_roll,tx_yaw,txrx_dx,txrx_dy,txrx_dz,rx_pitch,rx_roll,rx_yaw,PX,PZ,S0X_time_1.086e-05,S0X_time_3.256e-05,S0X_time_5.426e-05,S0X_time_8.680e-05,S0X_time_1.411e-04,S0X_time_2.279e-04,S0X_time_3.689e-04,S0X_time_5.860e-04,S0X_time_9.115e-04,S0X_time_1.411e-03,S0X_time_2.192e-03,S0X_time_3.418e-03,S0X_time_5.339e-03,S0X_time_8.301e-03,S0X_time_1.338e-02,S0Z_time_1.086e-05,S0Z_time_3.256e-05,S0Z_time_5.426e-05,S0Z_time_8.680e-05,S0Z_time_1.411e-04,S0Z_time_2.279e-04,S0Z_time_3.689e-04,S0Z_time_5.860e-04,S0Z_time_9.115e-04,S0Z_time_1.411e-03,S0Z_time_2.192e-03,S0Z_time_3.418e-03,S0Z_time_5.339e-03,S0Z_time_8.301e-03,S0Z_time_1.338e-02
0.0,0.0,0.0,0.0,120.0,0.0,0.0,0.0,0.0,-107.0,0.0,-45.0,0.0,0.0,0.0,34.27253218749016,17.55503396713325,4.485863117850318,2.569641045846575,2.098517030462146,1.8235035357957157,1.5501252141071025,1.3519761175135194,1.2160939158572972,1.0702337700250972,0.9865868222910362,0.8559983603730525,0.6535820322325062,0.5130082796343365,0.2671901269033388,0.20870394196288347,0.2417592145105198,6.528497632388784,4.446416672257014,3.798915552773933,3.422228004199276,3.09330199451854,2.8084699867040253,2.5624239602202104,2.3539163579282123,2.1028269637956023,1.8671639440028958,1.5674883984176138,1.2793618270107323,1.0214228257982811,0.7746711367027809,0.5611471299653329
0.0,1.0,1.0,0.0,120.0,0.0,0.0,0.0,0.0,-107.0,0.0,-45.0,0.0,0.0,0.0,34.27253218749016,17.55503396713325,4.479105984135407,2.560768149225618,2.121841141662173,1.795421340900961,1.4049630565600464,1.3107683761949174,1.1127543652080751,0.9631240348388622,0.8096356135318783,0.7132763669177801,0.5582340754086268,0.43943448665165846,0.3119371134041523,0.24080045940701048,0.11674076663971739,6.448837819485329,4.475859848302056,3.9073866511506923,3.427962443910337,3.0372021565017797,2.7459032372304315,2.446687687020137,2.2191163740831503,1.9771558561642437,1.7896031222147153,1.4930316166187865,1.2298194188569536,0.9746437578347577,0.7678244430959086,0.5369361065888705
0.0,2.0,2.0,0.0,120.0,0.0,0.0,0.0,0.0,-107.0,0.0,-45.0,0.0,0.0,0.0,34.27253218749016,17.55503396713325,4.440641837192309,2.4748229176512813,2.1048978367805122,1.7645475424590396,1.4541428803168255,1.1960223909981371,1.0473382037969237,0.8541207354814401,0.8026153150134125,0.6394227356374979,0.5170938098963579,0.35985628690427224,0.17370857955797445,0.21006377742352855,0.12255591669627648,6.564503538708258,4.576326899059075,3.9495190725838385,3.5027883386932515,3.0027687644614725,2.6736630170808993,2.339773692156685,2.069222536812713,1.8790341432449358,1.6642300637339216,1.4075440660781873,1.1618056988766838,0.941609453905,0.6994292668969142,0.48191669769299367
0.0,3.0,3.0,0.0,120.0,0.0,0.0,0.0,0.0,-107.0,0.0,-45.0,0.0,0.0,0.0,34.27253218749016,17.55503396713325,4.530292955934002,2.611983069818681,2.116228934576746,1.7801511466942217,1.495146602196841,1.234357889432134,0.9829606977080328,0.8449480102725406,0.7133730815068254,0.6169112766786994,0.4387125815454502,0.4330876409934105,0.271588643379236,0.18653442420918245,0.09032387149839444,6.533992639179719,4.612112308847748,4.005587851021276,3.5003565596799775,3.0261936009070385,2.5681121580489124,2.2282416823508964,1.9826130718409936,1.793539171286298,1.5558143287598236,1.3350594893523222,1.119521206479158,0.8518766446522283,0.7228223379351019,0.4690011411534527
0.0,4.0,4.0,0.0,120.0,0.0,0.0,0.0,0.0,-107.0,0.0,-45.0,0.0,0.0,0.0,34.27253218749016,17.55503396713325,4.501344724490229,2.6150119787914217,2.171678726085306,1.838810321868686,1.4318543670445716,1.1655223927146596,0.8859020632561421,0.8336765177393584,0.6430646272634852,0.5157875120491678,0.4744359498860711,0.3690918634406724,0.21981441704307525,0.23519560013498222,0.11772122990155799,6.585363216804702,4.645999053011502,4.021163336500327,3.5312503050086126,3.015299103454039,2.559451938313845,2.1899476151271537,1.9237793245104124,1.7114229143591007,1.484252847736019,1.2607983133946674,1.0594561258307946,0.8441266541224416,0.6189775502943963,0.48669720824978835
0.0,5.0,5.0,0.0,120.0,0.0,0.0,0.0,0.0,-107.0,0.0,-45.0,0.0,0.0,0.0,34.27253218749016,17.55503396713325,4.462538805106562,2.6284378942232114,2.1742109868815978,1.8343835122135892,1.435300359498613,1.1813337465581055,0.9596286302618144,0.715418187135692,0.6227675859451333,0.5642365254564586,0.42616604914791,0.35502575480087695,0.30668570334150236,0.16849717742057543,0.1484065259297082,6.597609458367966,4.687622670155314,4.054996331433985,3.534725701452879,3.0277518327004143,2.532323112249955,2.1626062121919944,1.8605622654008909,1.5692040008218122,1.4257573047704508,1.1956474003275486,1.0034047099783465,0.8244926167987505,0.6319944911427283,0.46609845005457573
0.0,6.0,6.0,0.0,120.0,0.0,0.0,0.0,0.0,-107.0,0.0,-45.0,0.0,0.0,0.0,34.27253218749016,17.55503396713325,4.49882925451328,2.7239211960888188,2.1907017218119043,1.8438031123452836,1.514773961784913,1.089895954712721,0.9432428677369256,0.7630946438392424,0.6589243195240665,0.4804482168274265,0.44834687341283647,0.33898931358329004,0.23291754493600744,0.2038601892108029,0.07773367012953736,6.638912943890545,4.701517487504104,4.082090579746006,3.5917357600552533,3.107628569856457,2.5605209649684086,2.0806065287159243,1.8117741260043718,1.5716879683297673,1.3511587822098594,1.1665458806714926,0.9244049726105348,0.7606554908367879,0.5649227190487182,0.45819380038040963
0.0,7.0,7.0,0.0,120.0,0.0,0.0,0.0,0.0,-107.0,0.0,-45.0,0.0,0.0,0.0,34.27253218749016,17.55503396713325,4.536644147961841,2.6652600821229804,2.2260242991562396,1.8598156327638236,1.5611726188719772,1.1689243726760798,0.9188398978631123,0.6530629990809733,0.6565672535409617,0.43261146330975114,0.3000554605831817,0.3225654670901062,0.21992522307631787,0.14449856175996031,0.13246892560886767,6.652762185690332,4.764800706837221,4.112627416785227,3.6042172119812093,3.1430685706140893,2.6013979095513204,2.097722711426995,1.7752949033012795,1.5218198903622318,1.313540957178114,1.096078715980782,0.9107189400304698,0.7190847462615707,0.5198614993461903,0.3991425158405624
0.0,8.0,8.0,0.0,120.0,0.0,0.0,0.0,0.0,-107.0,0.0,-45.0,0.0,0.0,0.0,34.27253218749016,17.55503396713325,4.535162928889014,2.7965078727740513,2.2732772033086714,1.9430978516929809,1.4623875017639851,1.1672079411982093,0.8592801043961805,0.7095269009336368,0.6017447107486749,0.4191337552281969,0.33677905563927774,0.24271984969900545,0.1880335541517551,0.1746129071741626,0.22472715268280458,6.712620460967996,4.77395721902609,4.181241147323206,3.678628304023369,3.1754691286791488,2.6426892089813534,2.124575866583961,1.7172846272553448,1.4597547879206094,1.2121382312724123,1.0338813675692216,0.8484111477218657,0.7163384502477063,0.49580093825327,0.41976019863602554
0.0,9.0,9.0,0.0,120.0,0.0,0.0,0.0,0.0,-107.0,0.0,-45.0,0.0,0.0,0.0,34.27253218749016,17.55503396713325,4.5574888045474635,2.805094759729807,2.3254541919329723,1.9204255253181957,1.508507814402485,1.15638015533578,0.9105587914272579,0.6847267293345239,0.4708528209757424,0.3615701561726576,0.2692229507897017,0.33790843866530834,0.24197091974997081,0.13406676707138016,0.1072229788164136,6.680550258837144,4.7747785675076075,4.231811776428042,3.6770798520947494,3.169807531249956,2.636752529400619,2.1237174663062417,1.7006148419891862,1.3985300756416013,1.2055996697797684,1.0077838570420956,0.8087818577610568,0.6596540115289354,0.49550166562718073,0.3624228275831081
0.0,10.0,10.0,0.0,120.0,0.0,0.0,0.0,0.0,-107.0,0.0,-45.0,0.0,0.0,0.0,34.27253218749016,17.55503396713325,4.56748223493514,2.745956661826707,2.339549553747205,1.9482531337360502,1.5428222462177437,1.1461029981642308,0.8961957536346334,0.6727332575645983,0.5059491648091007,0.3808255813195346,0.3282002722527132,0.181433447588314,0.1865787293039004,0.1874893994178895,0.07274466305904144,6.690247448187691,4.8733575852456195,4.303909447344277,3.7682362768689712,3.2640668370944717,2.6618339259100856,2.0983713279975076,1.6912255060928203,1.3896203030093877,1.1804517374486299,0.9586696119869811,0.8013056592034352,0.623043474263646,0.5091828626691738,0.3529813112187078
0.0,11.0,11.0,0.0,120.0,0.0,0.0,0.0,0.0,-107.0,0.0,-45.0,0.0,0.0,0.0,34.27253218749016,17.55503396713325,4.62757244477696,2.817789750328189,2.314452781691507,2.0010784103076866,1.5853849266587907,1.235289583378552,0.9206917795127271,0.6435205858475291,0.4244745845406654,0.4276809042440053,0.29953498191802996,0.25068775920905995,0.1470776456406031,0.12242189854674293,0.03043037106997639,6.708564540924996,4.893253057839289,4.324250431272842,3.861322906911157,3.282252522210194,2.7017382269437626,2.1154787028815805,1.6812597480674005,1.3288750804376162,1.0997099056404607,0.9386744331795432,0.7801729225549481,0.5666735978478621,0.46107998106679615,0.3568620544755503
0.0,12.0,12.0,0.0,120.0,0.0,0.0,0.0,0.0,-107.0,0.0,-45.0,0.0,0.0,0.0,34.27253218749016,17.55503396713325,4.5880158312806545,2.9227294140745963,2.3911781445836144,2.00685728616348,1.6830443520399536,1.2413002029267528,0.9200628231457448,0.6713476613392921,0.4694817212954419,0.39819573930588503,0.2665884893246811,0.10628819111161472,0.15166780036480498,0.11616210968884064,0.07297048133326384,6.69424985478388,4.966331374463758,4.323702953756192,3.873512407123219,3.2874353196943575,2.7393482113982213,2.1834952905048857,1.7126298948825407,1.3226701810388095,1.07737824964966,0.9048590866141213,0.6945079053271861,0.5569017811278094,0.45194722052591274,0.33282342700870365
0.0,13.0,13.0,0.0,120.0,0.0,0.0,0.0,0.0,-107.0,0.0,-45.0,0.0,0.0,0.0,34.27253218749016,17.55503396713325,4.563659414855792,2.8477822704802778,2.4485362611465917,1.9939322206099976,1.5985434072978988,1.2585104797172533,0.8685125168540268,0.608941465821053,0.45207532365972436,0.3272307163108007,0.2571701844607667,0.1335573233397811,0.21864927071562051,0.00885824498694375,0.09108924114294026,6.755889099105913,4.976231633503615,4.390949110136565,3.893479249702614,3.327431783782976,2.788486380107462,2.1963314427447065,1.7099103147261907,1.3471061087476257,1.058444035323254,0.8809082919236962,0.6923988563616585,0.539687407038013,0.47664555687112936,0.3256281644305722
0.0,14.0,14.0,0.0,120.0,0.0,0.0,0.0,0.0,-107.0,0.0,-45.0,0.0,0.0,0.0,34.27253218749016,17.55503396713325,4.529766182111356,2.9244033592626946,2.4426938490148675,2.082077735276207,1.6985963224583775,1.3001987494128568,0.9452203062853647,0.653047127348635,0.46870759778420346,0.31235784922393584,0.28763133694932086,0.24394619645562501,0.17489674128444987,0.13078338535766149,0.06715735952560402,6.73136578172445,5.050929063486421,4.460983216484659,3.9224599222837515,3.4016925293469242,2.7582618862971815,2.2276149816688022,1.7362497408815538,1.3419533850066165,1.0629196687782991,0.8520968887201209,0.6648872461569258,0.5746245575068015,0.41491621845071786,0.3072206217003114
0.0,15.0,15.0,0.0,120.0,0.0,0.0,0.0,0.0,-107.0,0.0,-45.0,0.0,0.0,0.0,34.27253218749016,17.55503396713325,4.578089657156302,3.0153953054761797,2.4865685565329056,2.0888733466413028,1.6899398315483043,1.3414678730046876,0.8197664799947914,0.6676734544305141,0.45517846292028763,0.34451072825025003,0.2710763760555026,0.1915786502405362,0.12515057336186097,0.11132651961372556,0.11643951403923161,6.742097876798241,5.107888281768531,4.489934979346076,3.975596679480797,3.3703346974870967,2.8123534487357,2.208376773995962,1.719621579817118,1.3049572341313687,1.0090867006359276,0.8349558324879975,0.6655889922785695,0.48766981806652426,0.3905919218499918,0.28308475217905743
0.0,16.0,16.0,0.0,120.0,0.0,0.0,0.0,0.0,-107.0,0.0,-45.0,0.0,0.0,0.0,34.27253218749016,17.55503396713325,4.5991668173300075,2.9480845738347,2.5695878990582157,2.0782070963734447,1.6698719897295335,1.3094064735731237,0.9607965243373983,0.746854543463024,0.467750964892012,0.33735916175034725,0.19720298823160767,0.16657700690301636,0.16857212166074925,0.1378628171335528,0.0709953229860653,6.814045132925403,5.156644794563634,4.521237410598437,3.9982038740990045,3.4392326167837313,2.9165479499805143,2.2390321688442905,1.7002774621162693,1.3049394745111946,1.0212795351227293,0.7756373658213497,0.5906690247299081,0.45932159032926784,0.3920025626894975,0.3060408033159923
0.0,17.0,17.0,0.0,120.0,0.0,0.0,0.0,0.0,-107.0,0.0,-45.0,0.0,0.0,0.0,34.27253218749016,17.55503396713325,4.616612727401793,3.0124038043373775,2.465918457969915,2.166419239781691,1.6544231252478303,1.3813365257186807,0.9329234786109102,0.7428726736195279,0.46400994808219476,0.22744129264597934,0.2884556713719771,0.14654672574921662,0.12219808225749022,0.06349031225154156,0.1000248521398357,6.847497872051173,5.140908180221172,4.5490870237906265,4.090076517081275,3.537570361809019,2.9121792290254964,2.3332087329462605,1.7465603889239876,1.3424681744852862,0.9849438016094737,0.759226925323673,0.6065418437296748,0.4705020700117464,0.3638271259216899,0.30851970146142377
0.0,18.0,18.0,0.0,120.0,0.0,0.0,0.0,0.0,-107.0,0.0,-45.0,0.0,0.0,0.0,34.27253218749016,17.55503396713325,4.678842482871462,3.1041803272814614,2.6343191331404805,2.147670068018469,1.8287116237144339,1.3125701024918797,0.9699020667729055,0.6531423929705273,0.4662514304151924,0.2750433536238054,0.16007837339592196,0.1842688985480301,0.07829709554094341,0.1481366833858064,0.07266309801813584,6.8501314945955585,5.159294523513842,4.59045843109709,4.07161684681512,3.53378211798313,2.9158851130643813,2.32858918717214,1.7575815634160235,1.3508149069746629,1.0160142120462987,0.7289557364970415,0.5742410326047523,0.4617823209020266,0.3638753618677115,0.2483730020950601
0.0,19.0,19.0,0.0,120.0,0.0,0.0,0.0,0.0,-107.0,0.0,-45.0,0.0,0.0,0.0,34.27253218749016,17.55503396713325,4.649977215272735,3.019700257141025,2.5981401036465144,2.1931637345612818,1.741401366751506,1.2055114069670418,1.0319108031021,0.6630537062819731,0.40631957928171725,0.35887057927661703,0.22176441926146762,0.1460417098288144,0.0761280785591906,0.07036915889526715,0.056038457875447624,6.879664604975476,5.2438202423865725,4.586167401824729,4.115878015571959,3.5643073470392173,2.933170706031955,2.335322122892339,1.759907042156701,1.34483616979335,0.9852902252566155,0.7621103516678411,0.5583557808509146,0.46244881192708853,0.3399182306221952,0.2629431054835684
0.0,20.0,20.0,0.0,120.0,0.0,0.0,0.0,0.0,-107.0,0.0,-45.0,0.0,0.0,0.0,34.27253218749016,17.55503396713325,4.716766344204267,3.1238106294162553,2.6455528771937127,2.252914806605284,1.7258874288635386,1.3770975524346531,0.9154860915443411,0.671980961097183,0.45162018956093614,0.3478154263345884,0.18783704386273933,0.15756339303811223,0.08469437988427665,0.08465645607917648,0.11838312475594942,6.893247725936181,5.243029111631962,4.679030641669986,4.169664169217558,3.5690595905133127,2.9437793768345855,2.3710845182045945,1.801820589381409,1.3600204016942632,0.9669502303030858,0.6953293561394068,0.5572645503395035,0.44629673668847647,0.3605549254446137,0.2372354971335516
0.0,21.0,21.0,0.0,120.0,0.0,0.0,0.0,0.0,-107.0,0.0,-45.0,0.0,0.0,0.0,34.27253218749016,17.55503396713325,4.717741748572586,3.1455299719834864,2.627814281831174,2.2068263892891573,1.7671804838455967,1.4066346079651415,1.0685947292491949,0.6776627684569466,0.4248469523312546,0.2668583085739806,0.18562272027317497,0.10540108534421742,0.11502360740036414,0.08676510453943681,0.03693595873315682,6.830543442093151,5.312041819426023,4.725650767594853,4.182899661240527,3.584456170879136,3.01863775076773,2.37086766133169,1.8038650082151046,1.3328121568875024,1.005763651766388,0.7360813925542595,0.5415672326026681,0.4000185395606748,0.32910951257417226,0.22476523227386527
0.0,22.0,22.0,0.0,120.0,0.0,0.0,0.0,0.0,-107.0,0.0,-45.0,0.0,0.0,0.0,34.27253218749016,17.55503396713325,4.726011221468276,3.118848193037545,2.705403037660822,2.259120232787707,1.8545270997782153,1.3521317314743562,0.9857029851057153,0.6320196614063508,0.41453435665482363,0.3044818027348111,0.16531915289932395,0.16517999106800685,0.0797867859638514,0.0486692544969186,0.04925466376281659,6.922385495203326,5.357016851017728,4.7800987143652085,4.269884102372568,3.6489426328622265,3.015891559025476,2.4011923093542524,1.8767595107881647,1.367539541961936,0.9949311628838142,0.6966284490765772,0.5012894422523719,0.4396065393203161,0.2970434135765195,0.21605152362505572
0.0,23.0,23.0,0.0,120.0,0.0,0.0,0.0,0.0,-107.0,0.0,-45.0,0.0,0.0,0.0,34.27253218749016,17.55503396713325,4.73549350069465,3.2217581584480675,2.754323171365342,2.3408457051049965,1.8374558101945453,1.3674825567372833,1.0449842428820812,0.7432428367097933,0.47552208807504254,0.3131633330980238,0.17040364681777473,0.09508871343004047,0.14678447033510633,0.09001916496843884,0.06706003862223432,6.930752232810913,5.385557283152417,4.817748652067003,4.2875368660122835,3.6554168238148312,3.0673678236007187,2.424471984680442,1.8880649797568851,1.379035436539838,0.9725453593466575,0.7036563493788358,0.5157322902922914,0.3632274798403324,0.3369383162145633,0.2553975719074338
0.0,24.0,24.0,0.0,120.0,0.0,0.0,0.0,0.0,-107.0,0.0,-45.0,0.0,0.0,0.0,34.27253218749016,17.55503396713325,4.774862325959558,3.1941556923753947,2.820704869879593,2.331822754379259,1.8330319361507197,1.4377612783685951,1.0722410855258946,0.6865791437866504,0.45780907732886283,0.2959571581677414,0.21438185790723116,0.10395964457183295,0.07998028327623495,0.08779029362480355,0.0520662802843422,6.98935064149175,5.411553854688829,4.854954122626025,4.332579756154235,3.7579682621421915,3.0687190659104466,2.4850991932415205,1.8779227687750477,1.404032658484946,0.9944304373854532,0.6700776655214492,0.5126529520342142,0.36992023833760296,0.2925613610458425,0.2091850857201445
0.0,25.0,25.0,0.0,120.0,0.0,0.0,0.0,0.0,-107.0,0.0,-45.0,0.0,0.0,0.0,34.27253218749016,17.55503396713325,4.779541862515761,3.280265295482325,2.7794458353328824,2.342783674609535,1.8816425467976083,1.4229246452341227,1.0961503017218093,0.7482982087693104,0.45405990911389604,0.2860351721245794,0.12875488036488553,0.06950088183005437,0.14314997411483574,0.007781691970705752,0.1066716134347781,7.03201388407175,5.458595625088824,4.949192698391651,4.309619179202555,3.7488310011010553,3.1177993869083998,2.5028044960864446,1.9534129899163815,1.3756606239354678,0.9953790645346068,0.684595308621389,0.507387431215057,0.3670803106344132,0.2865475902056618,0.2124134368666415
0.0,26.0,26.0,0.0,120.0,0.0,0.0,0.0,0.0,-107.0,0.0,-45.0,0.0,0.0,0.0,34.27253218749016,17.55503396713325,4.754226174143458,3.265647821715095,2.811730111702998,2.3044031901408415,1.9864322247302169,1.523276261079453,1.0448851849611915,0.761068582151754,0.45258716648070374,0.30580052095124693,0.16662812168893257,0.11308723350252348,0.07682579512759578,0.08525847868838252,0.009364208236310609,7.055433278402766,5.468930866676595,4.9460980391625196,4.378119168844155,3.81931758922918,3.2249370678170277,2.4877165819961955,1.9335869259400777,1.4575108963463013,1.024579132994637,0.67879110066764,0.49868131944551397,0.34213074296351503,0.2755678348999719,0.17161557273007633
0.0,27.0,27.0,0.0,120.0,0.0,0.0,0.0,0.0,-107.0,0.0,-45.0,0.0,0.0,0.0,34.27253218749016,17.55503396713325,4.848523815356721,3.2800684173271106,2.90801490223362,2.4019503268170754,2.015212107176205,1.4974571364113012,1.1168230597013598,0.7040436782884035,0.44144616739835374,0.3109407586473091,0.15621451039272263,0.12082021862457469,0.07965251061237927,0.04707788296666976,-0.012363625270001101,7.04766179897901,5.5589191017198045,5.03758768139811,4.424574959945773,3.8237006147153303,3.149247597721472,2.568392042436693,1.8850969906074133,1.4269519250744875,1.029090937850392,0.7012086780548157,0.4851502014489325,0.3889815158094381,0.2555816517904392,0.19104993246353644
0.0,28.0,28.0,0.0,120.0,0.0,0.0,0.0,0.0,-107.0,0.0,-45.0,0.0,0.0,0.0,34.27253218749016,17.55503396713325,4.834369265712534,3.462115615698836,2.9400707061114866,2.438552834653571,1.962320695987782,1.5117333306492635,1.0596301931437269,0.808125181080501,0.42792463818295673,0.3358624526248994,0.2285407565766273,0.07392732423509302,0.03619727531403764,-0.006900888813406822,-0.023227167332014825,7.099048156509212,5.602143960645785,4.994244053316072,4.466548885775879,3.864759285428929,3.2514092084846324,2.5649372614111012,1.9798734453356737,1.4654931470751533,1.028457924644259,0.6813036637105782,0.546181042552681,0.38048393701949684,0.2796785681524852,0.1985078807857374
0.0,29.0,29.0,0.0,120.0,0.0,0.0,0.0,0.0,-107.0,0.0,-45.0,0.0,0.0,0.0,34.27253218749016,17.55503396713325,4.844861625298928,3.4693608508848586,2.9015681614918507,2.4367655632446534,2.0465913414250085,1.449750839516169,1.0773655229942645,0.751422548127052,0.4781897583630879,0.3033301502009227,0.18668872806053263,0.10384532874159719,0.09829380800016718,0.08778839778869763,0.05160698071484395,7.137864744534885,5.599704877246001,5.119510386248698,4.57316465435608,3.8820819163969764,3.2056561874436986,2.59080688898445,2.0250772975409057,1.466583752863358,1.0191181884430769,0.6860756795902845,0.46097675177415803,0.3778554619020007,0.1960607333019398,0.18991074081739853
0.0,30.0,30.0,0.0,120.0,0.0,0.0,0.0,0.0,-107.0,0.0,-45.0,0.0,0.0,0.0,34.27253218749016,17.55503396713325,4.898580525612648,3.4610788047063483,3.0208403874506833,2.506466624977206,2.0643748091967975,1.6022984047168116,0.9854740762780173,0.7035055426258424,0.47989662161676155,0.3440869669911287,0.13559740347487956,0.10160266221722272,0.1485465527508533,0.06980128849793976,0.07170840259397343,7.126544659158144,5.718379881476061,5.142834254226167,4.576269726090731,3.9314794638714368,3.2778183182662515,2.5830058041676995,1.9885135229122952,1.4615224258638726,1.0543489142342677,0.6632755097337283,0.4191402515805329,0.33319756154190544,0.24582767278873566,0.18578427058803423
0.0,31.0,31.0,0.0,120.0,0.0,0.0,0.0,0.0,-107.0,0.0,-45.0,0.0,0.0,0.0,34.27253218749016,17.55503396713325,4.942370814213302,3.5246181330544544,2.9747594196122398,2.5701332886845414,1.983903193698467,1.545349891668923,1.131856150845375,0.7853469258248982,0.4984510555652134,0.26659681832166454,0.13924281058627408,0.1179582258198694,0.056717726673779674,0.0056364767048617745,0.08035898401647484,7.1799680537749,5.743883766624346,5.136223174073796,4.642084054567428,3.9701357644954043,3.3270572186703284,2.6516995153489975,2.0162001014616098,1.4986767663399927,1.0640331913263754,0.7014147396113292,0.4758704911678953,0.3323838651253852,0.2738416819407786,0.17533697337712292
0.0,32.0,32.0,0.0,120.0,0.0,0.0,0.0,0.0,-107.0,0.0,-45.0,0.0,0.0,0.0,34.27253218749016,17.55503396713325,4.942322893365973,3.525038117707005,2.977537533345801,2.4910797939732294,2.0732296697345327,1.6028203092205071,1.15185035851407,0.8168929546869224,0.5307713876630622,0.29954835919557693,0.1680512571740958,0.1636884083129635,0.024334828879120217,0.0007475846191496646,-0.0019409038159011044,7.215161302940754,5.7892538053118,5.231289322834683,4.643102697852466,4.000149753134283,3.362890898969806,2.6416864933457305,2.0385275339592597,1.4889558521610087,1.0363901385669334,0.7350237414480205,0.48903809507688917,0.34251964285952996,0.24084435757755782,0.1862659603980396
0.0,33.0,33.0,0.0,120.0,0.0,0.0,0.0,0.0,-107.0,0.0,-45.0,0.0,0.0,0.0,34.27253218749016,17.55503396713325,4.994984124866233,3.6007852896275883,3.04676001243445,2.5594756978382143,2.1257759294824,1.6458400463653502,1.180466864227074,0.7764982249732434,0.514094539049143,0.35695218795582373,0.22760766500717855,0.10204658571332226,0.06141593215020591,0.004026789235257004,0.041569350752163316,7.173694907368612,5.799013947067068,5.22524557956468,4.696173969308958,4.087025238479483,3.3925383459255114,2.6864792194272398,2.089494633238249,1.518990340073098,1.0807971958980764,0.7194896969843292,0.4414885134734241,0.30076263564189304,0.21912724624492516,0.18574941964601446
0.0,34.0,34.0,0.0,120.0,0.0,0.0,0.0,0.0,-107.0,0.0,-45.0,0.0,0.0,0.0,34.27253218749016,17.55503396713325,4.871234213901924,3.6115850375657317,3.106580985110037,2.626064587879832,2.153811705034435,1.628573498883659,1.1803307211074738,0.8440418662522204,0.4672304146953522,0.33665119280506134,0.18439285971647051,0.10086723181848758,0.030085707383851544,-0.01647654006039624,0.07237967603634167,7.229106539215286,5.830269460378378,5.3128224374745905,4.711880401937281,4.058757514069907,3.3974555920439764,2.7277746228742323,2.048859420531425,1.5479395125206417,1.061283820588062,0.7160734048714121,0.42606769370243314,0.33888966868193265,0.2147610557757778,0.1910081042195303
0.0,35.0,35.0,0.0,120.0,0.0,0.0,0.0,0.0,-107.0,0.0,-45.0,0.0,0.0,0.0,34.27253218749016,17.55503396713325,5.026605762522089,3.660061793663905,3.1169168378389194,2.6108844195617325,2.1653515983316716,1.6566624773940792,1.218595492480093,0.8269242303690191,0.5513222218912196,0.35172756055459103,0.18245039523080625,0.14193427678285533,0.05062145762185084,0.0499526583795384,0.030346727835663428,7.286089099386121,5.921645123178117,5.370422457993418,4.7635262288286455,4.1422150098522135,3.3982143728304237,2.684953402359728,2.106376144972553,1.5539804699470963,1.0915959662919046,0.6940064738933871,0.4760256490724619,0.29037655323103145,0.22704435187206937,0.1458770684988825
0.0,36.0,36.0,0.0,120.0,0.0,0.0,0.0,0.0,-107.0,0.0,-45.0,0.0,0.0,0.0,34.27253218749016,17.55503396713325,5.0906475325098555,3.6998246377947033,3.194853898064588,2.6245908581980477,2.0805426429705167,1.6804216825981404,1.2032899224311335,0.8578502120054907,0.5749965959197177,0.3145364016606672,0.19651752352572682,0.11600853812862928,0.01512956987120534,0.005912655437902745,0.02031394812439492,7.304123317901479,5.97589533080428,5.37805661876633,4.809919196443393,4.160442343001501,3.4774979733107854,2.7732225028477497,2.1268254681466616,1.5670825302941118,1.0751729699435435,0.7050424489187361,0.48289572699043276,0.3094131485787099,0.21690792907908688,0.1544089383713571
0.0,37.0,37.0,0.0,120.0,0.0,0.0,0.0,0.0,-107.0,0.0,-45.0,0.0,0.0,0.0,34.27253218749016,17.55503396713325,5.115342821800159,3.8498855438914923,3.2394496945074303,2.7553960486262308,2.1812125036778074,1.608565125120973,1.1845271706043157,0.8198725886607997,0.5206190230760562,0.3543866258319731,0.1948262714946419,0.09574545845595019,0.046440859727647985,0.029369385048017574,0.012629424767104108,7.338701057120738,6.094897730061254,5.4564538546906745,4.852938840793688,4.207866196534048,3.491714683334247,2.795126848405251,2.087638599077263,1.6038049778258483,1.130361625516308,0.7245448394078211,0.4650389939650528,0.31670425473119757,0.2087549040156003,0.1326716510743912
0.0,38.0,38.0,0.0,120.0,0.0,0.0,0.0,0.0,-107.0,0.0,-45.0,0.0,0.0,0.0,34.27253218749016,17.55503396713325,5.070256532399449,3.791052711409346,3.261404066802855,2.782960666923757,2.2116919829937496,1.675088431628175,1.1606875520143587,0.8312742981684048,0.5430921116325269,0.35553478914910863,0.28053289689457583,0.09877065125358592,0.11008965582153024,0.021829136280124832,0.0600689590750508,7.365978066665537,6.058006933165219,5.565055853825637,4.852263222776806,4.189418371169449,3.5492671621970193,2.805467991174714,2.158419291113917,1.6055244120903576,1.1012313913109026,0.7120900173674641,0.45990817110107246,0.30872961730497134,0.18628461563334364,0.16339807218878172
0.0,39.0,39.0,0.0,120.0,0.0,0.0,0.0,0.0,-107.0,0.0,-45.0,0.0,0.0,0.0,34.27253218749016,17.55503396713325,5.190634023152211,3.843300882435433,3.2467052613553853,2.850788868873022,2.160878333667282,1.6851630979883812,1.2358306284017018,0.8185060477894905,0.594033381110238,0.4063805418624419,0.19112150452344254,0.11798840529533801,0.05833580107907021,0.08420081763159717,-0.01824452688044682,7.427827051392726,6.094829014257099,5.52530941284397,4.920685625880759,4.3000061439414345,3.560883245930162,2.867492160727885,2.1503438384948703,1.6394812510108447,1.0550295851200908,0.724594073802748,0.5019516279201984,0.2946860262185122,0.18320501490053853,0.15712669260065698
0.0,40.0,40.0,0.0,120.0,0.0,0.0,0.0,0.0,-107.0,0.0,-45.0,0.0,0.0,0.0,34.27253218749016,17.55503396713325,5.1880784124329,3.8481956700449946,3.3420639688627243,2.8577488594979057,2.263200639548229,1.7411842510731268,1.236021492768495,0.7970023557898155,0.5575953263810373,0.31592665962170874,0.20079525491513606,0.1270256460471081,0.058134672273129885,0.01603431166960419,0.06909797590505645,7.405553646532343,6.164281686467573,5.560515409925495,4.952700668654613,4.322866681576527,3.5912905670858057,2.8920397414461174,2.1919918561939085,1.6030440272206126,1.1164531832939266,0.7926801934924073,0.49435398459514707,0.30537961825386306,0.23661983952812324,0.13596863722512603
0.0,41.0,41.0,0.0,120.0,0.0,0.0,0.0,0.0,-107.0,0.0,-45.0,0.0,0.0,0.0,34.27253218749016,17.55503396713325,5.283789111363043,3.888239306159902,3.3849533664402256,2.871551118457293,2.4075624922859236,1.7357620356338315,1.2817670779956645,0.8689107331187846,0.5829959233104448,0.3048690560738566,0.21407163773907478,0.1254075351844537,0.011766268422738806,0.025620002727237592,0.07649641399216328,7.451404650148249,6.187307728063387,5.664544968595175,5.0395700740461775,4.3865607737565595,3.6308210592358736,2.8955132656322693,2.2471145079900436,1.637024516688087,1.1459161068757866,0.7564565444435196,0.5165217580544865,0.3018168577016424,0.19413952186702954,0.16462068350644174
0.0,42.0,42.0,0.0,120.0,0.0,0.0,0.0,0.0,-107.0,0.0,-45.0,0.0,0.0,0.0,34.27253218749016,17.55503396713325,5.2922681996766645,4.068066332895001,3.4243504776493054,2.883058484733155,2.3413103767072823,1.7806251946879066,1.194877292401885,0.8926389216028866,0.627476958733676,0.33102727968658957,0.1860388577756059,0.09449427649945127,0.030625468231271234,0.01686777132813717,0.10689570168427001,7.4968555636893734,6.272273267384693,5.719105671904849,5.0893234894180415,4.416997404459528,3.6367930413086276,2.9540859241335893,2.2048379331281427,1.6421736528716433,1.1158482436842672,0.7494290187716882,0.4603589555635397,0.30000218333691725,0.20335369667587277,0.16100104949965774
0.0,43.0,43.0,0.0,120.0,0.0,0.0,0.0,0.0,-107.0,0.0,-45.0,0.0,0.0,0.0,34.27253218749016,17.55503396713325,5.331102765103311,4.138527880305239,3.4381692652147393,2.934066364285122,2.3567582702549204,1.8460320836611004,1.3501068146065291,0.8927179229351724,0.5720204409341888,0.3571496685076949,0.177594968150541,0.14623565568949853,-0.00914311878630731,-0.0008189834605704729,0.018225658907240067,7.543177754698755,6.333308795389637,5.694238827953939,5.118695441102511,4.4700809842797975,3.687235904723804,2.9315235872041385,2.2669913150574694,1.6534536721858604,1.1214243908151407,0.7865998426697132,0.4734431295570517,0.31112462614566605,0.19174706528802532,0.13081989486352869
0.0,44.0,44.0,0.0,120.0,0.0,0.0,0.0,0.0,-107.0,0.0,-45.0,0.0,0.0,0.0,34.27253218749016,17.55503396713325,5.337935864876166,4.090406673507376,3.539350535010656,2.9697095904557904,2.429055147883609,1.7701538184438095,1.303196221022345,0.9124677196090829,0.5415077206877132,0.2914691788626669,0.16238387188835107,0.12489276844128293,0.07179995996887686,0.04052540655833588,-0.003406382461914173,7.602704112979071,6.337602970170519,5.7761692287994615,5.1703380791568785,4.412698680750749,3.731775101864188,2.952964406608078,2.2463706994370476,1.6218134638240451,1.1953412667393686,0.7857557655266022,0.48288033166661354,0.31253762267609364,0.23315115916940152,0.15040877786661727
0.0,45.0,45.0,0.0,120.0,0.0,0.0,0.0,0.0,-107.0,0.0,-45.0,0.0,0.0,0.0,34.27253218749016,17.55503396713325,5.45416721448093,4.141362142675399,3.5729675946504424,2.9718311374662534,2.410494952715151,1.8587702665291288,1.3606176825083083,0.8937144811536701,0.5054534756202619,0.3506887024289665,0.1902477473350349,0.0743262807638799,0.07667623264230997,0.06357335097016692,0.05163897023326548,7.613258426752708,6.387375081827882,5.860814005300492,5.243024816568194,4.536998843411264,3.757777132768915,3.0213105667404268,2.260822496100283,1.6757768648825782,1.1896863160579403,0.7649089005082346,0.49070121286985985,0.2680295413532709,0.1900113865187665,0.1531041583339326
0.0,46.0,46.0,0.0,120.0,0.0,0.0,0.0,0.0,-107.0,0.0,-45.0,0.0,0.0,0.0,34.27253218749016,17.55503396713325,5.483233761385949,4.202870276188701,3.580714700763919,2.997924965812791,2.4344284767213895,1.8885617660023475,1.351209549669862,0.9502410516063519,0.6050701062256222,0.38221763531847247,0.17498170818903788,0.1292605872384988,0.08636855409814741,0.05427672706361472,0.03306720797314262,7.689152427294119,6.4700734643844235,5.842988673696762,5.290097153341527,4.552468287605936,3.7446954373913446,3.0683582700414664,2.296844516579618,1.7169467287894808,1.2058715423226942,0.7941713736583371,0.5005382216391348,0.28290988964042246,0.2138317827837008,0.09323919184316098
0.0,47.0,47.0,0.0,120.0,0.0,0.0,0.0,0.0,-107.0,0.0,-45.0,0.0,0.0,0.0,34.27253218749016,17.55503396713325,5.526275903979961,4.261397677526361,3.6890701767881224,3.0615252051512365,2.4674061284443387,1.9881409874341052,1.3373079353173127,0.9030260310581738,0.5554597869276237,0.32536967064893024,0.16178027834297787,0.11940113198932063,0.08317854722479072,0.06626126914613514,-0.029528150634227233,7.726746037949516,6.506091605056842,5.906123425547504,5.3163473875605955,4.598967432449103,3.774513215470186,2.97310409562388,2.269768491861716,1.7285156250229399,1.1682835569616024,0.7952261921836576,0.49106850987274103,0.32003754072547325,0.16252705902380685,0.1488865101643163
0.0,48.0,48.0,0.0,120.0,0.0,0.0,0.0,0.0,-107.0,0.0,-45.0,0.0,0.0,0.0,34.27253218749016,17.55503396713325,5.59580470281459,4.3864447834325455,3.7411666078321932,3.1112445915563853,2.481368760098946,1.9241467955445044,1.3329212026870336,0.9302891571709635,0.5808787617580716,0.3613729782252089,0.2387395398829381,0.12074096426764476,0.06209102326313103,0.02695692758983311,0.03379584128888713,7.798064176071625,6.5876824529780595,5.952894379277993,5.3798766773390385,4.618716009676891,3.834993199493002,3.102936351244962,2.3503532166392787,1.676436283590588,1.2372757411764004,0.8061874228103076,0.5052689825143678,0.29910134066948857,0.199973410103576,0.11443357706956618
0.0,49.0,49.0,0.0,120.0,0.0,0.0,0.0,0.0,-107.0,0.0,-45.0,0.0,0.0,0.0,34.27253218749016,17.55503396713325,5.610489051632282,4.412765139358534,3.7721092385302257,3.2409855515104007,2.5191285077353793,1.851874814579149,1.3740224128027638,0.8077895727608281,0.5809651747621501,0.3870718686216787,0.23084793808763374,0.0907619969580202,0.08863483509726268,0.044544595818610436,-0.00868931616231471,7.862327041458731,6.680302631670642,5.9949852058285575,5.432584705305855,4.662494197019622,3.8827609001375514,3.0923218887749706,2.3587087660439345,1.7274130798272094,1.168676864534678,0.8087132078893826,0.5191550260145414,0.2713113148030787,0.16627359266060332,0.11239117841230703
0.0,50.0,50.0,0.0,120.0,0.0,0.0,0.0,0.0,-107.0,0.0,-45.0,0.0,0.0,0.0,34.27253218749016,17.55503396713325,5.719142818204128,4.444838742582306,3.7956550718556508,3.2533995820631088,2.5315091617902685,1.9801705507909688,1.3877651809170022,0.8697766073048792,0.627650522944572,0.3044968481089395,0.276133810877115,0.10004924715696586,0.08819372801562367,0.038997170860834734,0.06799107293898309,7.911638310261421,6.72278901386843,6.1356521776393285,5.438178621138786,4.719156165838995,3.9137292105329227,3.1285197468222123,2.4016326283199985,1.7362033143794515,1.2276823225393962,0.8095424003060127,0.49226255540728403,0.2828688767475782,0.20382707758068824,0.08691083385837042
0.0,51.0,51.0,0.0,120.0,0.0,0.0,0.0,0.0,-107.0,0.0,-45.0,0.0,0.0,0.0,34.27253218749016,17.55503396713325,5.809553398757231,4.500144720724103,3.8250227787722673,3.1476903392096527,2.6613007018957013,1.9466760473421243,1.394920538557421,0.9942209323400141,0.6863612376327523,0.38091085299044203,0.218221630761729,0.06977547338336557,0.011486906962535008,0.024369481032826202,0.037942712907873107,7.949680634493175,6.778447558355284,6.125091286572105,5.460640732748096,4.768344670890222,3.993506659449728,3.1335796466058836,2.4646054208050496,1.7674119859952588,1.2285433906254537,0.8170621033332176,0.49693802054439096,0.2941029179728443,0.17723116234512395,0.12050515530144165
0.0,52.0,52.0,0.0,120.0,0.0,0.0,0.0,0.0,-107.0,0.0,-45.0,0.0,0.0,0.0,34.27253218749016,17.55503396713325,5.828390538877466,4.536630738105317,3.9073610257182096,3.280290039196351,2.6287788363204174,2.046527068927701,1.4503770893612944,0.898717205786645,0.5916905415898996,0.37246603140985046,0.2240923124094679,0.10568342393282043,0.09884711073376817,0.02732230883389685,0.02514371785083933,7.9832280618916185,6.819127880658917,6.176335112556744,5.557327953473137,4.760031237616643,3.93958861260003,3.172873723358993,2.418358270676564,1.738827585027168,1.213764383429835,0.8227658722362433,0.546581787413065,0.3487681146234855,0.2138650855153204,0.08869874428630246
0.0,53.0,53.0,0.0,120.0,0.0,0.0,0.0,0.0,-107.0,0.0,-45.0,0.0,0.0,0.0,34.27253218749016,17.55503396713325,5.925035542262748,4.605644581056872,3.9697155177437966,3.3708554831609043,2.5966753748901303,2.046034857091974,1.4284337941209404,0.9403564868086709,0.6192642973308463,0.3180322067984721,0.19305062653433458,0.14799576089886834,-0.014963778337088264,0.04797995218959522,-0.010023715194826765,8.056942501828988,6.8654931175256735,6.2269194529860075,5.569688291400832,4.839839429813235,4.034735043184403,3.222998709694622,2.4823979432615664,1.8170368674070454,1.2205403976604767,0.7689584253435996,0.5306635237610865,0.3500642387248536,0.19956213871046394,0.07561956697139419
0.0,54.0,54.0,0.0,120.0,0.0,0.0,0.0,0.0,-107.0,0.0,-45.0,0.0,0.0,0.0,34.27253218749016,17.55503396713325,6.011323796091574,4.683238338430304,4.027980307427726,3.3460153793081213,2.6762969303629625,2.0643711756489704,1.4460576498159718,0.9395585968067505,0.6822054776574733,0.3637982824132982,0.23232908700259328,0.09617834634565915,0.035993409451595584,-0.01588956702929151,-0.01870891564880795,8.124330599910436,6.952545897693463,6.285576523630895,5.674633513953702,4.908998146285511,4.048579287632516,3.2209570943932477,2.4209825758668093,1.7997631862395307,1.2493565174827128,0.8147243769300518,0.5453360992330666,0.3092075635016279,0.2170818236055271,0.11315561461818767
0.0,55.0,55.0,0.0,120.0,0.0,0.0,0.0,0.0,-107.0,0.0,-45.0,0.0,0.0,0.0,34.27253218749016,17.55503396713325,6.104797764180055,4.767145842163155,4.041709463378746,3.3407775944186144,2.6801123981674952,2.0658453305612716,1.4573328176111595,0.9909989884259045,0.6078581342121686,0.3819827183107303,0.2049329014363442,0.14934566807279648,0.062746472110806,-0.042642745655069376,-0.0005387127994771375,8.186108787651786,7.027009419088121,6.364008139252205,5.67045630025187,4.910173303429736,4.074650482409677,3.2108862601090133,2.457083636316834,1.8203510995394,1.25078987662483,0.822350693398354,0.523023832722325,0.28177165725208403,0.16954946108465443,0.06508538070841566
0.0,56.0,56.0,0.0,120.0,0.0,0.0,0.0,0.0,-107.0,0.0,-45.0,0.0,0.0,0.0,34.27253218749016,17.55503396713325,6.167757357473667,4.840375065950549,4.1601380958400656,3.4865069495597796,2.7728472572767133,2.059156546624774,1.460122153940077,1.0126889964369838,0.6872627214363799,0.43021744495338077,0.28772241707850393,0.2060930117732966,0.16432749561585397,0.03980139746214887,0.06943465897307266,8.246536556292108,7.0906105539215405,6.418847625494667,5.758815342494433,4.9832194542623265,4.092555880533969,3.2066315666500627,2.485953614144429,1.8187205606240333,1.294337078852744,0.8439790293932052,0.5469073524127003,0.30804684321208875,0.18942532266476608,0.08323243827659416
0.0,57.0,57.0,0.0,120.0,0.0,0.0,0.0,0.0,-107.0,0.0,-45.0,0.0,0.0,0.0,34.27253218749016,17.55503396713325,6.200606132197759,4.902453498922913,4.186070339285823,3.4825951811859146,2.8068711497428556,2.0724994386350355,1.4906445527278342,1.0241430958400268,0.6009631154750739,0.43771597274492613,0.27232533168863227,0.05628896379591504,0.037090570271648166,0.08576587651720365,0.06607488103640398,8.276245294937368,7.096170334876148,6.505667606402496,5.791939942476927,5.011455236795699,4.166768537270866,3.3067882880034345,2.5175556961148384,1.8463946955253054,1.3010594203886556,0.8228433797585176,0.5112792977966856,0.2847365066160247,0.20109262721593435,0.07016439075609118
0.0,58.0,58.0,0.0,120.0,0.0,0.0,0.0,0.0,-107.0,0.0,-45.0,0.0,0.0,0.0,34.27253218749016,17.55503396713325,6.284410972357952,4.966529377213479,4.209468134475162,3.5076282787393986,2.7676202080757037,2.129924019414068,1.5355205432377161,1.0518288143739651,0.664529288631182,0.41120438662258135,0.20542678827688343,0.09797314022681199,0.054800613833390965,0.05677765887235206,0.03494173708570571,8.358791370951653,7.180642440017288,6.593917694445009,5.836680378406096,5.067503041582494,4.221684176669105,3.3050928202358922,2.4872314075518926,1.876660743537667,1.296509551302486,0.8493278530828486,0.4902860176791011,0.2598658611093519,0.1904641732711114,0.1034908190580908
0.0,59.0,59.0,0.0,120.0,0.0,0.0,0.0,0.0,-107.0,0.0,-45.0,0.0,0.0,0.0,34.27253218749016,17.55503396713325,6.3593398440436655,4.9855457001843515,4.2338052872777485,3.625098188235529,2.8257446661477497,2.1656415614775706,1.586424037344645,0.9820042067769811,0.7059706176590735,0.420370570069341,0.30517831545303886,0.12476369657911068,0.07062153813767247,-0.05533353515369524,0.022275698059675463,8.414969447028762,7.238017059855607,6.562169214224454,5.92370075455003,5.068444122387912,4.244852018362313,3.3696214841688388,2.574384865336189,1.8734873000629275,1.2908976471681015,0.87256033034994,0.5347926936654671,0.34309287113386094,0.18342710011302202,0.13073112420969618
0.0,60.0,60.0,0.0,120.0,0.0,0.0,0.0,0.0,-107.0,0.0,-45.0,0.0,0.0,0.0,34.27253218749016,17.55503396713325,6.381331496449731,5.048306558216644,4.357488797635085,3.5930996601349126,2.853178804393577,2.177604729842359,1.566471402581622,1.0331426814704683,0.6669251760697327,0.39939752664137385,0.2706191589903898,0.11917933818884972,0.06771779989963236,0.0551196105797169,-0.0001534598226353434,8.493065770252063,7.354654913928264,6.625339778800488,5.956572239402858,5.1658302406295356,4.271301311137201,3.3918378058880165,2.5771465472153587,1.8829637658258487,1.2814034912350774,0.8327381613584647,0.5087944854855797,0.31896044895785475,0.15401821622671885,0.11036421741992061
0.0,61.0,61.0,0.0,120.0,0.0,0.0,0.0,0.0,-107.0,0.0,-45.0,0.0,0.0,0.0,34.27253218749016,17.55503396713325,6.447242070816023,5.159024364100489,4.322198632080119,3.7183596712327835,2.8738556283026333,2.1919552163481177,1.6395310101796878,0.985157971268456,0.6172882750571724,0.43018619430171323,0.20708759434041926,0.1520915489504831,0.0785444480063141,-0.012865931056095195,0.01605789111032486,8.562085920190404,7.380894797501867,6.689370482842542,5.989200682781477,5.1596517019462995,4.290418384820052,3.3922137604927767,2.60764246713405,1.9157144772243446,1.3386141458245433,0.8625476033377778,0.5403093045333947,0.3129316616173254,0.18319025551205015,0.1299248894106947
0.0,62.0,62.0,0.0,120.0,0.0,0.0,0.0,0.0,-107.0,0.0,-45.0,0.0,0.0,0.0,34.27253218749016,17.55503396713325,6.601855459732364,5.180994655740921,4.460741058532586,3.6990641354231806,2.912316960124182,2.2239267820706248,1.5402762901446507,1.0333303856368339,0.6844846774631441,0.4815840105513216,0.22778927472167135,0.1259656327319615,0.04864337697955317,0.02256555608911425,0.019647212993945076,8.572000394137175,7.485080106187838,6.774837563109138,6.038696860577485,5.221388129651849,4.325617404045764,3.46354950418437,2.659448976071082,1.920294959502219,1.3145906314966334,0.9015751601869618,0.5494217999441557,0.3068684129418314,0.1841104486811132,0.1156875484835381
0.0,63.0,63.0,0.0,120.0,0.0,0.0,0.0,0.0,-107.0,0.0,-45.0,0.0,0.0,0.0,34.27253218749016,17.55503396713325,6.755041170013967,5.246288896544973,4.551526401392652,3.808122944303621,3.005629032531241,2.2680147609817896,1.5725313822463258,1.1334568609160842,0.6938094775918691,0.43420751611086006,0.22029957804640254,0.1430372350620098,0.03174438903018459,0.07279337588767294,0.08570785330662273,8.716512982956708,7.5037848896362505,6.7726735394246145,6.142611899816618,5.301124732179896,4.403826732209133,3.483028301068959,2.6583987207416064,1.9334831078057393,1.3920830394911714,0.9010398694367263,0.5567777492007189,0.30205134944684175,0.21979286163692596,0.12960212100638333
0.0,64.0,64.0,0.0,120.0,0.0,0.0,0.0,0.0,-107.0,0.0,-45.0,0.0,0.0,0.0,34.27253218749016,17.55503396713325,6.833623687167466,5.375031306856536,4.586692161851585,3.7850293541031115,3.0863832082267164,2.2842363875291447,1.6133544565082143,1.1190002668225627,0.6998933650085654,0.39076586326078944,0.23970965729850535,0.15058191686356953,0.06440881266379311,-0.017389127850607478,0.04435868496460346,8.722026157508632,7.617332618664945,6.885332402241215,6.165504382309187,5.328189678970343,4.451786653646502,3.455289314538196,2.7103578127673207,1.956227943064588,1.3076328529853585,0.8571570839569816,0.5444502097273876,0.3150238237916868,0.2060074633164563,0.1014430759921352
0.0,65.0,65.0,0.0,120.0,0.0,0.0,0.0,0.0,-107.0,0.0,-45.0,0.0,0.0,0.0,34.27253218749016,17.55503396713325,6.812232535444512,5.471110313086703,4.6856012047555815,3.852707158834374,3.1174118535546564,2.335509458140023,1.6342546070623987,1.1000678238227974,0.6719967429139398,0.3617604133681659,0.2682026494135848,0.10582962260995957,0.03228616233976609,-0.03971053197628491,-0.04657145783450003,8.849991069630954,7.661495868083016,6.9158242303631905,6.226144354630173,5.347870904981291,4.440006437415476,3.5023840479349966,2.691438138593279,1.9391173359237954,1.3505572724008665,0.8867777355216935,0.55855591628347,0.35391346409027846,0.20472443485226408,0.12314693582275259
0.0,66.0,66.0,0.0,120.0,0.0,0.0,0.0,0.0,-107.0,0.0,-45.0,0.0,0.0,0.0,34.27253218749016,17.55503396713325,6.928045643051438,5.478150641342895,4.735191998181001,3.9405064613169674,3.175867266475132,2.4035141289959654,1.6536824068221667,1.1042456265744112,0.6789307522123785,0.4264408638425787,0.20509007887901956,0.10640724787951568,0.08996013682452103,0.02313181939019599,0.021147842495828826,8.934699208947293,7.733847175898295,7.061691135921354,6.273455943389085,5.440161459207425,4.479106334275614,3.559923668886896,2.7017764080267717,1.9436963922422883,1.4021353577800486,0.895602934112354,0.5841156344434452,0.32065897623860556,0.2247999607880063,0.06848249846152385
0.0,67.0,67.0,0.0,120.0,0.0,0.0,0.0,0.0,-107.0,0.0,-45.0,0.0,0.0,0.0,34.27253218749016,17.55503396713325,7.104232422888776,5.547320857205837,4.774023357890702,3.97494718303567,3.1629572617112576,2.3258075564486442,1.5889077371463665,1.175614767311867,0.7492807406417782,0.44449218513062433,0.25187087880092246,0.1151289020015684,0.03145929019494644,0.039656281178036906,0.052351491341306775,8.940402754738452,7.78070262056585,7.075390013598926,6.283589364684038,5.454056469475677,4.52256916795571,3.580457865716312,2.782912468934115,1.952199039600098,1.3958375724452898,0.8636215484733951,0.577738024087438,0.32254531540507714,0.21887236925396544,0.11006727906120603
0.0,68.0,68.0,0.0,120.0,0.0,0.0,0.0,0.0,-107.0,0.0,-45.0,0.0,0.0,0.0,34.27253218749016,17.55503396713325,7.190724893729654,5.647592626798362,4.908273216942918,4.0022341396623595,3.2195906994901686,2.4648905244134456,1.6491667159245147,1.1205288573258743,0.7289405753459297,0.4817459884906352,0.2534416873453222,0.13277579560516634,0.10551316664304838,0.018818095742157537,0.02279496639338526,9.023281790878308,7.870539968058877,7.11720831065675,6.373034996772472,5.500007771844625,4.586130878944392,3.6877427742349838,2.7115198307635997,2.00169468389436,1.395594883490102,0.8886745254715792,0.5823475780310233,0.3454556565491355,0.1825124248065077,0.0672689230910421
0.0,69.0,69.0,0.0,120.0,0.0,0.0,0.0,0.0,-107.0,0.0,-45.0,0.0,0.0,0.0,34.27253218749016,17.55503396713325,7.2804028614000025,5.693262474188404,4.915761361485658,4.134992755240431,3.297382222524872,2.4258661330232916,1.663769521840233,1.0887927557089454,0.7724320738238937,0.3641521443852843,0.20995554788982734,0.1666573232499869,0.05763090880464397,0.04916037144062199,-0.031039421813740104,9.131754780682465,7.9595993991801315,7.197171641133965,6.5163433422231645,5.566646033506052,4.618148254519829,3.6353369043400585,2.7713986678208697,2.039782790792158,1.3908542870613454,0.8834689267107175,0.5710074490731463,0.34603293367542176,0.15981262452231504,0.0913097197502506
0.0,70.0,70.0,0.0,120.0,0.0,0.0,0.0,0.0,-107.0,0.0,-45.0,0.0,0.0,0.0,34.27253218749016,17.55503396713325,7.344555071368208,5.817458651975196,5.034966524371558,4.148925590706199,3.271910280513854,2.4226096277330242,1.7331426672349495,1.1573897671321902,0.7460908633039531,0.3108401077018451,0.22344696278640158,0.18679409140314035,0.0643474433744905,0.025653031329472716,0.02861643352767631,9.174517290001894,8.037886253329201,7.267481462733054,6.5205415907341635,5.612758044462872,4.629888851276106,3.646538093136633,2.7792346871913525,2.0100538581109495,1.3925554777657736,0.9104517127393144,0.5597966746546668,0.35560519127442697,0.18005469601298385,0.07741407043854834
0.0,71.0,71.0,0.0,120.0,0.0,0.0,0.0,0.0,-107.0,0.0,-45.0,0.0,0.0,0.0,34.27253218749016,17.55503396713325,7.509511489463471,5.93281902463106,5.0348365996481546,4.1716002909389545,3.3510314595093793,2.5318696102057823,1.7577045457972313,1.1918629378125998,0.6652742436375212,0.40979654586343406,0.2640203280890183,0.14750095204634942,0.034248837225849656,0.05203963166448433,-0.016475933776503755,9.275905535983325,8.08946975143464,7.334612240050542,6.58349171925421,5.680817853449698,4.700351755881635,3.7091773093065985,2.8088318003654185,2.041959824571899,1.4276419367054418,0.9170489989152956,0.5791584592247324,0.32559746014174795,0.18741086547156235,0.09014235606330517
0.0,72.0,72.0,0.0,120.0,0.0,0.0,0.0,0.0,-107.0,0.0,-45.0,0.0,0.0,0.0,34.27253218749016,17.55503396713325,7.623293075267111,5.9636872974583115,5.113174078966082,4.270295694701884,3.37894480405634,2.533531895884275,1.795284683803704,1.1520316479677186,0.7210695381883598,0.3899810629771078,0.232331059599943,0.14498339453335152,0.0858434128023878,0.07094646869929092,-0.016277657722381562,9.384051546844885,8.131915202199629,7.4119587853914215,6.6556756688464285,5.7786963017982025,4.744642740915413,3.7775295656646657,2.82729720108393,2.053373015995295,1.447558482015818,0.9448594695785668,0.5759093643027797,0.361503118716867,0.19624348362672092,0.10265398661442247
0.0,73.0,73.0,0.0,120.0,0.0,0.0,0.0,0.0,-107.0,0.0,-45.0,0.0,0.0,0.0,34.27253218749016,17.55503396713325,7.692854970494762,6.102200448673579,5.179642972301476,4.368689441806386,3.3761612593567647,2.542538390595054,1.789655412343909,1.1473318825495997,0.7632984344189447,0.42441455856713917,0.24860485694400847,0.1265728776997216,0.06461942493088092,0.035092465529313284,0.02132885013762057,9.4416992263549,8.21769217681634,7.477309725352592,6.702581212334881,5.814419125857925,4.744676450257189,3.7547585543095905,2.812369226461936,2.036939132157003,1.4470874597774608,0.9402013554825477,0.5704263828830783,0.30644777191790035,0.18341940168097787,0.07499784499449692
0.0,74.0,74.0,0.0,120.0,0.0,0.0,0.0,0.0,-107.0,0.0,-45.0,0.0,0.0,0.0,34.27253218749016,17.55503396713325,7.804994614694781,6.1185716684996425,5.271348851256254,4.415480205641991,3.4100488025228577,2.569680939567305,1.8381843299805103,1.124846922586588,0.6980746522633854,0.41669336174454885,0.24295308362140627,0.1670628237259583,0.004328127850928322,0.03579381546149704,0.012016156252548,9.471546533458087,8.30186481607939,7.569511957725596,6.796904669128211,5.838341136121155,4.8241065802318275,3.8175779403192367,2.8543184623495526,2.0649841773865827,1.4331432482720292,0.9663434835861017,0.5953549025795568,0.3655449460568293,0.15417141385277142,0.11544002600311312
0.0,75.0,75.0,0.0,120.0,0.0,0.0,0.0,0.0,-107.0,0.0,-45.0,0.0,0.0,0.0,34.27253218749016,17.55503396713325,7.896670524646902,6.224629615409334,5.341624788065219,4.437784990839313,3.6090211486808603,2.652096967606032,1.8464594979506914,1.2063332343082627,0.7914411125479901,0.4691626757179634,0.33145703874553084,0.10827912371484992,0.12111850892342396,0.08008417043296862,0.008645659367156127,9.566109251860253,8.43095799651271,7.673006131906925,6.838920967336104,5.835812079033524,4.825886826345,3.826548334323988,2.920304424254584,2.1144222661896506,1.4596079029634004,0.9620635519747853,0.5999921418190038,0.37221099354559095,0.1831526523352116,0.07250514402415742
0.0,76.0,76.0,0.0,120.0,0.0,0.0,0.0,0.0,-107.0,0.0,-45.0,0.0,0.0,0.0,34.27253218749016,17.55503396713325,8.139573644440025,6.349762565075645,5.365145568858504,4.545039018895107,3.5170442819442402,2.6791266402753777,1.8415034887891453,1.127135483003891,0.7842954297366043,0.49508087174676085,0.22652256602599644,0.11352674613377536,0.0974361904296232,0.046137595714778434,0.057485804812167064,9.703677714912827,8.447194868080699,7.689660257178927,6.888227132044635,5.9122174559336385,4.92989655240639,3.847128493037485,2.9385806842688593,2.113729816656714,1.4595162927932792,0.9528569383678637,0.5877028163899516,0.3700712039198718,0.22118397482950033,0.06121140660960741
0.0,77.0,77.0,0.0,120.0,0.0,0.0,0.0,0.0,-107.0,0.0,-45.0,0.0,0.0,0.0,34.27253218749016,17.55503396713325,8.200234279377886,6.363192618031157,5.49419572696007,4.554359661251719,3.5490478675098265,2.6479926896941297,1.8919217941007653,1.314721744179138,0.7589606130436621,0.4884165117491845,0.3099027547744883,0.16059330141003886,0.1442656977441213,0.007950133903839286,-0.027802678908053022,9.743219020841673,8.544430502905076,7.7633375791716,6.954876186325477,5.961218627703302,4.913427784267262,3.8827449674104098,2.951348192466814,2.126809515310803,1.4530949609262682,0.9908627229837712,0.5864213994270411,0.36636774088374197,0.17075194845579503,0.12378724325638685
0.0,78.0,78.0,0.0,120.0,0.0,0.0,0.0,0.0,-107.0,0.0,-45.0,0.0,0.0,0.0,34.27253218749016,17.55503396713325,8.331451486547277,6.61111115008569,5.561427859052241,4.661441363071034,3.6789069424094665,2.757369198540587,1.9195488642065608,1.1861201798841197,0.7648996417827623,0.5020443029561363,0.3050321853213329,0.11229915807122168,0.10163709080628525,0.05549526343020179,0.0688765632796829,9.832107895163828,8.622252263558826,7.79866600806799,6.996666995576779,6.002589522470931,5.01122729668791,3.8929485179356833,2.9804515559884295,2.1543159461747194,1.4878379813802356,0.9546448802465469,0.5900628200802005,0.3369510008738875,0.1981717439601121,0.14159527350429693
