Line_number,Fiducial,Easting,Northing,Height,Elevation,tx_pitch,tx_roll,tx_yaw,txrx_dx,txrx_dy,txrx_dz,rx_pitch,rx_roll,rx_yaw,PX,PZ,S0X_time_1.086e-05,S0X_time_3.256e-05,S0X_time_5.426e-05,S0X_time_8.680e-05,S0X_time_1.411e-04,S0X_time_2.279e-04,S0X_time_3.689e-04,S0X_time_5.860e-04,S0X_time_9.115e-04,S0X_time_1.411e-03,S0X_time_2.192e-03,S0X_time_3.418e-03,S0X_time_5.339e-03,S0X_time_8.301e-03,S0X_time_1.338e-02,S0Z_time_1.086e-05,S0Z_time_3.256e-05,S0Z_time_5.426e-05,S0Z_time_8.680e-05,S0Z_time_1.411e-04,S0Z_time_2.279e-04,S0Z_time_3.689e-04,S0Z_time_5.860e-04,S0Z_time_9.115e-04,S0Z_time_1.411e-03,S0Z_time_2.192e-03,S0Z_time_3.418e-03,S0Z_time_5.339e-03,S0Z_time_8.301e-03,S0Z_time_1.338e-02
0.0,0.0,0.0,0.0,120.0,0.0,0.0,0.0,0.0,-107.0,0.0,-45.0,0.0,0.0,0.0,34.27253218749016,17.55503396713325,1.686216053274933,1.5169545315556656,1.455862779359196,1.3905569713137997,1.310480749233627,1.2170837198925384,1.1083369877039657,0.9889103984612978,0.8635800170440232,0.7313917983190447,0.594756883061905,0.4604555561785427,0.336939119073488,0.23258068396870896,0.14542391326058202,3.2468508837943877,2.998572696029677,2.908718696843054,2.8119206201317493,2.69181925545321,2.5494059615400495,2.3800135336930137,2.1889110133117105,1.9816495837058608,1.7540905919258178,1.5069111039524081,1.2485937946225731,0.9925812203125974,0.7561572590850727,0.5358004154679611
0.0,1.0,1.0,0.0,120.0,0.0,0.0,0.0,0.0,-107.0,0.0,-45.0,0.0,0.0,0.0,34.27253218749016,17.55503396713325,1.5969569300137942,1.3681162392540678,1.3104413260131569,1.2512108883664008,1.1795006067488683,1.0963845110236654,0.9998630248902185,0.8939084178879299,0.7825946835625015,0.6649198464000079,0.5428661164064287,0.4223386502708582,0.3108398352000219,0.21597892586745562,0.13609453724546747,3.1356234329829515,2.78881866146316,2.699920487049626,2.6085829663174027,2.49690747734794,2.3654971493396855,2.209806777709537,2.034486951290523,1.8444376604497172,1.6356761708477388,1.4086084196624895,1.1707720491981883,0.9342903757470294,0.714970092365775,0.5094160948585219
0.0,2.0,2.0,0.0,120.0,0.0,0.0,0.0,0.0,-107.0,0.0,-45.0,0.0,0.0,0.0,34.27253218749016,17.55503396713325,1.5489169292811746,1.2418803697647234,1.1836995753586648,1.1292040476698666,1.0645192772269525,0.9901831360982241,0.9041739342425322,0.8098556227909728,0.7106973199346017,0.6056633897911974,0.4963748190347788,0.3879807595995096,0.28714712699301514,0.20078728537456256,0.12747733306830195,3.0810926270279198,2.607141767815336,2.512181697669499,2.4246543083674683,2.320136326347924,2.1984068818685705,2.05491061616209,1.8937103710495522,1.7191073802844863,1.5272573583291382,1.3183315765823642,1.0990308021887247,0.8802998222901001,0.6766074468738963,0.4846714752271083
0.0,3.0,3.0,0.0,120.0,0.0,0.0,0.0,0.0,-107.0,0.0,-45.0,0.0,0.0,0.0,34.27253218749016,17.55503396713325,1.5301475287556738,1.138452778536014,1.073506943248344,1.0221186190215792,0.9632856870966795,0.8964679322261007,0.819530010690434,0.735297184068602,0.6467137739205123,0.5527217692454252,0.45463767244611886,0.35695658050541323,0.2656066770145513,0.18686862026163656,0.11951008469501788,3.06701148771614,2.4572142417313523,2.3445904076913777,2.2582067691585928,2.15958303226707,2.046355749431866,1.913723572678419,1.7651756119293047,1.6044571413744484,1.4278463970385753,1.2353114568185317,1.0328109441339302,0.8302353082878797,0.6408403397737271,0.4614458455920775
0.0,4.0,4.0,0.0,120.0,0.0,0.0,0.0,0.0,-107.0,0.0,-45.0,0.0,0.0,0.0,34.27253218749016,17.55503396713325,1.530164419238375,1.0576835634097617,0.9786556116154558,0.9280206232715479,0.8739177637485339,0.8135447305474515,0.7444592767651992,0.6689961487312632,0.5896405158247355,0.5053205513030862,0.4170958138025979,0.3288946642951679,0.245994196646035,0.1741006667109738,0.11213662961634806,3.0787161219996433,2.3410972158333427,2.1975762328101998,2.1077935086836095,2.0135795187964236,1.9077792193058911,1.7848327880376926,1.6476394177711544,1.499421814325788,1.3365654308085944,1.1588621932784977,0.9716116131747365,0.7837595732577011,0.6074609049342212,0.4396286138942168
0.0,5.0,5.0,0.0,120.0,0.0,0.0,0.0,0.0,-107.0,0.0,-45.0,0.0,0.0,0.0,34.27253218749016,17.55503396713325,1.5414173246721075,0.9980063708364686,0.8984962111516698,0.845446811591879,0.7948418366789686,0.739981227733459,0.6777116444753968,0.6098972094565632,0.5386171922806555,0.46279199503489726,0.38326407630591236,0.3034699226866245,0.22811153955946875,0.16237427497952095,0.1053062167913212,3.105598702118586,2.2575242386009338,2.072133128119643,1.972564137987478,1.8806992011796337,1.7813012194736104,1.6669900485880857,1.5400005716236613,1.403055864030929,1.2526331355097333,1.0883712715020628,0.9149835029320973,0.7405683057827074,0.5762802379492978,0.4191183682551585
0.0,6.0,6.0,0.0,120.0,0.0,0.0,0.0,0.0,-107.0,0.0,-45.0,0.0,0.0,0.0,34.27253218749016,17.55503396713325,1.559044918346039,0.9566317671736055,0.8324071709570274,0.7733428756319454,0.724752125225345,0.6745628236084898,0.6182217004639966,0.557097126515633,0.49290401155355484,0.4245588169472149,0.3527202764725941,0.28039726257513964,0.21178335748295507,0.1515918694926603,0.09897293744540113,3.140846634335309,2.2025670656832643,1.9687485254380863,1.8521938395929591,1.759769704854575,1.665712749441731,1.5590910058777925,1.441282284420017,1.3145186764222165,1.175353086558286,1.0232908953763595,0.8625230002797342,0.7003865790955899,0.5471264788918496,0.39982203266600996
0.0,7.0,7.0,0.0,120.0,0.0,0.0,0.0,0.0,-107.0,0.0,-45.0,0.0,0.0,0.0,34.27253218749016,17.55503396713325,1.5801417562789726,0.9302226815825726,0.7794677161074465,0.7109270374698553,0.6625828924779514,0.6162574126114919,0.5650784513671409,0.5098204432081234,0.45186303983298004,0.3901206512476289,0.32509619538545254,0.2594261684387122,0.19685421808810039,0.14166610341123823,0.09309521976864543,3.180409498674222,2.171068299393911,1.8868432129070551,1.7466053631973628,1.6498895528920727,1.5599559630251951,1.4601574887299955,1.3506168857798286,1.23306181067746,1.1041036246311131,0.9631304472115108,0.8138670440596788,0.6629657045834205,0.5198431051561799,0.3816541065188025
0.0,8.0,8.0,0.0,120.0,0.0,0.0,0.0,0.0,-107.0,0.0,-45.0,0.0,0.0,0.0,34.27253218749016,17.55503396713325,1.6030696030847207,0.9154802559093631,0.7384084641695965,0.6575364412131968,0.6074778797374155,0.5641880418383138,0.5175006246749425,0.46739944771859276,0.41494267794025863,0.3590427206702129,0.3000699658928758,0.24033608134524218,0.1831861171114296,0.1325186817692906,0.08763538012486212,3.222019677622368,2.157794373398034,1.824806443897652,1.6556557549432072,1.5504093726967445,1.4631153748960959,1.3693224013481113,1.267232512915552,1.1580179194576152,1.0383290164432308,0.9074498961078055,0.7686886105518037,0.6280804511970073,0.49428741000277826,0.3645359793169046
0.0,9.0,9.0,0.0,120.0,0.0,0.0,0.0,0.0,-107.0,0.0,-45.0,0.0,0.0,0.0,34.27253218749016,17.55503396713325,1.6269522422629004,0.9094846402470973,0.707724495595817,0.6125152457490721,0.558749634800633,0.5176117337473217,0.47481639704510525,0.429257587841695,0.3816647280624355,0.33094632840046206,0.27735962958155136,0.22293244898533102,0.17065632721223528,0.12407933081477346,0.08255922432434598,3.264476435415287,2.158081912040325,1.7803364109643733,1.5789329871849043,1.4608673156297693,1.374413139738897,1.2858169358346945,1.190441585482078,1.0887910959761062,0.9775317405901722,0.8558540276409053,0.7266927445433158,0.5955265854255775,0.47032914532220077,0.34839531286616443
0.0,10.0,10.0,0.0,120.0,0.0,0.0,0.0,0.0,-107.0,0.0,-45.0,0.0,0.0,0.0,34.27253218749016,17.55503396713325,1.6513461456098086,0.9098313003259336,0.6858290859848942,0.5751625855043991,0.5158333049729812,0.4759017513415094,0.43644678369950124,0.39489569932438,0.3516135784682791,0.30550085561139384,0.2567176695502259,0.20704334215136205,0.1591555348476309,0.11628489425797159,0.07783569305624931,3.307181655355364,2.1680926393317455,1.7508240357271376,1.5156952776022579,1.3809010028356592,1.2932017871418875,1.2089602362337153,1.1196308175808316,1.024848452553044,0.9212657498304138,0.8079873856866666,0.6876130658316432,0.5651186923322035,0.4478493097200708,0.3331654838097394
0.0,11.0,11.0,0.0,120.0,0.0,0.0,0.0,0.0,-107.0,0.0,-45.0,0.0,0.0,0.0,34.27253218749016,17.55503396713325,1.676041565378764,0.9146410763809683,0.6711824026313816,0.5447279576310655,0.4782438698483544,0.43853099872987444,0.4018920896373935,0.36388052327262155,0.32442713134704526,0.282417006770899,0.2379263595771047,0.19251655034239673,0.1485862238697886,0.10907853978612436,0.07343654624286869,3.349860872638361,2.1848376494111523,1.7336546362606244,1.4649139053743627,1.3101657101200088,1.2189497895848767,1.1381513729261292,1.0542525325969123,0.9657127758107538,0.8691305776791975,0.7635298332445902,0.6512086902420696,0.5366882432757816,0.42673906529552813,0.3187850801397619
0.0,12.0,12.0,0.0,120.0,0.0,0.0,0.0,0.0,-107.0,0.0,-45.0,0.0,0.0,0.0,34.27253218749016,17.55503396713325,1.7009492972236924,0.9225056454754991,0.662375999331273,0.5204325946383308,0.4455432461131539,0.4050556531749592,0.3707208069810701,0.335835099519066,0.29978917169207403,0.26144109172484525,0.22079379828377269,0.17921708344489284,0.13886127081431063,0.1024090614852631,0.069336081749549,3.392405231027267,2.206088246627847,1.726400904632091,1.425364939001928,1.2482773863505556,1.1512200147865206,1.0728628488702328,0.9938171389123875,0.910956119827856,0.8207661754239491,0.7221926521488128,0.6172615123370542,0.5100818803961691,0.4068987684687003,0.30519744607686433
0.0,13.0,13.0,0.0,120.0,0.0,0.0,0.0,0.0,-107.0,0.0,-45.0,0.0,0.0,0.0,34.27253218749016,17.55503396713325,1.7260394217447979,0.932407197969758,0.6581769520968173,0.5014991563682134,0.4173191518181449,0.37509935395178295,0.34256033078566916,0.3104307177555612,0.2774229295918411,0.24235017217298957,0.2051505194954721,0.1670250183024142,0.1299027221197087,0.09623026577210994,0.06551088446297827,3.4347864009722886,2.2302434545218484,1.7269243726821846,1.3957288243995842,1.1947847964994078,1.0896445319869006,1.0126345495612377,0.937886690103217,0.8601942069900579,0.7758483838629905,0.6837151120053411,0.5855738041638189,0.4851598917620399,0.38823710195516836,0.29235027035065875
0.0,14.0,14.0,0.0,120.0,0.0,0.0,0.0,0.0,-107.0,0.0,-45.0,0.0,0.0,0.0,34.27253218749016,17.55503396713325,1.7513096937677113,0.9436343514611845,0.6575424224802894,0.48717926367548453,0.39317425828017255,0.34833878556879827,0.31708895772972123,0.28738017132437543,0.25708563247843674,0.22494793141504538,0.19084658838475274,0.15583363884816206,0.12164072795414764,0.0905004301266547,0.061939602241722874,3.4770129078126817,2.2561922227242404,1.7334127621770712,1.3746757370401856,1.149165766370229,1.0339000767122075,0.9570672715266773,0.8860694371435254,0.81308152316608,0.7340849585397164,0.6478614477241529,0.5559660905955246,0.4617948543789317,0.3706702965240039,0.2801952134598347
0.0,15.0,15.0,0.0,120.0,0.0,0.0,0.0,0.0,-107.0,0.0,-45.0,0.0,0.0,0.0,34.27253218749016,17.55503396713325,1.7767699683670806,0.9557056954570541,0.6596151042640402,0.4767743734772029,0.3727227058494201,0.3244913940469548,0.2940288004022834,0.26643209459337464,0.23856388163289696,0.20906115111804988,0.17774910812014819,0.1455478266519384,0.1140126110678861,0.08518182536787448,0.0586027456627963,3.5191087512356924,2.283189144751159,1.7443771604420775,1.360928901856022,1.110839116130042,0.983687453883894,0.9058154831903164,0.8380152162766021,0.7693070178994942,0.69521207751655,0.6144181932366054,0.5282752670784345,0.43987042512763114,0.35412143253137945,0.268687569958161
0.0,16.0,16.0,0.0,120.0,0.0,0.0,0.0,0.0,-107.0,0.0,-45.0,0.0,0.0,0.0,34.27253218749016,17.55503396713325,1.802434889100476,0.9683058892810187,0.6637075576075278,0.4696491526512393,0.3555910076148113,0.30330559626571996,0.27313942208673964,0.2473661889763675,0.2216697187887848,0.1945366987138615,0.1657400742615755,0.13608266551425158,0.10696205225409015,0.08024029346305074,0.0554825088545954,3.5611034505544055,2.3107513662110275,1.7586263746932842,1.3533061526847208,1.0791843318610321,0.9387164904346208,0.8585794704421343,0.7934114649749063,0.7285903414864161,0.6589912687818399,0.5831918263537723,0.5023529300405263,0.41928026221653414,0.3385198124098013,0.2577859622262859
0.0,17.0,17.0,0.0,120.0,0.0,0.0,0.0,0.0,-107.0,0.0,-45.0,0.0,0.0,0.0,34.27253218749016,17.55503396713325,1.828320636845492,0.9812354016552134,0.6692809892078345,0.46523825721978596,0.3414209909037405,0.2845534524235887,0.25421212205184546,0.2299891668293713,0.20623727360183464,0.1812389452020804,0.15471452448415715,0.12736222937994834,0.10043837667950123,0.0756448739331566,0.05256260903222507,3.6030276725608545,2.3385780514512735,1.7752300341468876,1.3507434351079366,1.0535631083971233,0.8986966790839629,0.8150973172313589,0.7519796539820444,0.6906785623486379,0.6252067020865386,0.5540066860126313,0.4780638940312139,0.3999270619243612,0.3238003963305317,0.2474520625649881
0.0,18.0,18.0,0.0,120.0,0.0,0.0,0.0,0.0,-107.0,0.0,-45.0,0.0,0.0,0.0,34.27253218749016,17.55503396713325,1.8544435804150217,0.9943728639110232,0.6759221573276228,0.46304799743677727,0.3298732106600573,0.2680255000376345,0.23706486575290325,0.21413127058475534,0.1921199016035094,0.16904754654967688,0.1445789397239291,0.11931852755448506,0.09439592761537417,0.07136747283783382,0.04982814263974414,3.644911455446531,2.3664904327289538,1.7934778287418642,1.3523047373468366,1.0333391754128902,0.8633327170399477,0.7751372452738778,0.7134719643315264,0.6553433103532547,0.593662797911014,0.5267031283421367,0.45528487299157994,0.38172169731237027,0.30990329416327905,0.23765034078535832
0.0,19.0,19.0,0.0,120.0,0.0,0.0,0.0,0.0,-107.0,0.0,-45.0,0.0,0.0,0.0,34.27253218749016,17.55503396713325,1.8808197725968636,1.0076480263907297,0.6833207442889042,0.46265435983149705,0.32062994670697875,0.2535273176043113,0.22153786961107613,0.19964325468679248,0.17918773645530556,0.15785553308989045,0.13524985984292537,0.11189058515569852,0.08879351602177675,0.06738256911568132,0.047265456255986875,3.6867835763153955,2.394388992380886,1.8128394394068321,1.3571825077041204,1.0178946487837595,0.8323237303444867,0.738490751161722,0.6776681030529703,0.6223782894084414,0.5641821138522874,0.501135892246485,0.4339033059789785,0.3645824472306455,0.29677330765205195,0.22834783477330223
0.0,20.0,20.0,0.0,120.0,0.0,0.0,0.0,0.0,-107.0,0.0,-45.0,0.0,0.0,0.0,34.27253218749016,17.55503396713325,1.9074647998942569,1.0210230439211772,0.6912485993117409,0.46369862472330253,0.31339738314102594,0.24087736719049757,0.20748983642987026,0.1863937463665151,0.16732559148750129,0.14756766064075538,0.12665268269625335,0.10502364005283948,0.08359393606926412,0.06366695373792057,0.04486203063934951,3.72867139115523,2.4222239985832084,1.8329278077903528,1.3646918080790815,1.0066423794520298,0.8053649374407589,0.7049668185035995,0.644372216557416,0.5915971008735974,0.5366034752315542,0.47717264881856464,0.41381631022475873,0.348434305367118,0.2843595174250284,0.21951394177177277
0.0,21.0,21.0,0.0,120.0,0.0,0.0,0.0,0.0,-107.0,0.0,-45.0,0.0,0.0,0.0,34.27253218749016,17.55503396713325,1.9343937691289763,1.0344799635439206,0.6995415896561017,0.46588154253813013,0.30790687134566486,0.22990571424003384,0.19479481317423844,0.17426692501607371,0.15643115490467277,0.13809898472068802,0.11872062029341861,0.09866844033607633,0.07876353806769515,0.06019949772209181,0.04260637647712113,3.7706008540573968,2.4499759189851464,1.8534670978124914,1.374260645048813,0.9990344818603211,0.7821506785520724,0.6743873141735564,0.6134099108563682,0.562831321107107,0.5107803217066781,0.4546927120854317,0.3949297466122938,0.3332083603253961,0.27261491007255734,0.21112022835938205
0.0,22.0,22.0,0.0,120.0,0.0,0.0,0.0,0.0,-107.0,0.0,-45.0,0.0,0.0,0.0,34.27253218749016,17.55503396713325,1.9616213410881762,1.048012628006496,0.7080843316439034,0.4689567861599721,0.3039153422026623,0.2204533021459391,0.1833396197251944,0.16316047758104346,0.14641343139738092,0.12937362546940043,0.11139378977163332,0.0927806287085771,0.07427185145188521,0.05696094556075943,0.04048794057119158,3.8125965956956582,2.4776428248133895,1.8742658239997947,1.3854182473745078,0.9945675623139977,0.7623779922674271,0.6465835398328929,0.5846254169871447,0.535928782428485,0.4865792451662954,0.43358589147023746,0.3771573845543842,0.31884123879794507,0.26149604107062807,0.20314025731303514
0.0,23.0,23.0,0.0,120.0,0.0,0.0,0.0,0.0,-107.0,0.0,-45.0,0.0,0.0,0.0,34.27253218749016,17.55503396713325,1.9891617768148162,1.0616216014657078,0.7167977588167275,0.47272419752703493,0.30120500548882645,0.2123715431428588,0.17302178114240496,0.15298379918839175,0.13719139049098716,0.12132369593634686,0.10461842028408089,0.08732020217153105,0.0700912514805955,0.05393373105964332,0.03849702133790518,3.8546820158506936,2.505232551776917,1.8951950473289272,1.3977825396987877,0.9927852750484567,0.7457501771837833,0.6213938168206886,0.5578789497457701,0.5107520157843012,0.46387869655295666,0.41375146896233944,0.3604201548644823,0.30527460484827096,0.25096272980562245,0.1955494297284604
0.0,24.0,24.0,0.0,120.0,0.0,0.0,0.0,0.0,-107.0,0.0,-45.0,0.0,0.0,0.0,34.27253218749016,17.55503396713325,2.017028984733125,1.0753110905365044,0.7256292894475485,0.47702319148788164,0.29958249339071313,0.20552206173416734,0.1637478883406919,0.1436564152708024,0.12869278880011928,0.1138883705196581,0.09834615975889197,0.08225103704131888,0.06619666416607867,0.051101812959714596,0.036624692628052194,3.8968793748112898,2.532757983123577,1.9161711922934208,1.411047672989057,0.9932788159118552,0.7319799943078028,0.5986619329011442,0.5330443032484793,0.48717682369326665,0.4425678410003236,0.39509728630351193,0.344645480601045,0.2924547091468375,0.24097778337703352,0.18832484093885452
0.0,25.0,25.0,0.0,120.0,0.0,0.0,0.0,0.0,-107.0,0.0,-45.0,0.0,0.0,0.0,34.27253218749016,17.55503396713325,2.045236565239311,1.0890871387619978,0.7345452523155008,0.48172655995229746,0.2988775967733255,0.1997764864422593,0.15543231186411663,0.1351066051396193,0.1208531393587518,0.1070130737406112,0.09253346788816942,0.07754047074945246,0.06256530468849925,0.0484505280470204,0.034862734985778326,3.9392098794804515,2.5602343127199556,1.9371428608168486,1.424972182122412,0.9956858892157961,0.7207923316649794,0.5782362642871162,0.5100067139806552,0.46509096192950083,0.4225455421988246,0.377538929501278,0.3297666770619852,0.2803319827348767,0.2315067462250198,0.18144514892048216
0.0,26.0,26.0,0.0,120.0,0.0,0.0,0.0,0.0,-107.0,0.0,-45.0,0.0,0.0,0.0,34.27253218749016,17.55503396713325,2.073797852166551,1.1029566073012176,0.743525193210426,0.48673482672335655,0.29894172322991575,0.19501622953511644,0.1479961985681553,0.12727020860800745,0.11361480629369036,0.10064877239299917,0.08714108372875243,0.07315893307317119,0.05917644518158335,0.04596645973926728,0.03320357356445596,3.981693763530529,2.5876775219807895,1.9580809606326066,1.439368124303129,0.9996885921341285,0.711926267826579,0.559969394877314,0.48866100602374946,0.4443929167231875,0.4037194584979263,0.3609989996669651,0.3157224131531923,0.26886067052876733,0.22251767295510644,0.17489045400710201
0.0,27.0,27.0,0.0,120.0,0.0,0.0,0.0,0.0,-107.0,0.0,-45.0,0.0,0.0,0.0,34.27253218749016,17.55503396713325,2.1027259512686594,1.1169266250343455,0.7525576931585422,0.4919712323346917,0.29964618360305983,0.19113222452042397,0.14136668934020544,0.12008959789533429,0.10692620729685338,0.09475135653862601,0.08213355799553775,0.06907962046332687,0.056011208318443695,0.04363732038577567,0.031640222004944187,4.024350361839159,2.6151035755367578,1.9789714868479522,1.454091390510163,1.0050105729988923,0.7051365443713093,0.5437180768103395,0.46891001773030544,0.42499077045541567,0.38600523502224665,0.3454064605677463,0.30245622727802096,0.2579985003360113,0.213980922019309,0.1686421888540892
0.0,28.0,28.0,0.0,120.0,0.0,0.0,0.0,0.0,-107.0,0.0,-45.0,0.0,0.0,0.0,34.27253218749016,17.55503396713325,2.132033775973855,1.1310043092105138,0.7616373647714576,0.49737737476346006,0.3008803925825172,0.1880246105457828,0.13547630569285102,0.11351279734576229,0.10074110968727758,0.08928109691572314,0.07747884155528345,0.06527820800550783,0.0530523835929282,0.04145184573256158,0.030166231658784168,4.06719817955438,2.642528026939411,1.999810362779393,1.4690332634531065,1.0114137430547325,0.7001944990595345,0.5293434045708426,0.4506632963599432,0.40680115284208723,0.36932577800867833,0.3306960544204544,0.2899160917122015,0.2477063836412508,0.20586896816614408,0.162683017699705
0.0,29.0,29.0,0.0,120.0,0.0,0.0,0.0,0.0,-107.0,0.0,-45.0,0.0,0.0,0.0,34.27253218749016,17.55503396713325,2.1617340806293637,1.1451966360468808,0.7707627416210368,0.5029094931187803,0.3025500505713776,0.18560236434418168,0.13026246284254245,0.10749273387106181,0.09501800844221975,0.08420216814320537,0.07314792282866373,0.06173259429376531,0.05028426359319797,0.03939970019147608,0.028775645606934238,4.110254956103277,2.6699658486766595,2.0205998352473333,1.4841132108143438,1.0186947574892387,0.6968885313776464,0.5167111037385109,0.43383603797522063,0.38974827671392664,0.353610599575548,0.31680777839192115,0.27805402015263586,0.23794814484649965,0.19815623179613082,0.15699674406627048
0.0,30.0,30.0,0.0,120.0,0.0,0.0,0.0,0.0,-107.0,0.0,-45.0,0.0,0.0,0.0,34.27253218749016,17.55503396713325,2.191839491425584,1.1595103907162794,0.7799348274855451,0.5085353548914467,0.3045753584487971,0.18378288652497768,0.1256670759099964,0.10198660166409718,0.08971957654678182,0.07948222867829631,0.06911450782001437,0.05842267513313069,0.04769249791013697,0.03747139171550881,0.027462956984812433,4.15353772443352,2.697431378837208,2.041346013467693,1.4992728451780881,1.0266814298173033,0.6950241779403622,0.5056918619053498,0.418348244261741,0.3737630581433051,0.3387952231010732,0.30368641505778093,0.2668257137674493,0.22869027602207653,0.1908189235582134,0.15156822612931542
0.0,31.0,31.0,0.0,120.0,0.0,0.0,0.0,0.0,-107.0,0.0,-45.0,0.0,0.0,0.0,34.27253218749016,17.55503396713325,2.222362535175381,1.173952156988234,0.7891561216214369,0.5142316908809458,0.3068893038456624,0.18249155176145074,0.12163623371123222,0.09695532566562405,0.08481217949485843,0.07509204984502549,0.06535473735073519,0.05533014253322709,0.04526396262176158,0.03565819522473146,0.026223071177640337,4.19706286577681,2.7249383245014345,2.062057229014847,1.514470946423962,1.0352292020031335,0.6944238728075808,0.4961616517415895,0.40412406542936574,0.35878232031565305,0.3248206412143624,0.2912811107535502,0.25619024163527054,0.21990171455119983,0.18383490269900932,0.1463832990589735
0.0,32.0,32.0,0.0,120.0,0.0,0.0,0.0,0.0,-107.0,0.0,-45.0,0.0,0.0,0.0,34.27253218749016,17.55503396713325,2.253315666121355,1.18852832510079,0.7984299795931911,0.5199821134063903,0.3094360466887407,0.18166123314217444,0.11811992109670469,0.09236310946076963,0.08026544689154554,0.07100518741810423,0.06184693680124671,0.0524383059239516,0.04298664355291596,0.0339520836518095,0.02505127149721017,4.240846160232002,2.7524997900388017,2.0827429715064945,1.5296794236307043,1.0442177590957216,0.6949264610486492,0.48800201418507355,0.3910912983007371,0.34474807961951975,0.3116328200129476,0.27954499636209945,0.24610975195032217,0.21155364133850277,0.17718354783382445,0.14142870370610103
0.0,33.0,33.0,0.0,120.0,0.0,0.0,0.0,0.0,-107.0,0.0,-45.0,0.0,0.0,0.0,34.27253218749016,17.55503396713325,2.2847112909427167,1.2032451069060068,0.8077602053175577,0.5257754509255713,0.3121694227118674,0.18123181055277438,0.11507177597114036,0.0881770546530259,0.0760518949603635,0.06719769024025832,0.05857139429000518,0.04973193292666898,0.04084953173309148,0.03234566578487428,0.023943187992919616,4.284902833470691,2.780128314371271,2.103413218574671,1.5448800874163322,1.0535478500191067,0.6963865254013223,0.4811002834425859,0.37918101039143765,0.3316069112744025,0.2991822444747597,0.2684348456429171,0.23654921079347793,0.2036192975062344,0.17084563894791346,0.13669202106651945
0.0,34.0,34.0,0.0,120.0,0.0,0.0,0.0,0.0,-107.0,0.0,-45.0,0.0,0.0,0.0,34.27253218749016,17.55503396713325,2.3165617921292934,1.2181085530599667,0.8171507987971626,0.5316044340055748,0.3150515761203164,0.1811496720112212,0.11244887112335314,0.08436684022459681,0.07214659442835471,0.06364784119024737,0.055510163754354636,0.047197107360230854,0.03884252966915275,0.030832130180921888,0.02289476908693528,4.329247599864643,2.8078359098258385,2.1240780294274373,1.5600621064476545,1.0631383542796153,0.6986735771134958,0.4753497454534873,0.3683272635913197,0.31930939067177494,0.28742350111874815,0.25791076673341956,0.22747616563535034,0.19607381772649146,0.16480324956062298,0.13216161201139345
0.0,35.0,35.0,0.0,120.0,0.0,0.0,0.0,0.0,-107.0,0.0,-45.0,0.0,0.0,0.0,34.27253218749016,17.55503396713325,2.348879549882257,1.2331245700059066,0.8266058062038174,0.5374646722406893,0.31805172644115964,0.18136721572825476,0.11021151399549042,0.08090445186248289,0.06852687880838927,0.06033592652231926,0.052646889861060364,0.044821102458591056,0.03695636721827533,0.02940519450651348,0.021902255756163218,4.373894702322206,2.835634099561824,2.1447473101881616,1.5752200305157793,1.0729236168361873,0.7016711538078336,0.4706497283439543,0.35846691444212214,0.30780960562557735,0.2763148948003913,0.24793592294600575,0.21886053105297726,0.18889407853704454,0.1590396480954035,0.1278265618205909
0.0,36.0,36.0,0.0,120.0,0.0,0.0,0.0,0.0,-107.0,0.0,-45.0,0.0,0.0,0.0,34.27253218749016,17.55503396713325,2.38167696269046,1.2482989359476764,0.8361292355303325,0.5433538680113811,0.3211450696580063,0.18184235948426297,0.10832305971610828,0.07776395264624152,0.06517208856335359,0.057244030184082445,0.049966652075520084,0.04259226753297294,0.03518252599307743,0.028059059735918858,0.02096215801284586,4.418857949103111,2.863533952618132,2.165430688086293,1.5903522746503649,1.0828510595608114,0.7052758598163819,0.46690562786938644,0.34953947157383186,0.2970647339938767,0.26581809713556986,0.23847627944706798,0.21067439441460625,0.1820585601653971,0.1535392075967956,0.12367662909979127
0.0,37.0,37.0,0.0,120.0,0.0,0.0,0.0,0.0,-107.0,0.0,-45.0,0.0,0.0,0.0,34.27253218749016,17.55503396713325,2.414966466718845,1.2636373156509066,0.8457250130480454,0.5492712200123818,0.32431180989293773,0.18253806279022236,0.10674973428957313,0.07492128781058262,0.06206334704947889,0.054355850206222384,0.04745582556687307,0.04049992653250353,0.03351317135876359,0.026788368701307654,0.020071233461519976,4.464150747859708,2.8915461164917073,2.186137452438022,1.6054599723778722,1.092879067067056,0.7093963779827464,0.4640288735137516,0.3414869943320537,0.2870346806692754,0.25589782446642706,0.22950037283340952,0.20289183952393966,0.17554722054320418,0.14828732302265832,0.11970219870152635
0.0,38.0,38.0,0.0,120.0,0.0,0.0,0.0,0.0,-107.0,0.0,-45.0,0.0,0.0,0.0,34.27253218749016,17.55503396713325,2.448760554132714,1.2791452741489537,0.8553969643061506,0.5552169765927574,0.3275363150458358,0.18342186626631887,0.10546046592967394,0.07235411748598022,0.059183364513419656,0.051656534660250476,0.045101956928753316,0.038534287148159325,0.031941091193634356,0.02558816854622191,0.019226467733100182,4.509786137130811,2.919680847450486,2.2068765350298922,1.6205461200876041,1.1029751367583562,0.7139524763811262,0.4619368423006388,0.33425401982344005,0.2776817677311506,0.24652154355609823,0.22097910101467846,0.19548878642244064,0.16934138033311108,0.14327033541749173,0.11589423830583766
0.0,39.0,39.0,0.0,120.0,0.0,0.0,0.0,0.0,-107.0,0.0,-45.0,0.0,0.0,0.0,34.27253218749016,17.55503396713325,2.4830717904694843,1.2948282894893701,0.8651488092699243,0.561192105707093,0.3308063878123694,0.18446545173495377,0.10442672327426203,0.07004167236986035,0.056516266769740565,0.049132535014072436,0.04289365295830694,0.03668635927025518,0.030459640681792893,0.02445387668344258,0.018425056617383345,4.555776815493194,2.94794803882949,2.2276565125755208,1.635614947664934,1.1131142773403493,0.7188740286569086,0.4605527278797158,0.3277875084277444,0.26897047157538556,0.237659203363813,0.2128855311649953,0.1884428457310611,0.16342361791449753,0.1384754623416725,0.11224425834823415
0.0,40.0,40.0,0.0,120.0,0.0,0.0,0.0,0.0,-107.0,0.0,-45.0,0.0,0.0,0.0,34.27253218749016,17.55503396713325,2.517912831158408,1.3106917646456528,0.8749841651368241,0.5671980544096812,0.334112642253229,0.18564422568168207,0.1036223597190829,0.06796462818743464,0.054047445517029585,0.04677147499218006,0.040820480964293616,0.0349478817532591,0.02906269249211276,0.02338124990226085,0.01766438973355448,4.602135168556248,2.9763572475186773,2.2484856206295265,1.6506714625471306,1.1232776363771935,0.7241000626427758,0.4598053723938112,0.3220368002342643,0.26086720104348804,0.22928299134144156,0.20519472382166834,0.18173318607530833,0.15777767338495854,0.1338907339929114,0.10874427501149403
0.0,41.0,41.0,0.0,120.0,0.0,0.0,0.0,0.0,-107.0,0.0,-45.0,0.0,0.0,0.0,34.27253218749016,17.55503396713325,2.5532964372788745,1.3267410386896763,0.8849065529531535,0.5732365762002036,0.33744797545396915,0.18693692798228614,0.10302346343750696,0.06610499557065254,0.05176342756368908,0.0445620332785495,0.038872879273017844,0.03331125656663906,0.02774459177215523,0.02236635630890014,0.016942035594580594,4.648873293967954,3.0049177187967353,2.269371772703706,1.6657211248826636,1.133451335398723,0.7295778484461816,0.45962906823142824,0.31695357685865255,0.2533401109169548,0.22136711273497744,0.19788357148374147,0.17534041328346628,0.1523883607323132,0.1295049345111248,0.1053867760239246
0.0,42.0,42.0,0.0,120.0,0.0,0.0,0.0,0.0,-107.0,0.0,-45.0,0.0,0.0,0.0,34.27253218749016,17.55503396713325,2.589235490639311,1.3429813972934392,0.8949194058012074,0.579309609112139,0.34080712367557425,0.18832526712140324,0.10260821286317125,0.06444602262682668,0.04965176052856577,0.04249383859476092,0.03704207677221933,0.031769489519435805,0.026500115451141865,0.021405549818018246,0.01625572793594367,4.69600302458478,3.0336384096224203,2.2903225810790846,1.68076962044944,1.1436254902582583,0.735262034253791,0.45996333618430174,0.3124918247104463,0.2463589455806925,0.21388759139134333,0.19093065029950662,0.16924646017942804,0.1472414874186713,0.12530754800689736,0.10216468903019683
0.0,43.0,43.0,0.0,120.0,0.0,0.0,0.0,0.0,-107.0,0.0,-45.0,0.0,0.0,0.0,34.27253218749016,17.55503396713325,2.6257430082512547,1.3594180826102304,0.905026077345065,0.5854191912492969,0.3441862926366362,0.18979358253415263,0.10235673754334214,0.06297210799900672,0.04770091285622736,0.04055737585084069,0.03532002048126464,0.0303161368415109,0.025324435403448513,0.020495446943434734,0.015603353192150057,4.743535949944476,3.062528010468976,2.311345377481449,1.695822705456839,1.1537933946057213,0.7411138355882936,0.46075268586412466,0.30860779705402575,0.23989490815280207,0.20682209057823062,0.18431608363243465,0.16343448591116563,0.14232378069499618,0.12128870889766166,0.09907135232214305
0.0,44.0,44.0,0.0,120.0,0.0,0.0,0.0,0.0,-107.0,0.0,-45.0,0.0,0.0,0.0,34.27253218749016,17.55503396713325,2.662832156266595,1.3760563025748547,0.9152298501302043,0.5915674035855807,0.3475828520860909,0.19132853418475196,0.10225098434882146,0.06166872265286202,0.04590018624105527,0.03874390220770496,0.033699310263989396,0.028945256987902204,0.02421308507449535,0.01963290566298752,0.014982939016079425,4.7914834361684155,3.091594965774889,2.3324472327659658,1.7108861034441643,1.163950845218275,0.7471002816296617,0.46194636355275154,0.3052599731841492,0.2339205508953419,0.20014975233331442,0.17802141646250724,0.15788878386457197,0.13762282003276388,0.11743915617511089,0.09610048773609511
0.0,45.0,45.0,0.0,120.0,0.0,0.0,0.0,0.0,-107.0,0.0,-45.0,0.0,0.0,0.0,34.27253218749016,17.55503396713325,2.7005162634402584,1.392901239657871,0.9255339433778671,0.5977563323320387,0.35099508553169345,0.1929188190531011,0.10227458906935888,0.06052233897443945,0.0442396387876868,0.03704537201254328,0.03217313991098093,0.02765136710596152,0.023161929215195515,0.01881500615610521,0.01439264374660506,4.839856644409113,3.120847493080716,2.3536349752976333,1.725965439357622,1.1740955892997387,0.7531935204335148,0.4634980920045299,0.3024090137706556,0.2284096832367994,0.19385105387594592,0.17202949971836082,0.15259469731149147,0.13312697511975646,0.11375019126274959,0.09324617554064409
0.0,46.0,46.0,0.0,120.0,0.0,0.0,0.0,0.0,-107.0,0.0,-45.0,0.0,0.0,0.0,34.27253218749016,17.55503396713325,2.7388088341754178,1.4099580591073653,0.9359415202003536,0.6039880451342853,0.3544219868091681,0.19455491382983944,0.10241275344356333,0.0595203660433946,0.04271001744750136,0.03545436967563202,0.030735243913321882,0.02642940366934291,0.022167136410123408,0.01803903323372127,0.013830746739211702,4.8886665479483655,3.150293600922426,2.3749152079915237,1.7410661997167578,1.184226875536839,0.7593701834084945,0.4653658061079695,0.30001771196148724,0.22333729423350385,0.18790767964277352,0.1663243837488671,0.14753854203083322,0.12882534892076958,0.11021363915436794,0.09050283115441847
0.0,47.0,47.0,0.0,120.0,0.0,0.0,0.0,0.0,-107.0,0.0,-45.0,0.0,0.0,0.0,34.27253218749016,17.55503396713325,2.77772356120368,1.4272319167119074,0.9464556942536949,0.610264576881417,0.3578630960501814,0.1962288428195517,0.10265212767686234,0.0586510901696658,0.04130269846197135,0.03396404965173678,0.029379849331936755,0.025274686839574553,0.021225154118929463,0.017302460298834747,0.013295639482641477,4.93792394804237,3.17994110555385,2.396294324101213,1.7561937107442274,1.1943450925380221,0.7656108082210455,0.46751138775512285,0.2980509402103843,0.21867948676145288,0.18230240754994864,0.1608912202347372,0.14270753522350654,0.1247077253518182,0.10682181255295314,0.087865183547561
0.0,48.0,48.0,0.0,120.0,0.0,0.0,0.0,0.0,-107.0,0.0,-45.0,0.0,0.0,0.0,34.27253218749016,17.55503396713325,2.817274337948501,1.4447279661187435,0.9570795358810924,0.616587922066585,0.361318368487573,0.19793396981693903,0.10298069849504758,0.0579036199587978,0.040009634714330986,0.03256808277357247,0.028101632237499903,0.024182888165866345,0.02033268598084906,0.016602934692633776,0.012785817432037553,4.987639488601686,3.2097976465723286,2.4177785218853773,1.7713531285908601,1.204451480165293,0.771899318351156,0.469900402762189,0.29647559305098675,0.21441342115388615,0.17701900813808716,0.1557161719150001,0.13808973011589784,0.12076452115911694,0.1035674787554541,0.08532825519342192
0.0,49.0,49.0,0.0,120.0,0.0,0.0,0.0,0.0,-107.0,0.0,-45.0,0.0,0.0,0.0,34.27253218749016,17.55503396713325,2.8574752706162627,1.4624513657414213,0.9678160778094489,0.6229600315118654,0.36478807038941724,0.1996648125470796,0.10338768276751525,0.05726783531149442,0.03882330904222148,0.031260608260425204,0.026895678257041696,0.023150001277815545,0.019486671158946818,0.015938264295885157,0.012299872495729782,5.037823669786138,3.239870701521912,2.4393738182829123,1.7865494374838018,1.2145479011174705,0.7782225567988957,0.4725018422313289,0.2952605262024965,0.21051726637960255,0.17204215532051245,0.15078632956323812,0.13367395571331733,0.11698674163229658,0.10044382905220493,0.08288734344852722
0.0,50.0,50.0,0.0,120.0,0.0,0.0,0.0,0.0,-107.0,0.0,-45.0,0.0,0.0,0.0,34.27253218749016,17.55503396713325,2.8983406900560156,1.4804072852905918,0.9786683204571508,0.6293828119176283,0.36827269721586964,0.20141687814282433,0.10386342671573522,0.05673433987410052,0.0377366926968168,0.030036190793183808,0.025757446816266818,0.022172315264483027,0.018684265524436885,0.015306405268495435,0.011836486118773908,5.088486860587864,3.270167599547202,2.461086061710195,1.8017874528804485,1.224636661875474,0.7845698709126186,0.47528787033760983,0.29437649248773845,0.20697015719098208,0.1673573475283101,0.14608963569710445,0.12944976122463425,0.11336593981560887,0.09744445043095742,0.08053800324933315
0.0,51.0,51.0,0.0,120.0,0.0,0.0,0.0,0.0,-107.0,0.0,-45.0,0.0,0.0,0.0,34.27253218749016,17.55503396713325,2.9398851634258167,1.4986009119608243,0.9896392369022435,0.6358581271706101,0.3717729098293082,0.20318651806356647,0.10439931070027238,0.05629441654482515,0.036743208249986496,0.028889782108715525,0.024682738712459226,0.021246390467570472,0.017922824502438563,0.014705450821894651,0.011394422911729993,5.139639310469204,3.3006955341683804,2.4829209440727613,1.8170718276260251,1.2347203737385808,0.7909327449494903,0.4782335801615598,0.2937960750914903,0.20375215596031074,0.16295083812514838,0.14161481454452732,0.1254073647327379,0.10989417891175227,0.09456329939455842,0.07827603102379947
0.0,52.0,52.0,0.0,120.0,0.0,0.0,0.0,0.0,-107.0,0.0,-45.0,0.0,0.0,0.0,34.27253218749016,17.55503396713325,2.982123505700778,1.5170374563048479,1.0007317775505224,0.6423878006868576,0.37528948525107997,0.20497080083347172,0.10498765955516975,0.055939985710604,0.03583669635167557,0.027816686622427717,0.02366766669267334,0.020369036446659786,0.017199887419136223,0.014133620929409882,0.010972524777978106,5.191291160116281,3.3314615752444383,2.504884012064176,1.8324070597698057,1.2448018461436987,0.7973044767627989,0.4813167588629057,0.2934936187001745,0.2008442181704481,0.15880957404814514,0.13735130782315924,0.12153760573286547,0.10656399760079033,0.09179467771853973,0.07609744972433365
0.0,53.0,53.0,0.0,120.0,0.0,0.0,0.0,0.0,-107.0,0.0,-45.0,0.0,0.0,0.0,34.27253218749016,17.55503396713325,3.0250707910554655,1.5357221578249103,1.0119488745346399,0.6489736183087904,0.3788232790443271,0.20676740098696594,0.10562165841271279,0.055663565945512215,0.03501138582653903,0.02681253063861167,0.0227086287466462,0.019537291901156422,0.016513163206882186,0.01358925288918241,0.010569705497195341,5.243452451363632,3.36247268018745,2.526980677809008,1.8477975011593162,1.254884005758388,0.8036798949146176,0.48451766320074674,0.2934451590544983,0.19822816073477692,0.154921141716221,0.13328921591783777,0.1178319012028209,0.1033683780218901,0.08913320999050353,0.07399849489653433
0.0,54.0,54.0,0.0,120.0,0.0,0.0,0.0,0.0,-107.0,0.0,-45.0,0.0,0.0,0.0,34.27253218749016,17.55503396713325,3.0687423641511105,1.5546602903090976,1.023293445868839,0.6556173314456579,0.38237519691307476,0.20857450264831331,0.10629527393549623,0.05545823694667759,0.03426186667343385,0.025873234754248436,0.021802283854237242,0.018748406357162135,0.01586051733850629,0.013070792662587821,0.01018494572652597,5.296133136340399,3.3937357044863568,2.549216228895575,1.8632473662543836,1.264969835973253,0.8100551125148977,0.4878188061467814,0.2936283514227398,0.1958866324955677,0.15127371933242117,0.1294192440653981,0.11428220490602241,0.10030071618847894,0.0865738227872591,0.07197560170518034
0.0,55.0,55.0,0.0,120.0,0.0,0.0,0.0,0.0,-107.0,0.0,-45.0,0.0,0.0,0.0,34.27253218749016,17.55503396713325,3.1131538513560852,1.5738571669383161,1.0347683993792085,0.6623206602635411,0.38594617354683564,0.2103907162340878,0.10700318084712142,0.05531760452002374,0.033583065595110075,0.024994989103719667,0.02094552995385679,0.017999823448291617,0.015239959875188662,0.01257678691862278,0.009817288384461869,5.3493430858835325,3.425257411594037,2.571595837836293,1.878760740822373,1.2750623323972543,0.8164273141685132,0.4912047551084317,0.29402239846972783,0.19380308639346494,0.1478560347898884,0.1257326531782082,0.110880969660747,0.09735479462820303,0.08411172535838374,0.07002539284538738
0.0,56.0,56.0,0.0,120.0,0.0,0.0,0.0,0.0,-107.0,0.0,-45.0,0.0,0.0,0.0,34.27253218749016,17.55503396713325,3.1583211719265143,1.5933181451877168,1.0463766364261458,0.669085296809739,0.38953715711285514,0.2122150068466725,0.10774069362850461,0.05523576745779409,0.0329702237397842,0.024174231129734394,0.02013548392186126,0.01728916563785568,0.014649634523972567,0.012105875721477574,0.009465834385634841,5.403092097259443,3.4570444822271873,2.594124570988656,1.8943415903221288,1.2851644707915486,0.8227945725523528,0.49466194207601344,0.29460797795948906,0.19196175291790274,0.14465732847136448,0.1222212149580509,0.10762111233725079,0.09452475705802828,0.08174239169640289,0.06814466727272106
0.0,57.0,57.0,0.0,120.0,0.0,0.0,0.0,0.0,-107.0,0.0,-45.0,0.0,0.0,0.0,34.27253218749016,17.55503396713325,3.204260549172365,1.613048631544151,1.0581210554336964,0.6759129080082709,0.39314909811133175,0.21404663301830523,0.1085037032242785,0.05520728617399551,0.03241887638244019,0.02340762559998653,0.01936946337365723,0.016614220246067773,0.014087808611408795,0.011656785804536354,0.00912973869755525,5.457389901230933,3.4891035231241174,2.61680739696694,1.9099937678788785,1.295279184577466,0.8291556913289331,0.49817848583044017,0.2953671706905907,0.19034761454272695,0.14166732030820264,0.11887717097100116,0.10449598136918482,0.09180508492202562,0.07946154388418251,0.06633038969138798
0.0,58.0,58.0,0.0,120.0,0.0,0.0,0.0,0.0,-107.0,0.0,-45.0,0.0,0.0,0.0,34.27253218749016,17.55503396713325,3.2509885216331496,1.6330540860593734,1.07000455523912,0.6828051384962975,0.3967829415693107,0.21588509456428234,0.10928861858360667,0.05522715298372903,0.031924834312858384,0.022692046619923092,0.018644970115732754,0.01597292666029623,0.013552863889159274,0.011228324379475315,0.008808206692915207,5.5122461685026725,3.5214410753016954,2.6396491945730505,1.925721021811576,1.3054093496366428,0.8355100713176514,0.5017440261939444,0.2962833890241537,0.18894638092666563,0.13887618053619083,0.11569319537217893,0.10149932658720456,0.08919057563511167,0.07726513661952114,0.06457968074453146
0.0,59.0,59.0,0.0,120.0,0.0,0.0,0.0,0.0,-107.0,0.0,-45.0,0.0,0.0,0.0,34.27253218749016,17.55503396713325,3.298521954286139,1.6533400267567886,1.0820300382752546,0.689763613291707,0.4004396217632863,0.21773008840690114,0.11009231284228743,0.05529076392867495,0.03148416673055949,0.02202456141979206,0.01795967509428282,0.015363364619095543,0.013043288095729296,0.010819373433986368,0.008500490773403526,5.567670515574697,3.55406362184893,2.6626547602739343,1.9415270027095504,1.3155577746012124,0.8418575970779972,0.5053495701744397,0.2973413063265358,0.1877444647178494,0.13627450365159516,0.11266236098689701,0.09862527120140044,0.08667632239032881,0.07514934282546179,0.06288980785510526
0.0,60.0,60.0,0.0,120.0,0.0,0.0,0.0,0.0,-107.0,0.0,-45.0,0.0,0.0,0.0,34.27253218749016,17.55503396713325,3.346878049808789,1.6739120339079634,1.094200413597642,0.6967899402940892,0.4041200588353738,0.2195814713354155,0.11091207393850729,0.05539389206435751,0.031093185474936634,0.021402415719068046,0.017311404700802387,0.014783743471984044,0.012557667205948753,0.010428884476019345,0.008205887243076675,5.623672510030106,3.5869775952914256,2.6858288152522367,1.957415270075132,1.325727195223468,0.8481985413011115,0.5089873497429698,0.2985267876121799,0.1867289578480668,0.13385328513149727,0.10977810847192641,0.09586828577542249,0.08425769540026197,0.07311054026253241,0.06125817666987881
0.0,61.0,61.0,0.0,120.0,0.0,0.0,0.0,0.0,-107.0,0.0,-45.0,0.0,0.0,0.0,34.27253218749016,17.55503396713325,3.3960743539322498,1.6947757472418432,1.1065186016484174,0.7038857123418517,0.4078251567999958,0.22143922878011751,0.11174555943903226,0.0555326621365454,0.03074843044254054,0.020823020493709203,0.016698128308234875,0.014232392326915418,0.012094678306540277,0.01005587368638174,0.007923733409697327,5.680261740887086,3.620189451331197,2.709175983235751,1.9733893047956812,1.3359202711164644,0.8545334846400302,0.5126506909303963,0.2998268216254704,0.18588760824081138,0.13160390053712553,0.10703421829755422,0.09322316404933045,0.08193032445509389,0.07114529906614644,0.0596823231160249
0.0,62.0,62.0,0.0,120.0,0.0,0.0,0.0,0.0,-107.0,0.0,-45.0,0.0,0.0,0.0,34.27253218749016,17.55503396713325,3.446128771587672,1.7159368653009606,1.1189875415401571,0.7110525077539387,0.4115558033274248,0.2233034485874755,0.11259075537968166,0.05570352658057863,0.03044665606342958,0.02028393999180807,0.01611794692306406,0.013707751006217444,0.0116530830420642,0.009699417445040121,0.007653404885586552,5.737448191438103,3.653705400307173,2.7327009555077035,1.9894524711373829,1.3461395900706643,0.8608632492150884,0.5163338933764005,0.30122945471049134,0.18520879685651961,0.12951808667392725,0.10442478530674307,0.09068500048062794,0.07969008269056298,0.06925037013868694,0.05815990624488574
0.0,63.0,63.0,0.0,120.0,0.0,0.0,0.0,0.0,-107.0,0.0,-45.0,0.0,0.0,0.0,34.27253218749016,17.55503396713325,3.4970596019218494,1.7374011962370324,1.1316101736429462,0.7182918974660693,0.4153128680006034,0.22517429964760574,0.1134459388121002,0.055903242782862406,0.03018481872893212,0.019782880859862472,0.015569082849788106,0.013208361739557722,0.011231721580964468,0.009358648199674547,0.007394313136559424,5.79524124333031,3.6875315207677306,2.756408385237151,2.005608064934632,1.3563876638876067,0.8671888426650359,0.5200321210407495,0.30272372630967437,0.18468151511188144,0.12758792450907253,0.10194419562659647,0.08824916938343161,0.07753307146889234,0.06742267433165954,0.056688700426700975
0.0,64.0,64.0,0.0,120.0,0.0,0.0,0.0,0.0,-107.0,0.0,-45.0,0.0,0.0,0.0,34.27253218749016,17.55503396713325,3.5488855393549765,1.7591746070676808,1.1443894472610259,0.725605450856203,0.41909720183319077,0.22705201391425392,0.11430964398050547,0.056128851537394026,0.029960065075059317,0.019317682259060154,0.015049870273414014,0.012732861529576074,0.010829507056209773,0.009032750647896496,0.0071459031949567845,5.85365037915359,3.721674203365333,2.7803024580219886,2.0218594770365668,1.3666669114196799,0.8735114100296825,0.5237413043763087,0.3042996060318089,0.18429534269950043,0.12580582359173093,0.09958710572212592,0.08591130555533487,0.0754556062846236,0.06565929235851387,0.05526658960445788
0.0,65.0,65.0,0.0,120.0,0.0,0.0,0.0,0.0,-107.0,0.0,-45.0,0.0,0.0,0.0,34.27253218749016,17.55503396713325,3.6016256347872457,1.781263054594891,1.1573283504535654,0.7329947193642812,0.42290964148573756,0.2289368717870052,0.11518063148043496,0.056377656764674475,0.02976972101605946,0.018886306868634996,0.014558746673974585,0.012279975132023838,0.01044542043939668,0.00872095820709409,0.006907651380582185,5.912684861991839,3.7561397876671094,2.8043876546280924,2.0382098674876596,1.376979702410054,0.87983220252406,0.5274580450706144,0.3059479347143176,0.18404042536698148,0.12416450784414772,0.09734842338451336,0.08366728629115722,0.07345420361567036,0.0639574553831653,0.05389156024360511
0.0,66.0,66.0,0.0,120.0,0.0,0.0,0.0,0.0,-107.0,0.0,-45.0,0.0,0.0,0.0,34.27253218749016,17.55503396713325,3.655299343133267,1.803672583889932,1.1704298930732382,0.7404612492775834,0.4267510079889973,0.23082919012606404,0.11605786081090592,0.05664720624194376,0.0296112814977133,0.018486832673383562,0.014094244997033375,0.011848508597543403,0.010078505811070552,0.008422549748277214,0.006679063384195112,5.972353850452481,3.7909346297222917,2.828668438126475,2.0546623215875823,1.387328341770603,0.8861525440508656,0.5311795364302051,0.3076603658469176,0.18390745337039763,0.12265700241125695,0.09522329049213477,0.08151321468713904,0.07152556864649555,0.06231453623447329,0.05256169604412745
0.0,67.0,67.0,0.0,120.0,0.0,0.0,0.0,0.0,-107.0,0.0,-45.0,0.0,0.0,0.0,34.27253218749016,17.55503396713325,3.7099265582898298,1.8264093129439487,1.1836971014531275,0.7480065927330823,0.4306221049080604,0.23272931295391466,0.11694046565783578,0.056935273425310295,0.029482400883716675,0.018117445455958954,0.01365498650930312,0.011437343327384565,0.00972786599352248,0.008136846572322207,0.00645967243653032,6.03266681933412,3.826065102170589,2.853149053619013,2.071219909358793,1.397715070294431,0.8924738071028147,0.5349034889734456,0.3094293101745256,0.18388764008493536,0.12127662151029693,0.09320706736286645,0.07944540414910062,0.0696665837976529,0.06072804120000152,0.051275173336234964
0.0,68.0,68.0,0.0,120.0,0.0,0.0,0.0,0.0,-107.0,0.0,-45.0,0.0,0.0,0.0,34.27253218749016,17.55503396713325,3.765527668417912,1.8494794571976614,1.1971330267275955,0.7556323030556552,0.4345237210575408,0.23463760346809495,0.11782773171412965,0.05723984036762848,0.029380883904797046,0.01777643192362427,0.01323967427488815,0.011045430599896506,0.009392658515450908,0.007863209608955472,0.006249037488612586,6.093633345561465,3.8615376702789543,2.8778336204714163,2.087885643267882,1.408142073420553,0.8987973940994819,0.5386280636704674,0.3112478826077392,0.18397270098094767,0.12001695711226576,0.09129531854996342,0.0774603640219336,0.06787429800152975,0.05919560235655736,0.050030255531819154
0.0,69.0,69.0,0.0,120.0,0.0,0.0,0.0,0.0,-107.0,0.0,-45.0,0.0,0.0,0.0,34.27253218749016,17.55503396713325,3.8221235679165027,1.872889431089136,1.2107407571043078,0.7633399077343207,0.4384566433068528,0.2365544353292145,0.11871907708815377,0.05755908169208847,0.029304677113382967,0.017462173406835677,0.012847087193603404,0.010671786528595656,0.009072091880676238,0.007601036820531589,0.006046741581885008,6.155262366506949,3.8973582634971526,2.9027267479553482,2.104662522168211,1.4186114535221108,0.9051247122944766,0.5423518216281636,0.3131098487497698,0.18415483353016293,0.11887186824194503,0.0894837999564557,0.07555478626211366,0.06614591666929587,0.05771497039863526,0.04882528704140992
0.0,70.0,70.0,0.0,120.0,0.0,0.0,0.0,0.0,-107.0,0.0,-45.0,0.0,0.0,0.0,34.27253218749016,17.55503396713325,3.8797355054351077,1.8966455220891014,1.2245233798505821,0.7711309681554728,0.44242163495911185,0.23848019245656063,0.11961403431938822,0.057891349358132824,0.029251860895320128,0.017173140046594114,0.012476074555232735,0.010315487414605813,0.00876542211595078,0.007349760794264435,0.005852390836031551,6.217563081592062,3.9335332854915768,2.9278326034275093,2.121553505863415,1.4291252725991905,0.9114571741912338,0.5460736596733587,0.31500958005464735,0.1844266962130248,0.11783547114264765,0.08776844708582074,0.07372553308793008,0.06447879229987986,0.0562840079272133,0.04765869120995704
0.0,71.0,71.0,0.0,120.0,0.0,0.0,0.0,0.0,-107.0,0.0,-45.0,0.0,0.0,0.0,34.27253218749016,17.55503396713325,3.938384567923297,1.9207543741404984,1.2384840402234019,0.7790070238407879,0.44641945879482486,0.24041526076886927,0.12051223532395726,0.05823515851331254,0.029220641854502766,0.01690788545918894,0.012125551052358357,0.00997566546304538,0.008471949574550644,0.007108846507896037,0.005665613149900993,6.280544652563749,3.970068825847648,2.9531555596133257,2.1385614673091062,1.4396855477161246,0.9177961834709177,0.5497927673415426,0.31694200678999046,0.18478138887280646,0.11690212981377979,0.08614536437657883,0.07196962553275604,0.06287041568457846,0.05490068316713255,0.04652896395023639
0.0,72.0,72.0,0.0,120.0,0.0,0.0,0.0,0.0,-107.0,0.0,-45.0,0.0,0.0,0.0,34.27253218749016,17.55503396713325,3.9980931244495745,1.9452223990850164,1.2526260553393713,0.7869695893221442,0.4504508679188454,0.24236002831313838,0.12141339688647551,0.05858917427723389,0.02920934563394429,0.016665041802873284,0.011794492217038242,0.00965150483160362,0.00819101597521641,0.006877789255138905,0.005486055785528051,6.344216735887357,4.006971250343706,2.9786998074493027,2.15568929050735,1.4502942359695679,0.9241431301508792,0.5535085853770424,0.31890257448257847,0.1852124332719235,0.11606644706569909,0.08461081548145802,0.07028423284218718,0.0613184076661865,0.05356306408140404,0.04543467075399355
0.0,73.0,73.0,0.0,120.0,0.0,0.0,0.0,0.0,-107.0,0.0,-45.0,0.0,0.0,0.0,34.27253218749016,17.55503396713325,4.058883883489929,1.970056524656762,1.2669525679825755,0.7950202599159014,0.45451658480813073,0.24431488651015684,0.1223173084504051,0.05895219912195412,0.029216410188378738,0.01644331520012736,0.011481930242508554,0.009342237984336269,0.007922001657356311,0.006656112718423855,0.00531338421334071,6.40858896430994,4.04424739707386,3.0044698097241946,2.1729394237765813,1.4609533726351958,0.930499346465982,0.5572207869846395,0.32088719733888976,0.18571375520394565,0.11532325579616903,0.08316121443015033,0.06866666265254738,0.059820511413780066,0.05226931285504682,0.04437444469635485
0.0,74.0,74.0,0.0,120.0,0.0,0.0,0.0,0.0,-107.0,0.0,-45.0,0.0,0.0,0.0,34.27253218749016,17.55503396713325,4.120780110629021,1.9952637255382053,1.281466763232267,0.8031606045717187,0.4586173504467267,0.24628021531695338,0.1232238235975896,0.059323161248070556,0.029240379267874428,0.016241481540976512,0.011186950139736956,0.00904714232923983,0.007664323034623864,0.006443367177420396,0.005147281610246639,6.473670446396928,4.081903104704748,3.0304696215439426,2.190314951966739,1.4716647588547909,0.9368661993305004,0.5609291975023614,0.32289223503979675,0.18627966261112403,0.11466761145260487,0.08179311743166703,0.0671143519126533,0.05837458518074523,0.05101768071818909,0.0433469789052056
0.0,75.0,75.0,0.0,120.0,0.0,0.0,0.0,0.0,-107.0,0.0,-45.0,0.0,0.0,0.0,34.27253218749016,17.55503396713325,4.18380567447617,2.020850955099176,1.2961719543940406,0.8113921886707102,0.4627538955666345,0.24825639284724693,0.12413284840106742,0.059701103935555604,0.029279896352060613,0.016058382542667633,0.01090868622276424,0.008765537110378897,0.007417430232473656,0.006239127842851258,0.004987447566154549,6.5394704046729455,4.1199445154355425,3.05670344561813,2.207818706951842,1.482430218223418,0.9432450102895333,0.5646338057277775,0.32491444359263455,0.18690483016374337,0.11409478372720672,0.08050321553701104,0.0656248584629747,0.05697859550966869,0.049806503091812185,0.042351027059612974
0.0,76.0,76.0,0.0,120.0,0.0,0.0,0.0,0.0,-107.0,0.0,-45.0,0.0,0.0,0.0,34.27253218749016,17.55503396713325,4.2479849647661325,2.046825123169358,1.3110716576394632,0.8197165235193811,0.46692695978580984,0.25024379104109323,0.12504433354006642,0.060085175545266635,0.02933369882796456,0.015892922112017267,0.01064631887202433,0.008496780539502693,0.007180804894054284,0.006042993306007401,0.004833597756532082,6.605997605068282,4.1583781290227355,3.083175449219278,2.2254534257649716,1.4932515481381594,0.9496370704813449,0.5683347315633885,0.3269509436564707,0.18758428108309963,0.11360024914511557,0.07928832782478425,0.064195853254044,0.055630610858228874,0.04863419502715692,0.04138539978712313
0.0,77.0,77.0,0.0,120.0,0.0,0.0,0.0,0.0,-107.0,0.0,-45.0,0.0,0.0,0.0,34.27253218749016,17.55503396713325,4.313342605351025,2.0731935004174655,1.3261690522355467,0.8281352704490194,0.4711372343070347,0.2522427842138092,0.1259582669768228,0.06047461982540196,0.029400612602666736,0.015744062921360998,0.01039907156615488,0.0082402671441646,0.006953958142068393,0.0058545840951925495,0.004685463789457438,6.673261299899588,4.197210080240741,3.109889821050912,2.2432218715330348,1.5041305201414281,0.9560436333037037,0.5720322052042217,0.3289991890437127,0.18831336981125144,0.11317968386572665,0.07814539514568829,0.06282511314785301,0.05432879561713252,0.04749924692084349,0.040448961735842136
0.0,78.0,78.0,0.0,120.0,0.0,0.0,0.0,0.0,-107.0,0.0,-45.0,0.0,0.0,0.0,34.27253218749016,17.55503396713325,4.379903786386926,2.0999632242863613,1.3414675286881717,0.8366500384437873,0.4753854293698774,0.2542537357072951,0.12687466902824523,0.060868767410773676,0.029479546797909963,0.015610823263998153,0.010166208137463181,0.007995425319476944,0.006736428683814974,0.005673541330874331,0.0045427917084186736,6.7412707965575125,4.236446888196292,3.136850799252292,2.2611267399400994,1.5150688782971353,0.9624659239301717,0.5757265447719738,0.33105693784483936,0.1890877651625717,0.11282895672387092,0.07707147436650806,0.06151051425804988,0.05307140449580587,0.04640022048632817,0.03954062640150288
