Line_number,Fiducial,Easting,Northing,Height,Elevation,tx_pitch,tx_roll,tx_yaw,txrx_dx,txrx_dy,txrx_dz,rx_pitch,rx_roll,rx_yaw,PX,PZ,S0X_time_1.086e-05,S0X_time_3.256e-05,S0X_time_5.426e-05,S0X_time_8.680e-05,S0X_time_1.411e-04,S0X_time_2.279e-04,S0X_time_3.689e-04,S0X_time_5.860e-04,S0X_time_9.115e-04,S0X_time_1.411e-03,S0X_time_2.192e-03,S0X_time_3.418e-03,S0X_time_5.339e-03,S0X_time_8.301e-03,S0X_time_1.338e-02,S0Z_time_1.086e-05,S0Z_time_3.256e-05,S0Z_time_5.426e-05,S0Z_time_8.680e-05,S0Z_time_1.411e-04,S0Z_time_2.279e-04,S0Z_time_3.689e-04,S0Z_time_5.860e-04,S0Z_time_9.115e-04,S0Z_time_1.411e-03,S0Z_time_2.192e-03,S0Z_time_3.418e-03,S0Z_time_5.339e-03,S0Z_time_8.301e-03,S0Z_time_1.338e-02
0.0,0.0,0.0,0.0,120.0,0.0,0.0,0.0,0.0,-107.0,0.0,-45.0,0.0,0.0,0.0,34.27253218749016,17.55503396713325,4.599848140989688,2.682009610563838,2.192373436976624,1.8382236035197297,1.3928883882141825,0.9754125640388527,0.6457757041064669,0.3882116107502137,0.27977151347727597,0.19351171109419596,0.08277595401824908,0.05612811776251938,-0.0720341702514099,-0.027753523417275806,0.09287882505009377,6.964797817041749,4.879976353833309,4.212009381171211,3.7378703852868673,3.1629032755642745,2.5085804232488518,1.8612354069866281,1.3262778795878851,0.8791543641767038,0.5749848505776328,0.3236810498923259,0.16986490413563196,0.09638287408300811,0.048928461856281816,0.036593016964754144
0.0,1.0,1.0,0.0,120.0,0.0,0.0,0.0,0.0,-107.0,0.0,-45.0,0.0,0.0,0.0,34.27253218749016,17.55503396713325,4.586743550304003,2.6679503605198107,2.2238120943547908,1.8597142536285274,1.354642307658736,1.0745461284760518,0.6832224730538674,0.40208492147558034,0.2006555278854108,0.12537092813284975,0.04188194260075062,0.02092319910380374,-0.0025790722907898488,0.01992853811159625,-0.02286550321672757,6.864168561233487,4.890937217365718,4.317508183209332,3.792375837638569,3.242803980786703,2.6510354130478264,1.973501990653522,1.4054214745856768,0.9355271454046241,0.6419806709914213,0.360377925064606,0.2022909806294207,0.10853691318886417,0.08173160757298573,0.037752762335501
0.0,2.0,2.0,0.0,120.0,0.0,0.0,0.0,0.0,-107.0,0.0,-45.0,0.0,0.0,0.0,34.27253218749016,17.55503396713325,4.542268102707206,2.5760167422086995,2.2049894213250503,1.8486558554181611,1.468500449588396,1.0652461526954746,0.7357094479246826,0.4004253938593601,0.27993830662842045,0.11870883472870261,0.04993283948100173,-0.023444272508734203,-0.11666485952184451,0.0039475449399124125,-0.008886520003404948,6.96264840064726,4.97398734765599,4.345451408684061,3.8802116228138894,3.2852280596771424,2.7285005259219557,2.0563091401179396,1.4461152292859119,1.0038410011295942,0.6537776684187094,0.37993867779621016,0.2121966231628131,0.1305757531086647,0.052325815815679175,0.0073218794142209526
0.0,3.0,3.0,0.0,120.0,0.0,0.0,0.0,0.0,-107.0,0.0,-45.0,0.0,0.0,0.0,34.27253218749016,17.55503396713325,4.626591043055154,2.707979359871748,2.211785730624489,1.8695845667959352,1.5454230868595344,1.1781726393278775,0.7676894128165581,0.4843725509925175,0.2699005288237392,0.1570780236783982,0.017139619911475508,0.08071143060613657,0.0017345062102124172,-0.005968636286327561,-0.03338528790149782,6.913907034245165,4.992212823389181,4.385193288060573,3.872422756270541,3.3463099873711957,2.7251856925438567,2.097620567012569,1.5250482776129328,1.0700296717120303,0.672402185466913,0.40571030977589495,0.24245107396341328,0.09447229844668048,0.110291037241457,0.016926407831638745
0.0,4.0,4.0,0.0,120.0,0.0,0.0,0.0,0.0,-107.0,0.0,-45.0,0.0,0.0,0.0,34.27253218749016,17.55503396713325,4.5923882429169955,2.705809946120777,2.2623643601027834,1.9273375825166486,1.4996844507229519,1.1598559693665003,0.7471238443127615,0.553773170783326,0.270629938277647,0.11253551309983499,0.09361641721583218,0.046428937293781586,-0.030070818150033457,0.05496497330458606,0.0010397653529858977,6.949004603999384,5.0093873078519575,4.383975714736167,3.891354395836518,3.3482502496252344,2.7821111234227685,2.1778916959186003,1.6084432909888795,1.1252730050844655,0.7175731084809357,0.42378642327143295,0.2513895911888242,0.13498731717588344,0.04207216912188548,0.05546340755118782
0.0,5.0,5.0,0.0,120.0,0.0,0.0,0.0,0.0,-107.0,0.0,-45.0,0.0,0.0,0.0,34.27253218749016,17.55503396713325,4.548640382477281,2.714384018224246,2.2600610127585687,1.9194857403336776,1.5101603798915273,1.2079090659549416,0.8791796626796942,0.5047785852232419,0.31339880047188345,0.21121865780964155,0.08369837592623605,0.05936671120553208,0.07440763949894426,0.00017831471722752883,0.03828242480580618,6.945315530033079,5.035224574470984,4.401940819817025,3.880213482097648,3.360030366030705,2.793096723994616,2.239480487795511,1.6653721111692303,1.10732845022482,0.7667303629540594,0.4449482182281482,0.26028594625272156,0.16133209454760541,0.08621014263188805,0.05528950741614805
0.0,6.0,6.0,0.0,120.0,0.0,0.0,0.0,0.0,-107.0,0.0,-45.0,0.0,0.0,0.0,34.27253218749016,17.55503396713325,4.580444317677727,2.805480672608952,2.272018456263924,1.9248226642932638,1.5910853396080136,1.1356584009079904,0.9065100214010893,0.6094700707672441,0.40514331766342015,0.17441240282734216,0.14062778011052715,0.06830752623724021,0.017890037215742387,0.046175874233646434,-0.025981301990630378,6.971796918743574,5.033775771935037,4.413841388592088,3.9229456648605834,3.4329182772028664,2.840898359882948,2.2211420940432953,1.7156786346678246,1.2176373601512824,0.7916205439850773,0.4957282523819889,0.24313779198734156,0.14207934918896914,0.05028304390205342,0.06658876430864505
0.0,7.0,7.0,0.0,120.0,0.0,0.0,0.0,0.0,-107.0,0.0,-45.0,0.0,0.0,0.0,34.27253218749016,17.55503396713325,4.614047292056803,2.7424005307142787,2.303116416984107,1.936717219823524,1.6360248182933563,1.2253044772279078,0.9136337385030107,0.546727015287575,0.4519238206452038,0.168947837718669,0.02562137529770822,0.07500528431300485,0.02055780619001875,-0.0029146524749544163,0.03442020102259252,6.971236013697862,5.083023529249931,4.429959082374639,3.920976877134289,3.457508755873495,2.8889129312283477,2.282233455484173,1.759097962426017,1.2630994708442802,0.8443276013542934,0.500989157113873,0.2861055744653131,0.14214559579071315,0.03428155297712923,0.026551834514016097
0.0,8.0,8.0,0.0,120.0,0.0,0.0,0.0,0.0,-107.0,0.0,-45.0,0.0,0.0,0.0,34.27253218749016,17.55503396713325,4.608537565943503,2.8698454399507676,2.3464186715270405,2.016164931380877,1.534244710500222,1.2284535736644613,0.8759776845146567,0.6407881514350711,0.4400510916172714,0.19358661943159738,0.09169794917738569,0.01695759538704493,0.0033041892637596694,0.03643501654143533,0.1319013030220371,7.017845439167605,5.078214010535281,4.485259537329213,3.982226256764246,3.4777684742682986,2.929400731606671,2.3375468529138885,1.7639103243680718,1.2835151144816714,0.8260960403453994,0.5091692928780807,0.2783717559512925,0.17799310061514934,0.037394030251725704,0.06411674570737307
0.0,9.0,9.0,0.0,120.0,0.0,0.0,0.0,0.0,-107.0,0.0,-45.0,0.0,0.0,0.0,34.27253218749016,17.55503396713325,4.627114827284051,2.87463705860101,2.3948862921871186,1.9896735005864172,1.5771797851321707,1.2189960645835607,0.941903492801691,0.6457889820728041,0.3462604469425701,0.17057494379606475,0.05179395208075567,0.13138226261260905,0.07046647606973887,0.004751633037798638,0.019784297249663362,6.972225433223645,5.0656475244389325,4.522938154915892,3.9672860803410583,3.45932419843307,2.9174266718421245,2.353162611368557,1.7953704106437456,1.292476025865272,0.8932701410691852,0.5478172259536024,0.2896477432123054,0.1589757308167775,0.062494211661149754,0.023980631731451874
0.0,10.0,10.0,0.0,120.0,0.0,0.0,0.0,0.0,-107.0,0.0,-45.0,0.0,0.0,0.0,34.27253218749016,17.55503396713325,4.633559632808093,2.811817641259239,2.4054256568929775,2.01398708899522,1.6082037500009732,1.2080593728752684,0.9367520067640183,0.6567858070103204,0.4123291181022319,0.22040276235479045,0.13550132666368095,-0.005947937945053536,0.02786717280566458,0.0661480515762706,-0.009831029449799362,6.969410840908377,5.152434541314079,4.582949446207613,4.046619720818208,3.542090579636156,2.934188078175947,2.3354800391209807,1.8217496337620813,1.3422753772412557,0.9344544280676831,0.5591244002206749,0.3295013100480122,0.15764568978637414,0.10011169494433549,0.030294083749170857
0.0,11.0,11.0,0.0,120.0,0.0,0.0,0.0,0.0,-107.0,0.0,-45.0,0.0,0.0,0.0,34.27253218749016,17.55503396713325,4.690381292578801,2.88039038167013,2.3769190035522048,2.0635390811584373,1.647568784558283,1.2956309062326052,0.9666255246916752,0.6449246540270342,0.35708859891441763,0.294395462834528,0.12995770517365643,0.07999641222345573,0.0002182730622881865,0.00890078801061544,-0.047565009588553704,6.975864999624085,5.160303109368434,4.591243649625734,4.128415671469288,3.5483988558746877,2.964623334325067,2.3545805259248027,1.8373327357752056,1.3300891458688522,0.9130585607891191,0.594494361116859,0.3531748115229781,0.13503341893869594,0.07574387997651583,0.04903939307229066
0.0,12.0,12.0,0.0,120.0,0.0,0.0,0.0,0.0,-107.0,0.0,-45.0,0.0,0.0,0.0,34.27253218749016,17.55503396713325,4.647599249103121,2.982301199525577,2.4505833809103197,2.066159267562034,1.742252717457459,1.2993431737264198,0.9686461760504012,0.6855252359063329,0.42362190307701797,0.2891585225204543,0.11816511724658173,-0.04800547554266139,0.015704345693018668,0.009787999162513085,-0.0008868570406138252,6.949935999559549,5.222377853733656,4.579004707086541,4.1290466362089155,3.542070446082931,2.992224978845399,2.4209330425672113,1.8862791906115774,1.3632780599384495,0.9424922447937258,0.6117802035097601,0.31058921325721517,0.15647636012666663,0.08860947454489489,0.039518519753825886
0.0,13.0,13.0,0.0,120.0,0.0,0.0,0.0,0.0,-107.0,0.0,-45.0,0.0,0.0,0.0,34.27253218749016,17.55503396713325,4.620222803287442,2.9042410138367494,2.505022818874189,2.050228267574967,1.6546658668899954,1.3140446990518801,0.9178567624830328,0.6321986225546429,0.4239011526980639,0.23955016769582377,0.12794444198965568,-0.006209065172118375,0.09266301871682589,-0.09055403502183361,0.021174710623017696,7.001110887042114,5.221197761307459,4.635684839363177,4.138044036238123,3.571370695477904,3.031391281938425,2.4289065043680718,1.894413547558336,1.41920497143211,0.9686847007820736,0.6344879731068529,0.3476288230706997,0.16897467127195,0.1338028065685271,0.04599322534230172
0.0,14.0,14.0,0.0,120.0,0.0,0.0,0.0,0.0,-107.0,0.0,-45.0,0.0,0.0,0.0,34.27253218749016,17.55503396713325,4.583467526256515,2.978128391349463,2.49633816561015,2.1356729616813186,1.7520552072999067,1.3532091961889037,0.9942992864960302,0.6825825458297442,0.45477656530353094,0.24313559262003312,0.1757376805407594,0.11739669010223638,0.058595059384984716,0.03732530372015594,0.001030974713742245,6.965880830725066,5.285840380077158,4.695624745038471,4.156615819864079,3.635687211764126,2.9906683093682416,2.4538104154302056,1.92677599440119,1.4385626476799045,1.0120717590145807,0.648203813827561,0.3571141691212924,0.23136937443169714,0.09273003611982472,0.04076727043924998
0.0,15.0,15.0,0.0,120.0,0.0,0.0,0.0,0.0,-107.0,0.0,-45.0,0.0,0.0,0.0,34.27253218749016,17.55503396713325,4.629188070078574,3.0665516921347655,2.5375915829946885,2.1398087016200025,1.7407356370627671,1.3919961649324626,0.8675859532908639,0.701275021357912,0.45257306813735365,0.2911718399488143,0.17501592330749122,0.0778108480055252,0.01791423681729335,0.023803869710692777,0.05376213463354056,6.966644895010624,5.333019912032926,4.714573679237755,4.1999897450087635,3.59392580569429,3.0353032439960552,2.426799109553474,1.9120407920400855,1.4200103258493553,0.9915622106479836,0.6694874777201185,0.3920582301051884,0.17201232232602537,0.0875986317012329,0.029286774783121375
0.0,16.0,16.0,0.0,120.0,0.0,0.0,0.0,0.0,-107.0,0.0,-45.0,0.0,0.0,0.0,34.27253218749016,17.55503396713325,4.647769936683572,2.9966192496168564,2.6181778109638247,2.1266066871309994,1.7181361305000988,1.3574498059625932,1.0072472612130992,0.7829275423602785,0.47398814395711686,0.2976983022099294,0.11553983067592355,0.06455020237002933,0.06956632718646388,0.05581801438207283,0.011723157502192917,7.02948989943129,5.372339400642207,4.736317659376012,4.213004359369508,3.653672633135462,3.130768556422049,2.449613431559856,1.8917445012566174,1.4335974827619682,1.0318365667884943,0.6449911081418532,0.3497938903891623,0.16902899442464203,0.10700344351460028,0.06389011153389242
0.0,17.0,17.0,0.0,120.0,0.0,0.0,0.0,0.0,-107.0,0.0,-45.0,0.0,0.0,0.0,34.27253218749016,17.55503396713325,4.662849424300129,3.0586109946283604,2.511989013878142,2.212534531830139,1.7002982490294842,1.4271297993370278,0.9775658832169988,0.780118385731319,0.47701502597293427,0.19948302774147528,0.21939452505333787,0.05535375301174732,0.031121478767589444,-0.013194429070021399,0.043855081414973844,7.053934760151362,5.347086915565566,4.754984800845358,4.296205418756943,3.7434507575999905,3.1171520314183536,2.536253038190399,1.9355199684720832,1.4807976620836418,1.0188950607569378,0.6595031269080193,0.3951595373963009,0.20377424872737177,0.09630613363626134,0.07771831290964226
0.0,18.0,18.0,0.0,120.0,0.0,0.0,0.0,0.0,-107.0,0.0,-45.0,0.0,0.0,0.0,34.27253218749016,17.55503396713325,4.722883845142743,3.1482104357825405,2.678305809067443,2.1915012732000783,1.8725347099449883,1.3560637733410978,1.0127068641748687,0.6905922489412645,0.4843133967459178,0.2568289041368568,0.10265279037622252,0.10294527912826235,-0.005372700047212131,0.07618888538646923,0.01950579634197505,7.047720875152518,5.356601768169373,4.7876506859300845,4.268628184717151,3.7306975138226486,3.112048906467076,2.5233451566172858,1.9423493382987815,1.4952841837317954,1.0692875310832552,0.6567730914833761,0.3905774950466898,0.2175495669301092,0.11272500626804467,0.028987898340288094
0.0,19.0,19.0,0.0,120.0,0.0,0.0,0.0,0.0,-107.0,0.0,-45.0,0.0,0.0,0.0,34.27253218749016,17.55503396713325,4.691844953921947,3.0614830237758035,2.6399330617767935,2.234898986757915,1.782997282852105,1.2467849754624554,1.0728788824276891,0.7001814162842345,0.4280069906699817,0.3487954670910234,0.174412586960585,0.0739638241839233,-0.000702278080755743,0.003180997218846524,0.005714000233462593,7.068940490060421,5.433060050235416,4.774700660935853,4.3045884380161645,3.752872072574029,3.1209820896686002,2.5220262424661812,1.9394656316172958,1.4926273880402827,1.0540797003230686,0.7141149788276322,0.4001602015130171,0.23937784352764982,0.10460793251062495,0.05385070330910389
0.0,20.0,20.0,0.0,120.0,0.0,0.0,0.0,0.0,-107.0,0.0,-45.0,0.0,0.0,0.0,34.27253218749016,17.55503396713325,4.7566640528354736,3.163650540151857,2.6853502208850473,2.2926751018174127,1.7654475566063983,1.4165487316710776,0.9544596127002257,0.7083605833672806,0.475866377082636,0.34449573978986753,0.1495225244043042,0.0938897440015758,0.014243739784204519,0.021793388198287265,0.07063993228892901,7.074442772575513,5.423969430795985,4.85989154120221,4.350467720841638,3.7494408863756346,3.1235314491399886,2.5501505251702827,1.9758300644786997,1.5090766022246238,1.0480341722692965,0.6687211599494245,0.4224242633907601,0.24332968532435775,0.1399471791844255,0.03833339604646091
0.0,21.0,21.0,0.0,120.0,0.0,0.0,0.0,0.0,-107.0,0.0,-45.0,0.0,0.0,0.0,34.27253218749016,17.55503396713325,4.755708008958354,3.1834458936098033,2.6656555953208856,2.2446107252284264,1.8048638839311906,1.444212516118791,1.1058961853109222,0.7130124047210984,0.45071435094536505,0.26904461515019656,0.1552350890744917,0.049530132939836276,0.05050486628490144,0.028001291185691557,-0.008188414385773236,7.00353532414755,5.485446513105275,4.89884381844555,4.3558535558174105,3.7570562433795676,3.1910672628328673,2.5422989486829843,1.971704165780371,1.4811848889787216,1.0965248112533548,0.7279827929318422,0.4282216864614005,0.21619653059346905,0.12296240729308792,0.03552379590160891
0.0,22.0,22.0,0.0,120.0,0.0,0.0,0.0,0.0,-107.0,0.0,-45.0,0.0,0.0,0.0,34.27253218749016,17.55503396713325,4.762149492601516,3.1548942591360305,2.7414733373984306,2.2951191769483104,1.8904687127559072,1.3878530441156312,1.0211721311344146,0.6661215681922891,0.44133207692240745,0.3111015514392175,0.14188771921086385,0.11629019360292933,0.020919283142237847,-0.00616926541930253,0.006501912636376737,7.088377732537976,5.5230332603895445,4.945969743358562,4.435744252760086,3.8143702894245073,3.1807977006060764,2.5654499129506427,2.038704825390466,1.5142737724555615,1.0927865210114818,0.704544109670287,0.4076644562288933,0.2731867225015078,0.10466579859101761,0.03604394068007936
0.0,23.0,23.0,0.0,120.0,0.0,0.0,0.0,0.0,-107.0,0.0,-45.0,0.0,0.0,0.0,34.27253218749016,17.55503396713325,4.769895415196225,3.2561380096697192,2.7886839433387767,2.375171790973578,1.8716494212202035,1.401502521249229,1.0788259839846919,0.7761368703005013,0.5027590610559702,0.32329578492673716,0.1530158058722031,0.05272483514868131,0.09304542654231801,0.038774061799277726,0.026551160410924958,7.089552466284523,5.544379670180212,4.976484499522113,4.446170886246532,3.8136080202237186,3.225370782311314,2.581772360314627,2.043684408897449,1.5230095547939433,1.075380148269559,0.7252728233448502,0.43985404779389164,0.21387105150342312,0.15715048508524548,0.0839186916390956
0.0,24.0,24.0,0.0,120.0,0.0,0.0,0.0,0.0,-107.0,0.0,-45.0,0.0,0.0,0.0,34.27253218749016,17.55503396713325,4.807636034141242,3.226843855415929,2.853453160316123,2.3644819802755515,1.8655751492513537,1.4702084158616653,1.1044998177258643,0.7180777013374636,0.48501847086663125,0.3088109563528555,0.20221513458944967,0.06744217072565095,0.031208349507781757,0.0399957099245495,0.013720438190123896,7.141493590784166,5.563448743723664,5.006828761688289,4.484421904233326,3.9097413609650964,3.219798534264435,2.63591269088378,2.0271469598464065,1.544594190300144,1.100678454731096,0.7032511613528157,0.45291846355053167,0.23605255377406775,0.12534895315990066,0.04645786908902497
0.0,25.0,25.0,0.0,120.0,0.0,0.0,0.0,0.0,-107.0,0.0,-45.0,0.0,0.0,0.0,34.27253218749016,17.55503396713325,4.810739612469382,3.3114322361195216,2.810575808366854,2.3738736381640133,1.912657691914455,1.4538062308415087,1.126895777701245,0.7784901106541634,0.48094475276004534,0.3009492767185057,0.12111259827249368,0.03832286271201446,0.09884731084559584,-0.03666536795797211,0.07031217035395952,7.177665649125503,5.603937791495391,5.094762737465971,4.454574057213834,3.8938236151844134,3.2624840608287786,2.647131163409065,2.096832110994091,1.5120082743153382,1.1034970148266938,0.7274858062604824,0.4622235028557469,0.24775195279293646,0.13104347643616598,0.05776407488927068
0.0,26.0,26.0,0.0,120.0,0.0,0.0,0.0,0.0,-107.0,0.0,-45.0,0.0,0.0,0.0,34.27253218749016,17.55503396713325,4.783902645969178,3.295291569128739,2.84137564034872,2.3339633701085147,2.016033210364961,1.5527544520723877,1.074131217719868,0.7899296875382888,0.47892563182277714,0.32223285742838487,0.16282144076078373,0.08667674368671989,0.03682861930651156,0.04379260583582685,-0.024968780207347576,7.194744014506774,5.607789402068633,5.085111592794202,4.5169198782131375,3.958201137403413,3.36376217577121,2.625631668728885,2.0708221860442833,1.5898714765961537,1.1334784680097656,0.7296670136663698,0.4666045251327416,0.23646460569854116,0.13122697012105045,0.02497684789203658
0.0,27.0,27.0,0.0,120.0,0.0,0.0,0.0,0.0,-107.0,0.0,-45.0,0.0,0.0,0.0,34.27253218749016,17.55503396713325,4.876832022872413,3.308282749224724,2.936290733615931,2.4301508231622493,2.043409310723614,1.5255057231635407,1.144729883944433,0.7315553027180566,0.4670739326672699,0.32842611208174116,0.15566238184289943,0.09873345716203087,0.04358439384947275,0.008549533686894501,-0.044840441627784514,7.180730028146988,5.691913683269039,5.1707468370633975,4.557341624944337,3.9563778812398427,3.2815195999547346,2.7006213682430946,2.0161913304101966,1.5545273391276828,1.1376770201279933,0.7586122467659742,0.4647656068078507,0.2957577610624787,0.1218940070385974,0.05175226857675612
0.0,28.0,28.0,0.0,120.0,0.0,0.0,0.0,0.0,-107.0,0.0,-45.0,0.0,0.0,0.0,34.27253218749016,17.55503396713325,4.861301857858479,3.4890778007527814,2.966996414570699,2.4654143936775124,1.9891248678085973,1.5384480153132216,1.086170291494228,0.8344411048057783,0.45273356003152976,0.35403225389940896,0.23072265394193836,0.05575030689949984,0.003816749008029259,-0.04264577785174497,-0.053949295999228805,7.226364402866097,5.7292759940253,5.12115297336864,4.593486000991779,3.991639846458822,3.3782321371613846,2.6912800818668745,2.1057239626942987,1.5885069857911702,1.1359081728537601,0.7437931001031208,0.5361485494166004,0.29903071345157645,0.15588218856941335,0.06632580731385214
0.0,29.0,29.0,0.0,120.0,0.0,0.0,0.0,0.0,-107.0,0.0,-45.0,0.0,0.0,0.0,34.27253218749016,17.55503396713325,4.8704981833898255,3.4950153344261365,2.9271621120324087,2.462325755613324,2.072157531930797,1.4751445521269928,1.102652878841374,0.7764781641748406,0.5021520125742547,0.3218493282316994,0.19113654860226204,0.08913045430869322,0.06924653009143733,0.05453544819536574,0.022487598211253672,7.25958452006218,5.721000089074335,5.241142990079092,4.694769243433692,4.003276363082376,3.3265551397494715,2.7116219475812224,2.145610968498513,1.5848116625121116,1.1247589714114963,0.7525206491714159,0.46013604129807806,0.3072903299089912,0.08214934726965464,0.06464022111773474
0.0,30.0,30.0,0.0,120.0,0.0,0.0,0.0,0.0,-107.0,0.0,-45.0,0.0,0.0,0.0,34.27253218749016,17.55503396713325,4.923005558463448,3.4854774172787746,3.0452605309755434,2.53082948425184,2.0887175439981993,1.6265661538022922,1.0094984109181433,0.7273578976326822,0.5029420972417149,0.3627429143697214,0.14189678532186756,0.0899864569547094,0.12259894379711264,0.038996503054098235,0.0441565691725182,7.2426767465114406,5.834551425426208,5.258951831586106,4.692296433282651,4.04733804678011,3.3935342583695047,2.6983518615941113,2.1035486505069825,1.5749543204940337,1.1578623206778926,0.7325613974837388,0.42632530694335513,0.272797021876598,0.1406898500238571,0.06712256104055572
0.0,31.0,31.0,0.0,120.0,0.0,0.0,0.0,0.0,-107.0,0.0,-45.0,0.0,0.0,0.0,34.27253218749016,17.55503396713325,4.965632947316167,3.547859910223906,2.9979625542899395,2.5933487156840074,2.007021528056669,1.5684165132905958,1.1548180090147486,0.8081235479515334,0.5205725001523775,0.28513515482929497,0.147043313191907,0.1090872420549359,0.03372453851465941,-0.022827620601521874,0.05430738391078476,7.290964184215154,5.854747135316693,5.24691792893208,4.752995155494454,4.080809872503183,3.437679021155154,2.7621022251936695,2.1262124636010666,1.6075502880918897,1.1649292595690983,0.7728030845715015,0.4900783798164749,0.2812412770455709,0.17711672559031216,0.06304324665245334
0.0,32.0,32.0,0.0,120.0,0.0,0.0,0.0,0.0,-107.0,0.0,-45.0,0.0,0.0,0.0,34.27253218749016,17.55503396713325,4.964451085611503,3.547140757077368,2.9996075510339204,2.513120705237589,2.0952758036630734,1.6248060149308967,1.1737231123779528,0.8386090787177908,0.5519746264424606,0.31786812725248087,0.1770479767356629,0.15723922452181316,0.0040260243189309125,-0.025556887613045996,-0.02650572707341619,7.321139361502518,5.895081100881564,5.337149296961225,4.748837855053472,4.10579718297927,3.468550303807717,2.7470074926044252,2.1436731930589206,1.5931576614617968,1.1342391394598526,0.8077231145027333,0.5093102315576624,0.29986888741940676,0.15230167221661628,0.07998758421972
0.0,33.0,33.0,0.0,120.0,0.0,0.0,0.0,0.0,-107.0,0.0,-45.0,0.0,0.0,0.0,34.27253218749016,17.55503396713325,5.0160557403244965,3.621839307995722,3.0677829002649095,2.580474614562756,2.1467768423353237,1.6667846066743197,1.2013037103173647,0.7971605550819101,0.5343628874332628,0.3749453267660356,0.2375405468680198,0.09774258233224405,0.043542539044694684,-0.020250028288718042,0.018339805119707644,7.274578849245171,5.899866291571871,5.326080913096472,4.797119096712625,4.188039770133664,3.493394093565346,2.7871192119918877,2.190057611537614,1.6187855361264747,1.1756677816989471,0.7926882889718179,0.466895855911616,0.26597104744683175,0.1382629740178876,0.08528870612985909
0.0,34.0,34.0,0.0,120.0,0.0,0.0,0.0,0.0,-107.0,0.0,-45.0,0.0,0.0,0.0,34.27253218749016,17.55503396713325,4.891212428523599,3.6316046797285506,3.126597884882468,2.6460660273709977,2.173801004588434,1.6484923147257766,1.2001627830518338,0.8637522396417346,0.48656811571897807,0.35419115382700267,0.19500343815864635,0.09842982768763271,0.01448025205863454,-0.038831593866534606,0.05043025391972353,7.325405558545919,5.926408194813835,5.4091436117485765,4.808081865803191,4.154899416900291,3.493597340804751,2.823888783040058,2.144665288543626,1.643436436065052,1.152799282580029,0.7892334292336081,0.4558338568574156,0.3111716662613516,0.14108019072860264,0.09610297907991465
0.0,35.0,35.0,0.0,120.0,0.0,0.0,0.0,0.0,-107.0,0.0,-45.0,0.0,0.0,0.0,34.27253218749016,17.55503396713325,5.045667352517176,3.6791109343845085,3.135948649132844,2.6298932020700114,2.1843662051322057,1.6756236815240388,1.2374860768258822,0.8456816481112512,0.5698181386370904,0.3687646830557997,0.19355063139209897,0.14111821387338058,0.03707390450857122,0.02935606087578227,0.00965666535784028,7.377970151651357,6.013436265359508,5.462291241789051,4.85528089748455,4.234046439305023,3.4898068730495844,2.776416607568916,2.197951244896643,1.645220330036955,1.1798490530608454,0.7665921611466551,0.509508664750778,0.26918722928367605,0.1600838339633953,0.05647673551520326
0.0,36.0,36.0,0.0,120.0,0.0,0.0,0.0,0.0,-107.0,0.0,-45.0,0.0,0.0,0.0,34.27253218749016,17.55503396713325,5.108790685990801,3.7179419719166615,3.21297457516972,2.6426648271573834,2.098582376848956,1.6984652571880547,1.2212552465465438,0.8757188806664392,0.5926467691725628,0.33100144943514787,0.2079433178897289,0.1165941346838619,0.003482368141489847,-0.012973822350696752,0.0008049568700956205,7.391629683132465,6.0633789581432405,5.465482465723909,4.8973729583492736,4.247907730760824,3.5649665251723106,2.8606467951187096,2.2141937602269266,1.6542231140063608,1.1599615547954045,0.7767456527874886,0.5193903189732506,0.2940862030273758,0.15632632054809475,0.07009054551960622
0.0,37.0,37.0,0.0,120.0,0.0,0.0,0.0,0.0,-107.0,0.0,-45.0,0.0,0.0,0.0,34.27253218749016,17.55503396713325,5.132590845248965,3.8671577378517332,3.256684164879598,2.7726263573126047,2.198402441786679,1.6256897779204447,1.2016069345175582,0.8368604372420299,0.5374178988769222,0.37028186144733194,0.20643053343161713,0.0975306315707194,0.03650756357858428,0.0120547786918681,-0.005756680571046115,7.4220407025186335,6.178416589419339,5.539813349969755,4.936239986196378,4.291218142340023,3.575003927040379,2.878442578761425,2.1707654729720574,1.6870558670139306,1.211912140465045,0.795055594184849,0.5039167781349303,0.30668576309209206,0.15415607881520643,0.05331697495043996
0.0,38.0,38.0,0.0,120.0,0.0,0.0,0.0,0.0,-107.0,0.0,-45.0,0.0,0.0,0.0,34.27253218749016,17.55503396713325,5.08662163540328,3.807431667302952,3.2777818190351224,2.7993401642652924,2.228038833614991,1.6913934219978854,1.1769190165015575,0.8474411393295991,0.5591042805162372,0.37082531682724534,0.2922229785673152,0.10157521664932195,0.10171057443284803,0.006002218235854277,0.042726430715520174,7.445284325221363,6.1372718840814215,5.644577502300668,4.931443397123898,4.268619845365471,3.6286608389304797,2.8847932594537746,2.2378021471876655,1.6849061443085143,1.1792956836554065,0.781048760222213,0.500655748779408,0.3034927228753795,0.13732052890851246,0.08863285013326475
0.0,39.0,39.0,0.0,120.0,0.0,0.0,0.0,0.0,-107.0,0.0,-45.0,0.0,0.0,0.0,34.27253218749016,17.55503396713325,5.206216319743945,3.858869351172787,3.262250052927187,2.8663701235836485,2.1763872042151933,1.7006609171684597,1.2512905190466646,0.8338777349053086,0.6092998911660754,0.42107687861713894,0.2027451293890078,0.12165171976079667,0.05139148552504276,0.0697403803796316,-0.034538541433639214,7.503335845583322,6.1702031559573065,5.600736658061085,4.996089932923992,4.375571301768863,3.636394724578102,2.9431230592737725,2.225885622869508,1.7152241832307917,1.129609628397727,0.7918516159592609,0.5441727361429202,0.29372875501448925,0.1394749109591469,0.08686160323728057
0.0,40.0,40.0,0.0,120.0,0.0,0.0,0.0,0.0,-107.0,0.0,-45.0,0.0,0.0,0.0,34.27253218749016,17.55503396713325,5.20286731432034,3.862971774129683,3.3568527125124175,2.8725436159079107,2.2779659516815776,1.7559272057017286,1.2507137924138994,0.8116103520750262,0.5721118706972317,0.32997471130715456,0.2123013485689086,0.13140196511202396,0.052478260446856044,0.0028999607612548474,0.05373271141976176,7.477201898118304,6.235992564418618,5.632202609650299,5.024374221681827,4.394693392251041,3.6631176621619077,2.9640072778320863,2.2639750827965512,1.6750788042228346,1.1879204252150974,0.8582075789959077,0.53754575527978,0.3082337068453422,0.19769221492523786,0.07004307840465056
0.0,41.0,41.0,0.0,120.0,0.0,0.0,0.0,0.0,-107.0,0.0,-45.0,0.0,0.0,0.0,34.27253218749016,17.55503396713325,5.297851750120634,3.9022700287473326,3.398999714647737,2.8855963819710517,2.42162953312582,1.7497603545131366,1.295741469302137,0.8828219523421084,0.5968159226909292,0.31830461285320155,0.22539528043491325,0.13036614418963846,0.007276920713059312,0.013697701138610319,0.06204748231213854,7.519498422053988,6.255382154826086,5.732797631205308,5.107787015056685,4.454892149881878,3.6991252331955904,2.9639012013029045,2.3157029397546522,1.7056788101827,1.2142429297143245,0.8198542032722926,0.5603618608821137,0.308046606613631,0.15983554927651403,0.10271393604450962
0.0,42.0,42.0,0.0,120.0,0.0,0.0,0.0,0.0,-107.0,0.0,-45.0,0.0,0.0,0.0,34.27253218749016,17.55503396713325,5.305607495173684,4.081428716069681,3.4376853627850097,2.8963863571316573,2.354637161470508,1.793928453002089,1.2081192752978689,0.9058656529341237,0.6406351842943314,0.3438726950135797,0.1971152308830213,0.09991585347161548,0.027177354930961063,0.006082250005514052,0.09331033557316794,7.561526138393548,6.336989882049602,5.7839346551922555,5.154123773783097,4.481884821140628,3.7016269639508304,3.019165887627874,2.269913021282619,1.707495474542099,1.1809584501161785,0.8106784780086215,0.5043833405140802,0.3092026368044109,0.17328179870264354,0.10301112067900127
0.0,43.0,43.0,0.0,120.0,0.0,0.0,0.0,0.0,-107.0,0.0,-45.0,0.0,0.0,0.0,34.27253218749016,17.55503396713325,5.3437593132763075,4.151215053925028,3.450815632737157,2.946720606499726,2.3694043600773216,1.8586763752283493,1.362727673984651,0.9052816371174468,0.5845113682494544,0.36941698053428845,0.1883886087967515,0.15203032937193103,-0.011654011948963643,-0.010542927293905609,0.005501912463258801,7.604555419529964,6.394740921090012,5.755605500281399,5.180164917196475,4.531707100237426,3.748835740719315,2.99323002799601,2.328939624087705,1.7155822307252104,1.1834995119207756,0.8457399553248602,0.5174850908341271,0.322926112322846,0.1656306067688576,0.07662328779094846
0.0,44.0,44.0,0.0,120.0,0.0,0.0,0.0,0.0,-107.0,0.0,-45.0,0.0,0.0,0.0,34.27253218749016,17.55503396713325,5.349930096405736,4.102413334621831,3.5513641090260903,2.981714536753177,2.441067183255746,1.7821241761989017,1.3151585233032073,0.9244030879980537,0.553368152991013,0.303144902720774,0.17286133088151395,0.13096013189720263,0.07011842483238583,0.03177550944981009,-0.01533436008479596,7.66093895732733,6.395763573310507,5.834432471673236,5.228652938113743,4.4709567214649,3.790249949121576,3.011529386373564,2.3051208262792393,1.6807712702608695,1.2546297722811484,0.8426556947080819,0.5266845543679617,0.326589578630758,0.21065189664448028,0.09972266422927203
0.0,45.0,45.0,0.0,120.0,0.0,0.0,0.0,0.0,-107.0,0.0,-45.0,0.0,0.0,0.0,34.27253218749016,17.55503396713325,5.465557207333629,4.152746450510957,3.5843561099856407,2.9832055842699465,2.421873920808851,1.8701446582326935,1.3719811187219,0.9050371100507286,0.516709056242012,0.3618278312101665,0.2003971431528253,0.08058275004686449,0.07573601255059004,0.05573395323221204,0.04044405754105035,7.668380279423504,6.442483076207804,5.91609525375684,5.298347564643346,4.592391995978302,3.813209354636056,3.076952797269185,2.316576650452452,1.7318745115249088,1.2460927344329475,0.8195076276959332,0.5340501710346867,0.28398280184133334,0.17093057208561496,0.10579724275856481
0.0,46.0,46.0,0.0,120.0,0.0,0.0,0.0,0.0,-107.0,0.0,-45.0,0.0,0.0,0.0,34.27253218749016,17.55503396713325,5.494022450244942,4.213661898056146,3.5914987487580188,3.0087032636473583,2.445214020858705,1.899348921062544,1.361980955027484,0.9609985796076816,0.6157848113625441,0.39282881410396403,0.18477479355112214,0.13565501138048547,0.08608378620184011,0.04728903808186704,0.022589955049668476,7.741398617711001,6.522307633818842,5.895216232074342,5.3424948945030755,4.604894342981144,3.7971305630269074,3.1211442180616378,2.3497624414456477,1.770261775230021,1.2595393990812593,0.846574944977718,0.543251719587565,0.300505584950212,0.19785508781872016,0.049258704913678654
0.0,47.0,47.0,0.0,120.0,0.0,0.0,0.0,0.0,-107.0,0.0,-45.0,0.0,0.0,0.0,34.27253218749016,17.55503396713325,5.536492857884838,4.271621478265542,3.6993015143988006,3.0717428710536954,2.4776264391343097,1.998384206090649,1.347512205262104,0.9132148818518036,0.5656158518284358,0.3354474629861594,0.1712068862011876,0.12586349438283462,0.08347029603833696,0.06005916403238447,-0.0393132420916962,7.7761637774176045,6.55548436368021,5.955565025364989,5.365900113602431,4.648602091015796,3.8241533577275852,3.022880267273274,2.319839351870946,1.7790944388117003,1.219200297326144,0.8453882055605974,0.5329590600525435,0.33902445144215776,0.14945125585213986,0.10787175583881894
0.0,48.0,48.0,0.0,120.0,0.0,0.0,0.0,0.0,-107.0,0.0,-45.0,0.0,0.0,0.0,34.27253218749016,17.55503396713325,5.605480725399945,4.396140758262275,3.7508552131001403,3.1209224117606613,2.491043883847023,1.9338287824700764,1.3425857900779243,0.9399533091554091,0.5905196714419634,0.3709609521034133,0.24781507824554178,0.1272220289839062,0.06288617827188404,0.021489314404261578,0.024635948426597616,7.844818596001996,6.634422127729257,5.999634192690876,5.426762063841406,4.66562581113983,3.8820029362396102,3.1502316651806073,2.397888373324235,1.7242689365764172,1.2857459606324053,0.8541526204436469,0.5462460688387631,0.3191900313797048,0.18951563439519148,0.07638165680307234
0.0,49.0,49.0,0.0,120.0,0.0,0.0,0.0,0.0,-107.0,0.0,-45.0,0.0,0.0,0.0,34.27253218749016,17.55503396713325,5.619635786716615,4.421933805135176,3.7812741289974503,3.250164921465142,2.5282879715129645,1.8610195590258636,1.383181748149231,0.8169163081636254,0.5901067512518638,0.3961856321005639,0.23954937675011914,0.09721274528784202,0.08986792657192713,0.03974725671743288,-0.017231388305363707,7.906512525009804,6.724510423461641,6.039126512191664,5.476892446391903,4.706830049071387,3.92722288810086,3.1369913517598493,2.403679479921643,1.7727950016769949,1.2145377867355363,0.8545007332346618,0.5591104281438256,0.29226977894188744,0.1582413942599004,0.07710152795854314
0.0,50.0,50.0,0.0,120.0,0.0,0.0,0.0,0.0,-107.0,0.0,-45.0,0.0,0.0,0.0,34.27253218749016,17.55503396713325,5.727802755424655,4.453504890969862,3.8043179854730766,3.2620763075546417,2.5401701020355785,1.9888466956641198,1.3964349822615352,0.8784323510499464,0.6363248262050645,0.3131302533380738,0.2844738011168682,0.10643922899625433,0.08980341057102896,0.034820706912199725,0.060008840007281426,7.953337600657662,6.764494609122386,6.177443814566671,5.479945546711488,4.761042584182569,3.9557205514595863,3.170747659537741,2.4441991572912114,1.7791583526847874,1.271256884019081,0.8531929776325958,0.5310464322644993,0.3045255296150281,0.19798745939070928,0.05427126538631948
0.0,51.0,51.0,0.0,120.0,0.0,0.0,0.0,0.0,-107.0,0.0,-45.0,0.0,0.0,0.0,34.27253218749016,17.55503396713325,5.817743752632537,4.508335407647518,3.8332073906909323,3.1558634510562795,2.669509214383076,1.954869518861713,1.4031210086397499,1.002438710950828,0.6945904866488856,0.38911829879691884,0.22618139457886208,0.0760669299334564,0.013413950301175523,0.02076505691333175,0.03051288440492955,7.988982048888298,6.817774017024774,6.164418160046838,5.500000138934811,4.807871157126142,4.033199960515521,3.173419734822532,2.5048937335779917,1.8080733440035486,1.2698206495473616,0.8586367644682852,0.5345317450402776,0.3162738057504132,0.17340136754285207,0.09030234714760081
0.0,52.0,52.0,0.0,120.0,0.0,0.0,0.0,0.0,-107.0,0.0,-45.0,0.0,0.0,0.0,34.27253218749016,17.55503396713325,5.83611885956689,4.544363683080372,3.915098699450854,3.28802888098426,2.636522674786301,2.0542859269813367,1.4581386383700903,0.9064708918934035,0.5994625418562723,0.38024679756515145,0.23169120910193988,0.1118612858876316,0.10104958132983385,0.024241465116137603,0.01823316090171534,8.020227934784598,6.856157095191651,6.2133859185312454,5.594479642723385,4.797220286072039,3.9768946658913453,3.2104755320204115,2.45630188606811,1.7771989465293436,1.2528113968002001,0.8623156905295757,0.5829975826054417,0.37132641367798747,0.21184887359360663,0.0608791717574314
0.0,53.0,53.0,0.0,120.0,0.0,0.0,0.0,0.0,-107.0,0.0,-45.0,0.0,0.0,0.0,34.27253218749016,17.55503396713325,5.9323360040319315,4.6129462010144655,3.9770223029597775,3.378170829575843,2.603976264202563,2.053359106931509,1.4357610407557486,0.9476938087022734,0.626623611267572,0.32539538327797324,0.20028880669890348,0.15403947207572338,-0.012543113562391045,0.045377703799509075,-0.016439497227432306,8.091785869064463,6.9003315988791725,6.261790938398246,5.6046195510438706,4.874905049639668,4.069953929465725,3.2584696883951074,2.5182504119765685,1.85336537150259,1.2574792808528845,0.8064536558074084,0.5657679736214128,0.372813912778486,0.1991890070160746,0.050030830697457986
0.0,54.0,54.0,0.0,120.0,0.0,0.0,0.0,0.0,-107.0,0.0,-45.0,0.0,0.0,0.0,34.27253218749016,17.55503396713325,6.018213528331535,4.690129370648409,4.034874772075446,3.3529063691929695,2.683194644615074,2.0712839099780047,1.452977459580303,0.9464901371271249,0.6891763669856462,0.3707804099112662,0.23922827487835094,0.10205584151533957,0.03860126483988155,-0.018049152882432466,-0.024661649875546105,8.157101802085455,6.985334385722541,6.3183725690657315,5.707549483375838,4.942016221234379,4.081697968469193,3.2543220787003784,2.454668887255655,1.8340027407784842,1.28430262067367,0.8503734856168859,0.5791463745196995,0.3319774763917273,0.21818595800338486,0.08962532507997709
0.0,55.0,55.0,0.0,120.0,0.0,0.0,0.0,0.0,-107.0,0.0,-45.0,0.0,0.0,0.0,34.27253218749016,17.55503396713325,6.111296120958695,4.773645715755627,4.048203285723275,3.3472673736512673,2.6866125025331096,2.0723624986615765,1.4638624860604441,0.9975518310914824,0.6144337716065059,0.3885948559295758,0.21149043776384713,0.15505944437241,0.06550320771549946,-0.044401399744308866,-0.006058053479011451,8.21689168391524,7.0578225829469625,6.394840395165969,5.7013238699544235,4.941156830718223,4.105776493892884,3.2422301524325055,2.4888209320876653,1.8526397772294319,1.2837881122395596,0.8561595111544851,0.5554767325199663,0.30445590728782496,0.17197138590638894,0.043574776971804216
0.0,56.0,56.0,0.0,120.0,0.0,0.0,0.0,0.0,-107.0,0.0,-45.0,0.0,0.0,0.0,34.27253218749016,17.55503396713325,6.173877544533944,4.846499907182454,4.166265336715559,3.4926368366407208,2.7789816931360036,2.065295208214521,1.4662781290417897,1.0188750353062694,0.6934863402705929,0.4364803192749581,0.29396685391709165,0.21163259028887188,0.16720569872909852,0.03840298494451466,0.06431770674670231,8.275417565448416,7.1195247002436695,6.447778537454838,5.787823084820965,5.012336246377774,4.121769681780022,3.236052951770996,2.5158171437968364,1.8491155633041392,1.3255201260809333,0.8760282115953504,0.5780570412508672,0.33058962855029667,0.1930251015271592,0.06356876718716176
0.0,57.0,57.0,0.0,120.0,0.0,0.0,0.0,0.0,-107.0,0.0,-45.0,0.0,0.0,0.0,34.27253218749016,17.55503396713325,6.2063616403191295,4.908219090640058,4.191834503412932,3.488359682158494,2.812647815244824,2.0782802232253004,1.4964481757110173,1.0299773365722191,0.6068245965203838,0.44363810410434884,0.27825077063834147,0.06161717338089469,0.04004327882594404,0.08469632892356568,0.061347424775009964,8.303282984308723,7.123218661352566,6.532812638035975,5.819116896388816,5.038743941630146,4.194213076527006,3.3344821067842476,2.5456302340479713,1.8750116719973833,1.3304590721614376,0.8531439148916301,0.5410566128972076,0.30700223246300634,0.2057351504771054,0.0522634254950041
0.0,58.0,58.0,0.0,120.0,0.0,0.0,0.0,0.0,-107.0,0.0,-45.0,0.0,0.0,0.0,34.27253218749016,17.55503396713325,6.289825319392997,4.971952740630708,4.214886097252049,3.513048643507019,2.773045981919018,2.1353696063502583,1.5409899334547819,1.0573296340405314,0.6700674157172489,0.4167958275948326,0.21103689880382753,0.10311187570290795,0.057812372384140685,0.0560075368720659,0.030584474612496554,8.384115332684985,7.205981263782909,6.61935772853737,5.862122066318989,5.093073496357248,4.247419073616542,3.3310340001043293,2.513534769327322,1.9035794894733196,1.3241903572774456,0.8780006651007856,0.5187213567605061,0.2817742493242272,0.19601926903017688,0.087216047343774
0.0,59.0,59.0,0.0,120.0,0.0,0.0,0.0,0.0,-107.0,0.0,-45.0,0.0,0.0,0.0,34.27253218749016,17.55503396713325,6.3644277339759965,4.990637480964167,4.2388937491598355,3.6302021208884767,2.8308489809902238,2.170764530314977,1.591575277594795,0.9871738888683944,0.7111965797924004,0.4256512399996827,0.3105083944922501,0.12970726352240727,0.0736688059650466,-0.055833130117124805,0.01826471292439113,8.438637505820973,7.261702824823942,6.585885089709286,5.947522941777688,5.0923286495446245,4.268927141428858,3.3939518140138407,2.599110492953839,1.8987500968040398,1.3169342879975783,0.8996630016204373,0.5619745823913949,0.3646684366816968,0.18977771364089457,0.11598984888334501
0.0,60.0,60.0,0.0,120.0,0.0,0.0,0.0,0.0,-107.0,0.0,-45.0,0.0,0.0,0.0,34.27253218749016,17.55503396713325,6.386102466097649,5.053087698275051,4.362275042811413,3.59788415003483,2.857973042035327,2.182417350905163,1.5713104482254532,1.0380124989494381,0.6718427662421171,0.4043774411918191,0.275661250605697,0.1239218513379546,0.0707784143743249,0.05486007820274032,-0.0038378705156658574,8.515171979644977,7.376809432246906,6.64749034466327,5.978807557419718,5.188186916970997,4.293798064018263,3.414594134477055,2.60028881246212,1.9066583178552932,1.3058658514311923,0.8582685594443311,0.5346675691961962,0.34005181760740666,0.16104894584690266,0.09708846511575966
0.0,61.0,61.0,0.0,120.0,0.0,0.0,0.0,0.0,-107.0,0.0,-45.0,0.0,0.0,0.0,34.27253218749016,17.55503396713325,6.451716160720831,5.163514631365373,4.326679643606994,3.7228576847451618,2.878353843304465,2.1964727292064503,1.644083687136276,0.9897300248364861,0.6219109344143887,0.43488553313477163,0.21184975067415895,0.15663754620295547,0.08160136020173209,-0.012909475054967104,0.01267677455280361,8.582698153807248,7.401526070713087,6.7100310857025045,6.009926406505309,5.180474298720148,4.311407148864347,3.4134538095108984,2.6292991095344775,1.9379328093245043,1.3616332993923974,0.8866387664775066,0.5649573915765687,0.3335049209028134,0.19081685559353054,0.11800126612649435
0.0,62.0,62.0,0.0,120.0,0.0,0.0,0.0,0.0,-107.0,0.0,-45.0,0.0,0.0,0.0,34.27253218749016,17.55503396713325,6.60605561197502,5.185198738094768,4.464949787803753,3.703274063577669,2.916535298137577,2.228165459033074,1.5445371935437657,1.0376299130904614,0.6888398243484122,0.4860177565595721,0.23229330826253325,0.13030922840512282,0.05167750589356937,0.022713950135220845,0.016552072457926312,8.591154756534415,7.504314004040326,6.794094238027115,6.057999030283699,5.240800782445756,4.345183570779506,3.4833994823421293,2.679705873656047,1.9410821791771942,1.3361607785496432,0.9242935901858335,0.5728498966220069,0.3268825083035226,0.19223214242821232,0.10504422116719267
0.0,63.0,63.0,0.0,120.0,0.0,0.0,0.0,0.0,-107.0,0.0,-45.0,0.0,0.0,0.0,34.27253218749016,17.55503396713325,6.758980202433855,5.250224760124326,4.555471167775751,3.8120717162953186,3.0095864596630175,2.2719892999115943,1.5765288651997895,1.1375019927226446,0.6979031217499008,0.4383768546491572,0.2245529516642065,0.14718561029599828,0.03474308976820823,0.07311215928001766,0.08287638368302344,8.7343617075152,7.521637905438948,6.790541452634889,6.160594718346125,5.319207321808737,4.4220682389326464,3.501518038367384,2.6772837931007323,1.9529138314273335,1.4123523917561998,0.9224088033796299,0.5790150070136533,0.32147379682263344,0.22833589672188676,0.12014290092784106
0.0,64.0,64.0,0.0,120.0,0.0,0.0,0.0,0.0,-107.0,0.0,-45.0,0.0,0.0,0.0,34.27253218749016,17.55503396713325,6.837308053598952,5.3787172722457885,4.590380994432018,3.7887178403741353,3.090091021269179,2.2879569985565555,1.6171020723536318,1.1227915123202614,0.7037376261304686,0.39468392141345093,0.24372594308875883,0.1545370167104557,0.06736417631572132,-0.016921643487712395,0.04178212320393079,8.738557086455023,7.633928860849284,6.901948800410013,6.182185091431912,5.344975918251841,4.468748655392874,3.472456975160204,2.727974257305384,1.9743738683030227,1.3265390966138897,0.8772016258639407,0.5655133704382179,0.33384124945169585,0.21487675299531098,0.0931028170015836
0.0,65.0,65.0,0.0,120.0,0.0,0.0,0.0,0.0,-107.0,0.0,-45.0,0.0,0.0,0.0,34.27253218749016,17.55503396713325,6.815667475886182,5.47455540639296,4.689052179050114,3.856156584887044,3.120877948855561,2.3389918461749635,1.6377627610105576,1.1036173748859457,0.6756004707567124,0.36544075177517926,0.2719929284972202,0.10959005156177426,0.03518313474822023,-0.03911272245241872,-0.048906688151063804,8.865334296246637,7.676862453017146,6.931207639810314,6.2416111110208945,5.363423902568576,4.4557195500398175,3.5183431274429746,2.7078036226701947,1.9560147895698845,1.3682577247626908,0.9056138086570834,0.5785023181903923,0.37212319386906595,0.21385213392504887,0.1158321778004891
0.0,66.0,66.0,0.0,120.0,0.0,0.0,0.0,0.0,-107.0,0.0,-45.0,0.0,0.0,0.0,34.27253218749016,17.55503396713325,6.931254345420422,5.481359960737506,4.738412839492239,3.9437304655084433,3.1791060231948918,2.40677142850514,1.6569629363288447,1.1075675877473639,0.6823089402193014,0.42990343873763903,0.20865565032339525,0.10998209473100978,0.09279702994674553,0.023844108507154828,0.019028767883137017,8.948893282753948,7.7480630397620605,7.0759619378765155,6.287764884973632,5.454583040047553,4.493664053052276,3.574740529146437,2.7169728236884927,1.9594217886584797,1.4186914217782913,0.913269358973208,0.6029892813570199,0.33819371550043525,0.2341281596327447,0.06214131522421724
0.0,67.0,67.0,0.0,120.0,0.0,0.0,0.0,0.0,-107.0,0.0,-45.0,0.0,0.0,0.0,34.27253218749016,17.55503396713325,7.10722967866408,5.5503112208437235,4.777024614564899,3.9779531946611666,3.1659748529200438,2.3288399831856847,1.5919656470115635,1.1787258683267985,0.7524496678957526,0.4477430962040753,0.2552319427227447,0.11852375646214562,0.03422044325105246,0.04046648599825638,0.0504366134473694,8.95347401393138,7.793818320682907,7.088544793852493,6.296785218913617,5.467367830367152,4.536034223696097,3.594171802931799,2.7970375894355466,1.9668136815034487,1.4112681289310471,0.8801455238211595,0.5955519914356379,0.3394201037030912,0.22833163247440544,0.10460547763468664
0.0,68.0,68.0,0.0,120.0,0.0,0.0,0.0,0.0,-107.0,0.0,-45.0,0.0,0.0,0.0,34.27253218749016,17.55503396713325,7.193514285043342,5.650378079422933,4.91107219102748,4.00503310549891,3.222403740320237,2.46772552845093,1.6520229284837524,1.1234299759022695,0.7319032966693144,0.48479692985150435,0.2566035920199843,0.13599656325866258,0.10820238376831773,0.01971079930863348,0.021073520882908536,9.03532259908431,7.8826335467240165,7.12932087086987,6.385212243538278,5.512283673989644,4.598570026018255,3.7004525046957104,2.72455195995068,2.0152765871408316,1.4099596979104123,0.9041459670438635,0.5991478306685137,0.36167814543225585,0.19203683273352906,0.06263900841654708
0.0,69.0,69.0,0.0,120.0,0.0,0.0,0.0,0.0,-107.0,0.0,-45.0,0.0,0.0,0.0,34.27253218749016,17.55503396713325,7.282993925382863,5.695851588460971,4.9183600972857,4.137602156584033,3.300002783739341,2.4285016213244064,1.6664311189883683,1.0914966414843683,0.7752036754505258,0.3670012345723326,0.21292405465173664,0.16971064992815266,0.06023494905536026,0.0501234063294277,-0.03257986232810535,9.142830592215912,7.970726037516503,7.208314532647316,6.5275762373597415,5.577950963607749,4.629602867781743,3.6470242832585744,2.7834590651137505,2.0523782222307276,1.4042049385351563,0.8979197459038044,0.5868221364202444,0.3615863398766012,0.16935817206350184,0.08743622133352297
0.0,70.0,70.0,0.0,120.0,0.0,0.0,0.0,0.0,-107.0,0.0,-45.0,0.0,0.0,0.0,34.27253218749016,17.55503396713325,7.346955901107125,5.81986789633331,5.037382231836685,4.151347912800843,3.2743423648417727,2.425058640051986,1.7356232528840025,1.15991332939201,0.7486761837198993,0.3135025227597589,0.22623559073410845,0.18968435385993304,0.06686654051839652,0.02667283545021003,0.027239986265253126,9.184661283042349,8.048094918356533,7.277705429601449,6.530830132302921,5.623137357493397,4.640405625262082,3.6572872530584997,2.790352050137675,2.0216836818845043,1.404947322664533,0.9239486764055475,0.5746651784781467,0.3704964457099458,0.1895935705350578,0.07424391037015315
0.0,71.0,71.0,0.0,120.0,0.0,0.0,0.0,0.0,-107.0,0.0,-45.0,0.0,0.0,0.0,34.27253218749016,17.55503396713325,7.511737958952554,5.935058476401005,5.037073030383127,4.1738459066900075,3.353291394336828,2.534148587539502,1.7600107948087078,1.1942132525687499,0.6676796555647976,0.41229183145966647,0.2666394505767255,0.15022958315729718,0.036677951159205115,0.05310641131617146,-0.017696325448047327,9.285191724496812,8.098802412938358,7.343968969809389,6.592910037577859,5.690330839641599,4.710004461039074,3.719059526643133,2.819066484254701,2.0527027284344417,1.4391396781168435,0.9296278896700594,0.5931366626460106,0.33980848408262176,0.19689863700820526,0.08761601714273044
0.0,72.0,72.0,0.0,120.0,0.0,0.0,0.0,0.0,-107.0,0.0,-45.0,0.0,0.0,0.0,34.27253218749016,17.55503396713325,7.625354781503827,5.965761839501138,5.115246174386578,4.2723777641993586,3.3810391079585407,2.5356438627605487,1.7974265918897208,1.1542136908477916,0.7233127400184823,0.39230999984925996,0.2347840423610582,0.14755910225644267,0.08818584212959218,0.0720499552712493,-0.01735478199665323,9.392532428094539,8.140417965917004,7.420501469809991,6.664276330220076,5.7874004870769955,4.753471193278578,3.786594381889981,2.836693904822521,2.063268682108829,1.45820170863952,0.9565756900210066,0.5890221482060807,0.37507825667938827,0.20564543927519988,0.100719026379435
0.0,73.0,73.0,0.0,120.0,0.0,0.0,0.0,0.0,-107.0,0.0,-45.0,0.0,0.0,0.0,34.27253218749016,17.55503396713325,7.694763139934265,6.104122083999544,5.181560530394905,4.370616544697884,3.37809761638738,2.5444930281258937,1.7916396569859274,1.149356739655382,0.7653869940128651,0.42658885412945907,0.25090288067424377,0.1290006089706095,0.06686949473487125,0.03622191173958901,0.02038351361928782,9.44940827092977,8.22542353211016,7.485082426410076,6.710405400339694,5.822342731391268,4.752715699586191,3.763023954783952,2.8209646575825125,2.0460248104437415,1.4569135694549562,0.9510838402595482,0.5827102712139088,0.31934832537579644,0.19269626417480282,0.0736068753829497
0.0,74.0,74.0,0.0,120.0,0.0,0.0,0.0,0.0,-107.0,0.0,-45.0,0.0,0.0,0.0,34.27253218749016,17.55503396713325,7.80676205082318,6.120340335938061,5.273122574507983,4.417258778595319,3.4118377410591023,2.571488053706447,1.8400222027880666,1.1267222952415652,0.7000113029364359,0.4187186589836401,0.24510253690889933,0.16935216101336506,0.006483222881958656,0.036942023172018376,0.01119388116124627,9.478520051077473,8.308870138230139,7.576565843913667,6.80401112060364,5.845528027370836,4.831425217628984,3.8251158331214943,2.8621766806560345,2.0733205796486573,1.442192183851231,0.9764476348317709,0.6068607657245711,0.3778408877086869,0.163289897320393,0.1145421721381451
0.0,75.0,75.0,0.0,120.0,0.0,0.0,0.0,0.0,-107.0,0.0,-45.0,0.0,0.0,0.0,34.27253218749016,17.55503396713325,7.898301793064631,6.226254942506944,5.343261877725144,4.439423050712753,3.6106774353320885,2.653767223039484,1.8481572842110465,1.2080721200868143,0.7932417404799946,0.471049794577022,0.3334703483641704,0.11043006664567326,0.12318855021478364,0.08124504207797027,0.007936836208102763,9.572400413860912,8.43729335604657,7.679384581942982,6.845341293599058,5.84230169003601,4.83250862612325,3.833387492149116,2.9274742182530784,2.122057853162463,1.4679362920551835,0.971418126635309,0.6107459268236762,0.3838885261671316,0.19210990343023393,0.07205876953978144
0.0,76.0,76.0,0.0,120.0,0.0,0.0,0.0,0.0,-107.0,0.0,-45.0,0.0,0.0,0.0,34.27253218749016,17.55503396713325,8.141074567614234,6.351253955306125,5.366650729604579,4.546548494711661,3.518563933681526,2.680665577153769,1.8430686210567226,1.1287386132123791,0.7859627832267697,0.4968357353791071,0.2283968138482713,0.11554888701596783,0.09941386985001761,0.047302106076111405,0.056880677192378895,9.709335230741715,8.452884506989873,7.695386214651178,6.89400571831866,5.918070381584492,4.935886952052068,3.8533145694567077,2.9450900233053146,2.1206908451421245,1.4671560463538134,0.9615003821482176,0.5977328088929253,0.3811409267666127,0.2299619601212547,0.06117306197457813
0.0,77.0,77.0,0.0,120.0,0.0,0.0,0.0,0.0,-107.0,0.0,-45.0,0.0,0.0,0.0,34.27253218749016,17.55503396713325,8.201602627707903,6.364558798145913,5.495577939888414,4.555745091914381,3.5504434070630864,2.649405889559268,1.8933639887729259,1.316207256039355,0.7605014111482095,0.49004476977165734,0.31165412212481663,0.16249438579444545,0.14615554691712074,0.00911222043686881,-0.028310465928469156,9.748273128572002,8.549533055816008,7.7684635411276854,6.960056294729543,5.96646942482546,4.918801337276371,3.8883216507662492,2.9572360322350884,2.1331396506369247,1.4600838851297622,0.9988485536096278,0.595766671036285,0.3768450585641304,0.179302156899729,0.12411816730555222
0.0,78.0,78.0,0.0,120.0,0.0,0.0,0.0,0.0,-107.0,0.0,-45.0,0.0,0.0,0.0,34.27253218749016,17.55503396713325,8.332702438629275,6.612371239570309,5.5626912275933025,4.6627130386946245,3.680188806145181,2.7586686866793655,1.9208744224497252,1.1874831484339672,0.7663222620308856,0.5035536912495937,0.3066630057016056,0.11408003901839543,0.1034359701850357,0.05665227548445758,0.06845581635813423,9.836612222808212,8.626799465684426,7.80322716572373,7.001282400216005,6.00727594370979,5.016044176028012,3.8979494227532108,2.9857597865933876,2.160056336637397,1.4942243845858152,0.9619867796881537,0.5987585322220346,0.34684291004668677,0.20650579342012854,0.14225896918562508
