Line_number,Fiducial,Easting,Northing,Height,Elevation,tx_pitch,tx_roll,tx_yaw,txrx_dx,txrx_dy,txrx_dz,rx_pitch,rx_roll,rx_yaw,PX,PZ,S0X_time_1.086e-05,S0X_time_3.256e-05,S0X_time_5.426e-05,S0X_time_8.680e-05,S0X_time_1.411e-04,S0X_time_2.279e-04,S0X_time_3.689e-04,S0X_time_5.860e-04,S0X_time_9.115e-04,S0X_time_1.411e-03,S0X_time_2.192e-03,S0X_time_3.418e-03,S0X_time_5.339e-03,S0X_time_8.301e-03,S0X_time_1.338e-02,S0Z_time_1.086e-05,S0Z_time_3.256e-05,S0Z_time_5.426e-05,S0Z_time_8.680e-05,S0Z_time_1.411e-04,S0Z_time_2.279e-04,S0Z_time_3.689e-04,S0Z_time_5.860e-04,S0Z_time_9.115e-04,S0Z_time_1.411e-03,S0Z_time_2.192e-03,S0Z_time_3.418e-03,S0Z_time_5.339e-03,S0Z_time_8.301e-03,S0Z_time_1.338e-02
0.0,0.0,0.0,0.0,120.0,0.0,0.0,0.0,0.0,-107.0,0.0,-45.0,0.0,0.0,0.0,34.27253218749016,17.55503396713325,5.882553229630938,3.3634865661513618,2.279280378716556,1.4791395409271646,0.8810795590717401,0.5042323072181614,0.27651643360090145,0.14841130009722364,0.07897375751268916,0.04077325268645006,0.020164574967515315,0.009554022645441963,0.0043467369663527005,0.0018986129418866909,0.0006628458754571627,8.121375666504536,5.790661168964098,4.515722584350169,3.3870460174498387,2.3756666761755936,1.6035553276100982,1.0419243331284327,0.6626926807941954,0.41668184514813444,0.2548837660850852,0.15015528948061962,0.08511151809543893,0.046485061364785786,0.024610554617550105,0.011894400008422191
0.0,1.0,1.0,0.0,120.0,0.0,0.0,0.0,0.0,-107.0,0.0,-45.0,0.0,0.0,0.0,34.27253218749016,17.55503396713325,5.88186487252389,3.3487484492956283,2.2490414223844093,1.4409298194271924,0.8460017418351157,0.4795754221182367,0.26233581447438425,0.14118304345672847,0.07550321880999279,0.039204386462733096,0.01949954151107418,0.009287882606190642,0.0042454985076684,0.0018617707626329193,0.0006518515033905348,8.120881679411157,5.774980038807046,4.477305257080879,3.3289724476604894,2.3109724532759945,1.5482078269573718,1.0030859946761885,0.6386597812829142,0.40278779506378876,0.24732599115240136,0.1462878479556568,0.08323874675934953,0.0456216886890852,0.024228100918344285,0.011743623224562353
0.0,2.0,2.0,0.0,120.0,0.0,0.0,0.0,0.0,-107.0,0.0,-45.0,0.0,0.0,0.0,34.27253218749016,17.55503396713325,5.881163144136865,3.335063183862737,2.221496866925439,1.4061080096372356,0.8137679759871038,0.45671201776177445,0.24909077197422355,0.13438928247342377,0.07222030323123509,0.03771015950343359,0.01886175319671717,0.0090309783516256,0.004147205747143327,0.0018258145185026848,0.0006410226511877176,8.120373287635122,5.760235872508022,4.441750521792013,3.2751451949741637,2.2505022696324097,1.496021170016168,0.9662318004014492,0.6157481352045068,0.3894830618130986,0.24005383476506956,0.14254771208540726,0.08141867740316107,0.04477881585661298,0.023853225957783306,0.011595196417844737
0.0,3.0,3.0,0.0,120.0,0.0,0.0,0.0,0.0,-107.0,0.0,-45.0,0.0,0.0,0.0,34.27253218749016,17.55503396713325,5.8804277661402,3.322090370821085,2.196088442474495,1.3741650468794933,0.7840636003728286,0.4354818402945493,0.23670591178182512,0.12799741699227152,0.06911217061058608,0.036286033255305626,0.018249773115777083,0.008782894149508561,0.004051745726168025,0.0017907164294323243,0.0006303606351767197,8.11983462642361,5.74611751870573,4.408478826535549,3.224970218754787,2.1938523388563174,1.4467706645715035,0.93123785951793,0.5938914881412257,0.3767353093188498,0.23305319297824387,0.13892937926378135,0.0796493584469718,0.04395580096839289,0.02348573273181823,0.01144907795312274
0.0,4.0,4.0,0.0,120.0,0.0,0.0,0.0,0.0,-107.0,0.0,-45.0,0.0,0.0,0.0,34.27253218749016,17.55503396713325,5.8796423737122625,3.309571470405914,2.1723653682792055,1.3446623366702672,0.7566038671859485,0.4157385717310925,0.22511312633734998,0.12197801805504332,0.06616714261700968,0.03492783761347396,0.017662266256662156,0.008543239823233038,0.003959011627009166,0.0017564499312436642,0.0006198661291652354,8.119252635607412,5.73238603173523,4.377017324404213,3.177926523718615,2.1406452044430435,1.4002425740167654,0.8979886835017755,0.5730287053124795,0.36451461280428227,0.2263109199997062,0.13542767579659373,0.07792893876217366,0.043152030274138095,0.023125431398871583,0.011305226855331944
0.0,5.0,5.0,0.0,120.0,0.0,0.0,0.0,0.0,-107.0,0.0,-45.0,0.0,0.0,0.0,34.27253218749016,17.55503396713325,5.878792776082945,3.2973060743209466,2.149962464768037,1.317224196912274,0.7311329781938181,0.39734865341879066,0.21425062754423654,0.11630441353732625,0.06337456321193545,0.03363173119944146,0.017097989846701335,0.008311648578391334,0.0038689022798005955,0.0017229896009734985,0.0006095392907419437,8.118615752349992,5.718853247348004,4.3469779746985,3.133560024485927,2.0905321976746607,1.3562346384090185,0.8663763346924174,0.553103198627304,0.35279320933647,0.21981473848415953,0.13203772981044357,0.0762556604779333,0.04236691644280682,0.022772138911814815,0.011163602790967002
0.0,6.0,6.0,0.0,120.0,0.0,0.0,0.0,0.0,-107.0,0.0,-45.0,0.0,0.0,0.0,34.27253218749016,17.55503396713325,5.877865929703486,3.2851357691728533,2.128582496582787,1.2915299036092545,0.7074224827174448,0.3801903004266792,0.2040621674827229,0.11095234219377535,0.06072468003198012,0.032394166978590086,0.01655578485301511,0.008087775077572615,0.0037813217264018534,0.0016903110882042387,0.0005993798535032308,8.117913152617477,5.705367418790895,4.318040051625951,3.091476262881882,2.043194141481154,1.3145564515586647,0.8362997581489984,0.5340624391911736,0.3415452814038685,0.2135531605504998,0.12875494702849374,0.07462785246477126,0.04159989697385931,0.022425678675258996,0.011024166058203392
0.0,7.0,7.0,0.0,120.0,0.0,0.0,0.0,0.0,-107.0,0.0,-45.0,0.0,0.0,0.0,34.27253218749016,17.55503396713325,5.8768492859545765,3.2729329790263537,2.1079821980505806,1.267306090601331,0.6852692804261711,0.36415262344021215,0.1944964036878525,0.10589966336389348,0.058208543047895175,0.031211862380086244,0.01603456847550041,0.007871293728053808,0.003696178833066453,0.001658391051822143,0.0005893871969306118,8.117134275473251,5.69180340979751,4.289936398917916,3.05133303597552,1.9983408368209516,1.2750296397885268,0.8076642498084762,0.5158575419234893,0.33074676844950085,0.20751541801165554,0.12557498904452177,0.07304392441382465,0.0408504327336355,0.022085880225722977,0.01088687758431705
0.0,8.0,8.0,0.0,120.0,0.0,0.0,0.0,0.0,-107.0,0.0,-45.0,0.0,0.0,0.0,34.27253218749016,17.55503396713325,5.875730347151694,3.2605931141289903,2.087961304023143,1.244319857982542,0.6644934323435968,0.3491348133477672,0.18550637496543673,0.10112611214796494,0.055817917562398775,0.030081773229159434,0.015533327492605989,0.007661897152273978,0.003613386944778416,0.0016272071016806867,0.000579560401366918,8.116268499966331,5.6780558682932,4.262442691276154,3.0128334747706487,1.9557097663725496,1.2374878368001316,0.7803810226008303,0.49844291084738196,0.32037520216079335,0.2016914005497558,0.12249375378375565,0.07150236144290932,0.040118006603849496,0.021752578932692192,0.010751698928186958
0.0,9.0,9.0,0.0,120.0,0.0,0.0,0.0,0.0,-107.0,0.0,-45.0,0.0,0.0,0.0,34.27253218749016,17.55503396713325,5.874496344295387,3.2480289497674546,2.068353959016081,1.2223727136209368,0.6449359308165332,0.3350453676178685,0.17704906164670073,0.0966130918383602,0.05354520916899588,0.029001070920388106,0.015051112343175198,0.007459294815742162,0.0035328635751257064,0.001596737744700571,0.0005698982927698137,8.115304907729161,5.664034381822298,4.235369045621873,2.9757198097414115,1.915064341463829,1.201776476315301,0.7543668409264238,0.4817759352088184,0.310409562027353,0.19607160076731034,0.11950735788552812,0.07000171917072293,0.039402122231160644,0.021425615718842952,0.010618592285783058
0.0,10.0,10.0,0.0,120.0,0.0,0.0,0.0,0.0,-107.0,0.0,-45.0,0.0,0.0,0.0,34.27253218749016,17.55503396713325,5.873133989054386,3.2351665350245247,2.049021981182382,1.2012953478490471,0.6264565304965447,0.32180135105990837,0.16908501062598386,0.09234349694847187,0.051383398736335614,0.027967122356838528,0.01458703184620497,0.007263211791184719,0.003454530126566004,0.0015669623349892031,0.0005603994802153096,8.114232095528662,5.649659973358852,4.208553447249914,2.939767890943228,1.8761919234761197,1.1677524363412535,0.7295437017552169,0.46581672798094975,0.30083014825252663,0.19064706520764257,0.11661212078096528,0.0685406192089262,0.038702302868411316,0.021104836797922757,0.010487520496967887
0.0,11.0,11.0,0.0,120.0,0.0,0.0,0.0,0.0,-107.0,0.0,-45.0,0.0,0.0,0.0,34.27253218749016,17.55503396713325,5.871629272544641,3.2219421688780496,2.0298495644789467,1.1809431803808943,0.6089317034297504,0.30932769031891216,0.16157801059304724,0.08830156142901913,0.04932598583429209,0.026977472258288223,0.014140248475659062,0.007073387641238626,0.0033783116368143497,0.0015378610276035576,0.0005510623880730491,8.113038017914088,5.634862519283083,4.181856572801423,2.9047824428126807,1.8389017763927074,1.1352835717447054,0.7058385470970919,0.4505278995648443,0.29161846957063775,0.18540935057246022,0.11380455027048675,0.06711774502864767,0.038018090299337164,0.020790093428928052,0.01035844705238426
0.0,12.0,12.0,0.0,120.0,0.0,0.0,0.0,0.0,-107.0,0.0,-45.0,0.0,0.0,0.0,34.27253218749016,17.55503396713325,5.869967294262622,3.2083001331038554,2.010739095046587,1.1611925935157952,0.5922527527012091,0.29755650419213453,0.15449480674288144,0.08447272767203944,0.04736693929886494,0.026029827505925817,0.013709974120098434,0.0068895754049061305,0.003304136547863418,0.0015094147356375424,0.0005418852841226933,8.111709848468616,5.619578812256367,4.155157689538025,2.8705929926015314,1.80302305181242,1.104248169496464,0.6831829976328063,0.4358743606272301,0.2827571439020299,0.18035048447679566,0.11108132943218094,0.06573183816358444,0.037349043839585636,0.02048124168536112,0.010231336099561438
0.0,13.0,13.0,0.0,120.0,0.0,0.0,0.0,0.0,-107.0,0.0,-45.0,0.0,0.0,0.0,34.27253218749016,17.55503396713325,5.868132110584561,3.1941909700965563,1.9916078325891506,1.1419377601431897,0.5763240992502521,0.2864264723930737,0.1478048471302505,0.08084353272701408,0.04550065385854177,0.0251220432437027,0.013295466267322299,0.006711540675357905,0.003231936494753838,0.0014816050903294709,0.0005328663043922354,8.11023385457762,5.6037510874916405,4.12835139479308,2.8370504035815953,1.7684028685692514,1.0745343506739626,0.6615131037975648,0.4218231480595882,0.27422981035300337,0.1754629301243224,0.10843930472159648,0.064381694715731,0.03669473940753141,0.020178142238633606,0.010106152504520599
0.0,14.0,14.0,0.0,120.0,0.0,0.0,0.0,0.0,-107.0,0.0,-45.0,0.0,0.0,0.0,34.27253218749016,17.55503396713325,5.866106595588651,3.1795701587635143,1.9723852659842065,1.1230879797096556,0.5610617437446245,0.2758822445666634,0.14148005504413375,0.07740150878858933,0.04372191194000366,0.024252110496719853,0.012896024563566809,0.006539060758467691,0.0031616461117647985,0.001454414403942375,0.0005240034772033933,8.108595309946491,5.587325964306198,4.101345123870811,2.804024048298053,1.734904525165423,1.046039361090646,0.6407691518276665,0.4083432555665554,0.2660210549622575,0.17073955365304747,0.1058754752447651,0.06306616212270218,0.03605476865743331,0.019880660157433467,0.009982862814953287
0.0,15.0,15.0,0.0,120.0,0.0,0.0,0.0,0.0,-107.0,0.0,-45.0,0.0,0.0,0.0,34.27253218749016,17.55503396713325,5.863872310682341,3.164397085978873,1.9530109967507683,1.1045654424564046,0.5463918955490522,0.26587389154376867,0.13549462301583534,0.07413509567622661,0.042025849870804544,0.023418145117865736,0.012510987700556503,0.006371923903791646,0.003093202853962344,0.001427825635163374,0.0005152947431810145,8.106778270590253,5.570253236117418,4.074056605118854,2.771398864544637,1.702405838333431,1.0186692642979709,0.6208952740285006,0.3954055515672933,0.25811632547196217,0.16617359833276452,0.10338698242803934,0.061784136232066425,0.03542873818006308,0.01958866470508266,0.009861432037306939
0.0,16.0,16.0,0.0,120.0,0.0,0.0,0.0,0.0,-107.0,0.0,-45.0,0.0,0.0,0.0,34.27253218749016,17.55503396713325,5.861409377004359,3.1486342378535523,1.9334330366840577,1.0863033538660651,0.5322497601936029,0.2563563985499354,0.12982482514237242,0.07103356343503173,0.04040792786751319,0.0226183778825529,0.012139730595804801,0.0062099285994516775,0.003026546832684824,0.0014018223568066435,0.0005067379673090026,8.104765571574596,5.552485454897449,4.046412591319623,2.7390736732461427,1.6707976629579702,0.992338004903521,0.6018393875251722,0.38298259977637317,0.25050188357328484,0.161758655524438,0.1009711013915983,0.06053455850810433,0.03481626874446753,0.019302029170011194,0.00974182697314921
0.0,17.0,17.0,0.0,120.0,0.0,0.0,0.0,0.0,-107.0,0.0,-45.0,0.0,0.0,0.0,34.27253218749016,17.55503396713325,5.858696350252498,3.1322465603541754,1.9136064354848221,1.068244362046877,0.5185784703714619,0.2472891987197584,0.12444884608994693,0.06808694326686152,0.038863903332014345,0.021851145581994736,0.011781661832673955,0.006052882924762397,0.0029616206634284514,0.0013763887256752544,0.0004983309583688366,8.1025386756384,5.533977232127182,4.0183473106445495,2.7069592167815806,1.6399825363640017,0.9669669266231582,0.5835529221571928,0.3710485669219075,0.2431647428117326,0.15748864208316646,0.09862523249380742,0.059316413506606096,0.03421699459861495,0.019020630691617357,0.009624015085832431
0.0,18.0,18.0,0.0,120.0,0.0,0.0,0.0,0.0,-107.0,0.0,-45.0,0.0,0.0,0.0,34.27253218749016,17.55503396713325,5.85571009547449,3.115200949194259,1.893492169506903,1.0503392369680744,0.5053281464683163,0.23863574663358325,0.11934662432974712,0.06528596573725978,0.03738980695836145,0.021114883001112947,0.0114362213302741,0.005900603954955613,0.002898369324991534,0.00135150945436687,0.0004900714834148206,8.100077558005383,5.514684748527758,3.989801321297467,2.674976622074551,1.6098734676844646,0.9424842063280896,0.5659906112685414,0.3595791210403072,0.23609261718202312,0.1533577788550935,0.0963468937044143,0.05812872651966969,0.03363056281384071,0.018744350099537118,0.00950796449593694
0.0,19.0,19.0,0.0,120.0,0.0,0.0,0.0,0.0,-107.0,0.0,-45.0,0.0,0.0,0.0,34.27253218749016,17.55503396713325,5.852425660414934,3.097465840590099,1.8730562397536232,1.0325457605620292,0.4924550727924733,0.23036312958449773,0.11449970829453494,0.06262200517222002,0.035981921292486625,0.02040811567096955,0.011102878218854518,0.005752917212880433,0.0028367400288659144,0.0013271697848861374,0.0004819572806066338,8.097360588876745,5.494565343597053,3.96072056908533,2.643056094386831,1.5803928567098622,0.9188243186310204,0.5491102904019327,0.3485513380587711,0.22927387450271783,0.14936057105752257,0.09413371358986404,0.05697056139004914,0.033056632671737064,0.018473071761872024,0.009393643974952378
0.0,20.0,20.0,0.0,120.0,0.0,0.0,0.0,0.0,-107.0,0.0,-45.0,0.0,0.0,0.0,34.27253218749016,17.55503396713325,5.848816146361605,3.0790108815389132,1.8522689382630093,1.0148277931080578,0.4799209762475411,0.22244171430566564,0.10989112424689898,0.060087029401225026,0.034636761427714484,0.019729453304059282,0.010781128898824799,0.005609656163229392,0.0027766820979715145,0.0013033554639116998,0.00047398607049700447,8.094364412684385,5.473577167909381,3.9310556090583946,2.611135806533461,1.5514715313321725,0.895927533395821,0.5328727042120216,0.33794361552115026,0.22269749397802627,0.14549179033570045,0.09198342485031577,0.05584101848015922,0.03249487509016402,0.018206683441747324,0.009281022937409657
0.0,21.0,21.0,0.0,120.0,0.0,0.0,0.0,0.0,-107.0,0.0,-45.0,0.0,0.0,0.0,34.27253218749016,17.55503396713325,5.844852575676726,3.05980666355673,1.8311042507976567,0.9971544871270466,0.4676923951978765,0.21484482669978916,0.10550525483453337,0.05767355415251864,0.03335105756675142,0.019077583833322323,0.010470495264208353,0.00547066174534555,0.0027181468539374623,0.0012800527195982552,0.00046615556587723076,8.091063823312975,5.451678885494767,3.900760960702779,2.5791609538513893,1.5230478924806232,0.8737394471123977,0.5172413218728774,0.3277355925412976,0.2163530274382101,0.1417464583157531,0.08989385835472644,0.05473923278233032,0.03194497208534909,0.01794507616164257,0.009170071431698231
0.0,22.0,22.0,0.0,120.0,0.0,0.0,0.0,0.0,-107.0,0.0,-45.0,0.0,0.0,0.0,34.27253218749016,17.55503396713325,5.84050375537297,3.0398245076936927,1.809539370544532,0.9794996248779091,0.45574012741252284,0.20754846203787505,0.10132772744149111,0.055374601526138656,0.03212173922074456,0.018451267986368786,0.010170523073636448,0.00533578194110245,0.0026610875122205827,0.0012572482397954473,0.0004584634802905384,8.087431634588569,5.428829416744222,3.869794572632176,2.5470829500115695,1.4950671557532849,0.8522105480293043,0.5021821611757531,0.31790807524812853,0.2102305638220323,0.1381198314956198,0.0878629376263109,0.0536643721582307,0.03140661626730734,0.01768814407497348,0.00906076012979906
0.0,23.0,23.0,0.0,120.0,0.0,0.0,0.0,0.0,-107.0,0.0,-45.0,0.0,0.0,0.0,34.27253218749016,17.55503396713325,5.835736136215368,3.0190362915342512,1.7875543028090135,0.9618410595874455,0.44403874713181274,0.20053102310496662,0.0973453115439103,0.05318366206601305,0.030945920849516338,0.01784933433545686,0.00988078045395904,0.005204871374695896,0.002605459084406996,0.0012349291515687205,0.00045090753531257103,8.083438545386898,5.404987714562966,3.838117377769025,2.5148587427659406,1.4674806795567839,0.831295814196428,0.48766362141761915,0.3084429671278869,0.20432069652634932,0.1346073873352471,0.08588867373591048,0.05261563569653273,0.030879510366013708,0.017435784344430123,0.008953060316144932
0.0,24.0,24.0,0.0,120.0,0.0,0.0,0.0,0.0,-107.0,0.0,-45.0,0.0,0.0,0.0,34.27253218749016,17.55503396713325,5.830513666909595,2.997414311073098,1.7651315448111133,0.9441602438908323,0.43256618241948896,0.193773083841925,0.0935458243556539,0.05109466002920166,0.0298208887752351,0.01727067477146433,0.009600856523297214,0.005077790941531738,0.002551218287121247,0.001213083001937375,0.0004434854667150144,8.079052998739174,5.380112568174252,3.805692923964359,2.4824502320718183,1.4402453703307412,0.8109543430681195,0.47365632508384103,0.2993232037790605,0.19861449330064482,0.1312048114240193,0.08396916056543118,0.05159225217897776,0.030363366786011006,0.0171878970266414,0.008846943875813971
0.0,25.0,25.0,0.0,120.0,0.0,0.0,0.0,0.0,-107.0,0.0,-45.0,0.0,0.0,0.0,34.27253218749016,17.55503396713325,5.824797642980758,2.9749311720332585,1.7422558279267355,0.9264418317247307,0.42130334500719835,0.18725717614497916,0.08991804411132424,0.04910192151215213,0.028744089225473682,0.01671424035670404,0.009330360121847745,0.004954407463658853,0.002498323457001378,0.0011916977397280406,0.0004361950296148725,8.074241034308635,5.3541624302424875,3.7724870681289233,2.4498237758374692,1.4133231562596669,0.7911490109958605,0.46013296823833516,0.2905326916808923,0.1931034684092709,0.12790798561797326,0.08210257040755592,0.05059347864591229,0.02985790718731248,0.01694438496274716,0.0087423832822317
0.0,26.0,26.0,0.0,120.0,0.0,0.0,0.0,0.0,-107.0,0.0,-45.0,0.0,0.0,0.0,34.27253218749016,17.55503396713325,5.818546549959849,2.951559706499904,1.718913912264525,0.9086733421978944,0.41023380579047286,0.18096759762336717,0.08645163038622058,0.047200145143707,0.027713117381580697,0.016179037517091183,0.00906891864008027,0.004834593369460124,0.0024467344712650854,0.0011707616984758431,0.0004290340027214992,8.068966133577582,5.327095263961389,3.738467724423439,2.416949770873804,1.3866805217035605,0.7718461607530832,0.4470681794560791,0.28205625064251627,0.18777955682247685,0.1247129770519897,0.08028714987154456,0.04961859905323105,0.029362862090649044,0.016705153674505462,0.008639351584542121
0.0,27.0,27.0,0.0,120.0,0.0,0.0,0.0,0.0,-107.0,0.0,-45.0,0.0,0.0,0.0,34.27253218749016,17.55503396713325,5.811715900480184,2.9272729117807965,1.695094425482955,0.8908448758487609,0.399343509990121,0.17489023826832023,0.08313705089818967,0.04538437509510615,0.0267257073251641,0.01566412453903701,0.008816176935103727,0.004718226395519396,0.0023964126734082386,0.0011502635802821846,0.00042200019177458456,8.06318905702224,5.2988684075278565,3.7036046590260208,2.3838022985950533,1.360288095373445,0.7530153151472937,0.43443838706768145,0.2738795596509706,0.18263509022997293,0.12161602794318509,0.07852121606810245,0.04866692301340337,0.02887797050526629,0.016470111265572875,0.008537822394777907
0.0,28.0,28.0,0.0,120.0,0.0,0.0,0.0,0.0,-107.0,0.0,-45.0,0.0,0.0,0.0,34.27253218749016,17.55503396713325,5.804258064844741,2.902043909242277,1.670787739349919,0.8729488752554725,0.38862052675160896,0.16901242414543735,0.07996551427713156,0.043649976190280194,0.025779722789742728,0.015168608340643586,0.008571796327002142,0.00460518930880209,0.002347320803642499,0.0011301924405766758,0.0004150914322770352,8.05686767246001,5.269438454055902,3.667869325569506,2.3503588266504485,1.3341202860194743,0.7346289147583295,0.4222216944341937,0.265989105875934,0.17766277469845615,0.1186135461113265,0.07680315304909932,0.04773778461395785,0.028402979577644878,0.016239168327650592,0.008437769874945758
0.0,29.0,29.0,0.0,120.0,0.0,0.0,0.0,0.0,-107.0,0.0,-45.0,0.0,0.0,0.0,34.27253218749016,17.55503396713325,5.7961220945591325,2.875845921558735,1.6459858788190747,0.8549799232487895,0.3780548286227176,0.1633227763810177,0.07692890832530706,0.041992610926979285,0.02487314863670595,0.014691641490399414,0.008335453667820915,0.004495369647448394,0.0022994229336931247,0.0011105376737094584,0.00040830559161020736,8.04995677362983,5.238761145519311,3.631234736607173,2.316599959042796,1.3081549600772915,0.7166620778752163,0.41039776293146984,0.2583721366199768,0.17285566981814848,0.11570209615052103,0.07513140848042334,0.0468305413073982,0.02793764425964216,0.01601223785118096,0.00833916872412263
0.0,30.0,30.0,0.0,120.0,0.0,0.0,0.0,0.0,-107.0,0.0,-45.0,0.0,0.0,0.0,34.27253218749016,17.55503396713325,5.787253538232979,2.8486522673904795,1.6206824594128324,0.8369345730395417,0.36763809693395444,0.15781108386703024,0.07401974332640147,0.04040821824181381,0.024004082985001677,0.014232419449717343,0.00810684047666952,0.004388659478646768,0.002252684405621593,0.001091288999324706,0.00040164057061671765,8.042407887908812,5.206791279776249,3.5936753674884825,2.282509228442284,1.282373156329918,0.6990923807714831,0.3989477022959928,0.2510166140271778,0.16820716920340129,0.11287839119376368,0.07350449052844443,0.045944572867074734,0.02748172699468498,0.015789235140326697,0.008241994165637258
0.0,31.0,31.0,0.0,120.0,0.0,0.0,0.0,0.0,-107.0,0.0,-45.0,0.0,0.0,0.0,34.27253218749016,17.55503396713325,5.777594249136159,2.820436372996893,1.594872649515533,0.8188112054481987,0.3573635496149703,0.1524681882563369,0.07123109999395746,0.03889299387118082,0.02317072993268717,0.01379017801837826,0.007885662135090687,0.004284955172192023,0.002207071774354855,0.0010724364494522469,0.00039509430472383413,8.034169071875658,5.1734826301454815,3.5551670898607877,2.248072925370425,1.2567588331883808,0.6818996565479939,0.3878539679666684,0.2439111723821348,0.1637109822294343,0.11013928521838685,0.07192096494252145,0.0450792804040416,0.0270349974207598,0.015570077731969353,0.008146221934404051
0.0,32.0,32.0,0.0,120.0,0.0,0.0,0.0,0.0,-107.0,0.0,-45.0,0.0,0.0,0.0,34.27253218749016,17.55503396713325,5.767082183554993,2.791171800719337,1.5685531548332052,0.8006099091465978,0.34722578842212676,0.14728587995792358,0.06855658168050571,0.03744337217597829,0.022371392815933658,0.013364190964318847,0.007671637137470723,0.004184157188475195,0.0021625527536488823,0.0010539703562813735,0.0003886647646859683,8.025184693200563,5.138787877387177,3.5156871326989783,2.2132799597393196,1.2312986446781073,0.6650658108744928,0.3771002650479764,0.23704507784670184,0.15936111690174312,0.10748176584609342,0.07037945231773458,0.04423408544035708,0.026597232089042307,0.015354685318486903,0.008051828264462612
0.0,33.0,33.0,0.0,120.0,0.0,0.0,0.0,0.0,-107.0,0.0,-45.0,0.0,0.0,0.0,34.27253218749016,17.55503396713325,5.755651188927829,2.7608322946474324,1.541722222801002,0.7823323804164142,0.33722066293517733,0.14225680397027404,0.06599027049772314,0.036056009311587124,0.02160446795746297,0.012953767821257843,0.00746449639178336,0.004086169879750931,0.0021190961652145374,0.0010358813405611626,0.0003823499570006708,8.01539519707052,5.102658554305323,3.4752140693367486,2.178121750909207,1.2059817416441403,0.6485746530694425,0.36667145851777,0.23040819049426678,0.1551518637670353,0.10490294759622663,0.0688786255235506,0.04340842903470438,0.026168214197118313,0.015142979674094389,0.007958789876769531
0.0,34.0,34.0,0.0,120.0,0.0,0.0,0.0,0.0,-107.0,0.0,-45.0,0.0,0.0,0.0,34.27253218749016,17.55503396713325,5.74323078075427,2.7293918444988874,1.5143796653162391,0.763981839113652,0.32734514910874957,0.13737437447962125,0.0635266870388791,0.034727767632093245,0.020868438862686845,0.01255825183931364,0.007263982566478409,0.003990901303647401,0.0020766718907780954,0.0010181603005915026,0.0003761479252382814,8.004736844986,5.065045004048305,3.4337278402559384,2.142592147090172,1.1807995897300945,0.6324117429488519,0.3565534889717204,0.2239909285141441,0.15107778079809825,0.1024000655507149,0.06741720728679096,0.04260177095623582,0.02574773333588414,0.014934884584530577,0.00786708396070823
0.0,35.0,35.0,0.0,120.0,0.0,0.0,0.0,0.0,-107.0,0.0,-45.0,0.0,0.0,0.0,34.27253218749016,17.55503396713325,5.729745910820909,2.6968247676243124,1.486526893190126,0.745562957114265,0.3175972424794254,0.13263269652932183,0.06116075352304486,0.033455701240382135,0.020161870818023262,0.01217701807783258,0.007069849479104615,0.0038982630481177337,0.0020352508268270436,0.001000798401769904,0.000370056752553128,7.993141452295794,5.0258963506374315,3.391209779067113,2.1066873600845484,1.155745816651339,0.6165642466928462,0.3467332944810887,0.21778423446854134,0.14713367914065598,0.09997046941124277,0.06599396791346167,0.04181358890414111,0.02533558524904781,0.014730325779908595,0.007776688165592749
0.0,36.0,36.0,0.0,120.0,0.0,0.0,0.0,0.0,-107.0,0.0,-45.0,0.0,0.0,0.0,34.27253218749016,17.55503396713325,5.715116710448744,2.663105810419999,1.458166976098112,0.7270818033450825,0.30797585650848047,0.12802649664817223,0.058887759587743796,0.03223704260749854,0.019483405874505765,0.011809471622493184,0.006881861525002838,0.003808170066524608,0.00199480484193775,0.0009837870666456543,0.00036407455384399376,7.9805361246659485,4.98516048602494,3.347642641368711,2.070405909883279,1.1308160877886664,0.601020799988226,0.3371987383684735,0.21177954345408828,0.1433146096634149,0.09761161791827096,0.0646077231388684,0.041043377769809763,0.02493157160439082,0.014529230870538727,0.007687580612819159
0.0,37.0,37.0,0.0,120.0,0.0,0.0,0.0,0.0,-107.0,0.0,-45.0,0.0,0.0,0.0,34.27253218749016,17.55503396713325,5.699258223813721,2.6282102741206392,1.4293047132250436,0.7085457940317067,0.2984807333473987,0.12355105861577297,0.05670333111981368,0.031069190131537444,0.01883175817677347,0.011455045921133975,0.006699793141380585,0.0037205405225181395,0.0019553067364032777,0.0009671179654679828,0.0003581994802545446,7.9668428913714315,4.942784077007378,3.3030107391811603,2.0337486191666003,1.1060079555805655,0.5857713957119245,0.32793853921429034,0.2059687531202215,0.13961585037265728,0.09532107356228772,0.06325733210844221,0.04029064893564695,0.024535499776678182,0.014331529285571203,0.007599739855085242
0.0,38.0,38.0,0.0,120.0,0.0,0.0,0.0,0.0,-107.0,0.0,-45.0,0.0,0.0,0.0,34.27253218749016,17.55503396713325,5.682080123992458,2.5921141617494357,1.3999467138624542,0.6899636515531693,0.28911236303686955,0.1192021645650354,0.05460340162487116,0.029949696621614535,0.018205709601417732,0.011113201229871953,0.006523428303963418,0.003635295643955291,0.0019167302040246012,0.0009507830071878467,0.0003524297179950398,7.951978372565918,4.898712587606658,3.257300030493996,1.9967185980767532,1.0813207553679396,0.5708072687707277,0.3189422074699636,0.20034419540468815,0.1360328944579992,0.09309649762687841,0.0619416954628324,0.0395549296123645,0.024147182640600888,0.014137152214289305,0.007513144876356352
0.0,39.0,39.0,0.0,120.0,0.0,0.0,0.0,0.0,-107.0,0.0,-45.0,0.0,0.0,0.0,34.27253218749016,17.55503396713325,5.6634864066876025,2.554794351433647,1.370101493096199,0.6713453696704763,0.2798719084099234,0.11497604139673319,0.05258418588839775,0.02887625860928595,0.017604105692109198,0.010783423157888904,0.006352560054397245,0.0035523595850492718,0.001879049795922365,0.0009347743308785774,0.0003467634876538845,7.935853394644219,4.852890324534788,3.210498252980717,1.9593212502616744,1.0567555025913271,0.5561207924069573,0.31019998567435453,0.19489860990043337,0.13256143903121748,0.09093564550409672,0.06065975352971029,0.03883576220970561,0.0237664383736269,0.013946032549909582,0.007427775081867616
0.0,40.0,40.0,0.0,120.0,0.0,0.0,0.0,0.0,-107.0,0.0,-45.0,0.0,0.0,0.0,34.27253218749016,17.55503396713325,5.643375060588653,2.5162287978893736,1.3397795796538754,0.652702183317428,0.2707611354434055,0.11086931168734859,0.05064215577642869,0.02784670643195296,0.01702585186560668,0.010465221304247109,0.006186990055849773,0.0034716592962305134,0.0018422408862389503,0.0009190842975662114,0.00034119904336442374,7.918372566283365,4.805260507581975,3.1625950834072767,1.92156429173503,1.0323147989394794,0.5417053818140551,0.3017027925591708,0.1896251187644536,0.12919737449160765,0.0888363622705958,0.05941048461276071,0.03813270373895169,0.02339309026806474,0.013758104835757885,0.007343610288495814
0.0,41.0,41.0,0.0,120.0,0.0,0.0,0.0,0.0,-107.0,0.0,-45.0,0.0,0.0,0.0,34.27253218749016,17.55503396713325,5.621637711664752,2.476396764869522,1.3089936352066116,0.6340465414975298,0.26178234811381973,0.10687894862441974,0.04877401800147855,0.026858995031742217,0.016469909868471386,0.010158127979756851,0.0060265281747244204,0.00339312440116958,0.0018062796395906537,0.0009037054824338459,0.00033573467181413765,7.899433809595153,4.755765368664938,3.113582323679066,1.8834577810922413,1.0080027458808842,0.5275554042679355,0.2934421707713405,0.18451720308398922,0.12593677447900783,0.08679657850655927,0.058192903371229815,0.03744532524515451,0.023026966551781092,0.013573305213689987,0.00726063071544479
0.0,42.0,42.0,0.0,120.0,0.0,0.0,0.0,0.0,-107.0,0.0,-45.0,0.0,0.0,0.0,34.27253218749016,17.55503396713325,5.59815923859307,2.4352790917022835,1.2777585843758381,0.6153920818886465,0.2529383269229961,0.10300223455790138,0.046976693694877135,0.02591119541785284,0.015935294466138658,0.009861697007569269,0.0058709920865899585,0.0033166870804703335,0.0017711429801572955,0.0008886306673784701,0.00033036869110043046,7.878927840164795,4.704346283979809,3.0634541146265866,1.8450141596602416,0.9838248641245315,0.5136660950509166,0.285410237958447,0.17956868062001166,0.12277588637891129,0.08481430634110884,0.057006059283965446,0.0367732112672142,0.022667900217061984,0.013391571374637012,0.0071788169751739045
0.0,43.0,43.0,0.0,120.0,0.0,0.0,0.0,0.0,-107.0,0.0,-45.0,0.0,0.0,0.0,34.27253218749016,17.55503396713325,5.572817357007875,2.3928584977345686,1.2460917546446124,0.5967536053973929,0.24423227023421548,0.0992367229592014,0.04524729959261705,0.025001486751295748,0.015421070347892096,0.009575502596336436,0.0057202069047499636,0.0032422819615402134,0.0017368085623162006,0.0008738528339072996,0.0003250994503880335,7.856737598978025,4.650943969003891,3.0122072060871705,1.8062483083413325,0.9597879948722573,0.5000334879776721,0.27759963770877333,0.17477368591128262,0.119711122101204,0.08288763575289339,0.055849035185837934,0.036115959324769,0.022315728857257567,0.013212842510989833,0.00709815019505531
0.0,44.0,44.0,0.0,120.0,0.0,0.0,0.0,0.0,-107.0,0.0,-45.0,0.0,0.0,0.0,34.27253218749016,17.55503396713325,5.545482172113451,2.3491199297962493,1.2140130249487235,0.5781470472359538,0.23566773753806958,0.09558020407591215,0.043583130517870904,0.024128149024289038,0.014926349237873303,0.009299138277979298,0.005574004830692388,0.003169846013996617,0.001703254742764759,0.0008593651563428838,0.000319925332893026,7.832737673060299,4.595498853295767,2.959841408630107,1.7671776573090892,0.9359000783118603,0.486654402723122,0.2700034753279849,0.17012665746633382,0.11673904798644609,0.08101473131070709,0.054720945841506684,0.03547317943354959,0.021970294511281366,0.013037059269922133,0.007018612861373705
0.0,45.0,45.0,0.0,120.0,0.0,0.0,0.0,0.0,-107.0,0.0,-45.0,0.0,0.0,0.0,34.27253218749016,17.55503396713325,5.516015678857887,2.3040509446403323,1.1815449814827663,0.5595894590789422,0.22724859768946504,0.09203066843748119,0.041981644775244194,0.02328955607956727,0.014450287173809374,0.009032215923536592,0.005432224818918729,0.003099318451931629,0.0016704605536515232,0.0008451609953500667,0.00031484473229881555,7.806793322329797,4.537950714863303,2.9063591917431606,1.7278220350353124,0.9121706717175949,0.47352612991186227,0.26261536219937837,0.165622291842871,0.11385638313277302,0.079193827686257,0.05362093680099433,0.03484449362076537,0.02163144351123421,0.012864163714199846,0.006940185436260033
0.0,46.0,46.0,0.0,120.0,0.0,0.0,0.0,0.0,-107.0,0.0,-45.0,0.0,0.0,0.0,34.27253218749016,17.55503396713325,5.484271249579389,2.257642159905798,1.1487130818224496,0.5410989660146096,0.21897897190901108,0.08858628107888,0.04044044824226187,0.02248416948578011,0.013992081976971944,0.008774364795130168,0.005294712267890839,0.0030306406389456505,0.0016384056775184486,0.00083123389169957,0.00030985607906706416,7.7787599578664235,4.478239695095422,2.8517667889102714,1.6882039627224017,0.8886102400945773,0.4606466301714064,0.25542928620998023,0.16125555592045596,0.1110599849071473,0.07742322769266818,0.05254818296655929,0.03422953550026457,0.02129902634265877,0.012694099275258015,0.006862850015830893
0.0,47.0,47.0,0.0,120.0,0.0,0.0,0.0,0.0,-107.0,0.0,-45.0,0.0,0.0,0.0,34.27253218749016,17.55503396713325,5.450093063715687,2.2098877466275595,1.1155458211581841,0.5226947327938559,0.21086318266343737,0.08524535201518578,0.038957281546701035,0.021710532590451165,0.0135509708788143,0.008525230666516385,0.005161318722670099,0.0029637559994796594,0.0016070704230426091,0.0008175775603313323,0.0003049578290429624,7.748482151752633,4.416306456466952,2.796074302397676,1.648348641394475,0.8652303089957545,0.44801437774175684,0.24843960846373866,0.1570216601316279,0.10834684416712878,0.07570129883681077,0.05150188746826247,0.033627949841398226,0.020972897506512257,0.012526810714540667,0.006786589044798171
0.0,48.0,48.0,0.0,120.0,0.0,0.0,0.0,0.0,-107.0,0.0,-45.0,0.0,0.0,0.0,34.27253218749016,17.55503396713325,5.413315502186009,2.1607859853032036,1.0820749014251263,0.5043969199216439,0.2029057015149572,0.08200631032431967,0.037530007862013604,0.020967265076977992,0.013126228297560738,0.008284474991279957,0.005031901594661528,0.0028986099342115158,0.0015764357019880364,0.0008041858846593261,0.00030014846301097665,7.715792641401989,4.352092660983422,2.739296110328556,1.608284018390733,0.8420433935173697,0.43562829938049663,0.2416410301926939,0.15291604302426626,0.10571407847175769,0.07402647045098434,0.0504812805328258,0.033039392163957654,0.02065291538802779,0.012362244084682233,0.006711385307293244
0.0,49.0,49.0,0.0,120.0,0.0,0.0,0.0,0.0,-107.0,0.0,-45.0,0.0,0.0,0.0,34.27253218749016,17.55503396713325,5.373762502988573,2.110339887314807,1.0483353997686298,0.48622663166602126,0.19511109708655267,0.07886768012688504,0.03615660173550265,0.020253057917834418,0.012717163755198276,0.008051774118484458,0.004906323896176559,0.002835149739628706,0.0015464830072034713,0.0007910529111178693,0.00029542648682882915,7.680511220467061,4.285541542797163,2.6814513098172736,1.568040851236803,0.8190629250570135,0.42348771563710186,0.2350285617318928,0.14893435675521705,0.10315892566053465,0.07239723096936057,0.04948561840629337,0.032463528351226685,0.020338942131018882,0.012200346692164072,0.006637221917932896
0.0,50.0,50.0,0.0,120.0,0.0,0.0,0.0,0.0,-107.0,0.0,-45.0,0.0,0.0,0.0,34.27253218749016,17.55503396713325,5.331246880929982,2.058557887163694,1.0143659329001797,0.46820585444581303,0.1874839829136023,0.07582805834320776,0.03483513887533563,0.019566668696406903,0.012323119925478368,0.007826818552637985,0.004784453988863923,0.0027733245315180303,0.0015171943916018112,0.0007781728439262621,0.00029079043210908145,7.642443505223787,4.216598589648459,2.622564196496616,1.5276527662023627,0.7963031748485054,0.4115922842103097,0.22859749343310712,0.14507245346577954,0.10067873778091642,0.07081212534084007,0.04851418232735519,0.03190003428013201,0.0200308435173421,0.012041067061369924,0.006564082313448524
0.0,51.0,51.0,0.0,120.0,0.0,0.0,0.0,0.0,-107.0,0.0,-45.0,0.0,0.0,0.0,34.27253218749016,17.55503396713325,5.285569616657955,2.0054546109747458,0.9802088131161294,0.45035738401182207,0.18002896502432983,0.07288609413057304,0.033563786829294846,0.018906917271955457,0.011943470804232062,0.0076093122550933085,0.004666165345153652,0.00271308517214393,0.0014885524480721622,0.0007655400400728986,0.0002862388572210237,7.601379565054349,4.145212349716066,2.562664780124998,1.4871563084876354,0.7737791733269004,0.39994194514915454,0.22234336840538718,0.14132637249276842,0.09827097534600478,0.06926975257058553,0.04756627754843103,0.03134859546755,0.019728488851248966,0.011884354899976617,0.006491950245229591
0.0,52.0,52.0,0.0,120.0,0.0,0.0,0.0,0.0,-107.0,0.0,-45.0,0.0,0.0,0.0,34.27253218749016,17.55503396713325,5.236519123097387,1.9510517265367826,0.9459101908247636,0.4327047397992022,0.1727505891682813,0.07004046992389934,0.03234079649435844,0.01827268176403521,0.011577619993880947,0.007398971984201176,0.004551336321900351,0.0026543842008921047,0.0014605402902625813,0.0007531490044973673,0.00028177034811848774,7.557092405538335,4.071335382559936,2.5017893350582,1.4465909805642083,0.7515066244232583,0.3885368677041779,0.21626195698277187,0.13769232837184964,0.09593320190518927,0.06776876338301942,0.04664123240180968,0.030808906731894525,0.019431750848371784,0.011730161065617322,0.006420809773006801
0.0,53.0,53.0,0.0,120.0,0.0,0.0,0.0,0.0,-107.0,0.0,-45.0,0.0,0.0,0.0,34.27253218749016,17.55503396713325,5.183870501255108,1.8953788796767355,0.9115201773466406,0.415272064810159,0.16565328769373427,0.06728988402108094,0.031164494401860393,0.01766289483441757,0.01122499909460012,0.007195526671748047,0.0044398499454946965,0.0025971757681822003,0.0014331415341944948,0.0007409943854672039,0.0002773835183031753,7.509336292779475,3.994925375111581,2.43998098314386,1.4059992647260968,0.729501813947693,0.3773773986806203,0.2103492328311791,0.13416669959263863,0.09366307891154003,0.06630785799956175,0.04573839740834095,0.03028067186916702,0.019140505529114768,0.011578437533755568,0.006350645259601126
0.0,54.0,54.0,0.0,120.0,0.0,0.0,0.0,0.0,-107.0,0.0,-45.0,0.0,0.0,0.0,34.27253218749016,17.55503396713325,5.127384802575067,1.8384747208822745,0.8770929405162454,0.3980840093994778,0.15874132616097833,0.06463303467027672,0.03003327572797707,0.017076540246102653,0.010885066195084047,0.006998716833385119,0.004331593707746443,0.0025414155724581477,0.0014063402806520585,0.0007290709701345909,0.00027307700719978947,7.457844908080407,3.915946446104678,2.3772903049682768,1.3654266253870668,0.7077815112959106,0.3664640121898613,0.2046013506176026,0.13074601806768107,0.09145836087066388,0.06488578402483687,0.044857144426337356,0.02976360334270469,0.01885463211621657,0.011429137366710604,0.006281441366185831
0.0,55.0,55.0,0.0,120.0,0.0,0.0,0.0,0.0,-107.0,0.0,-45.0,0.0,0.0,0.0,34.27253218749016,17.55503396713325,5.066808333849274,1.7803880198170547,0.8426867527935764,0.38116560439632435,0.15201874716599129,0.062068606411838444,0.02894559782700212,0.016512649695429243,0.010557304456713046,0.006808294010293571,0.00422645937216536,0.0024870608000079346,0.0013801210983324544,0.0007173736802629174,0.0002688494942875557,7.402329279674964,3.8343707188052365,2.3137760147066593,1.3249214440164447,0.6863628806738056,0.35579725662889916,0.1990146257140873,0.12742695930319692,0.08931689073171449,0.06350133444325438,0.043996865836383604,0.02925742198643699,0.018574012936184794,0.011282214683781247,0.006213183015883966
0.0,56.0,56.0,0.0,120.0,0.0,0.0,0.0,0.0,-107.0,0.0,-45.0,0.0,0.0,0.0,34.27253218749016,17.55503396713325,5.001872015510968,1.721178868595018,0.8083640050585263,0.364542111817142,0.14548931546654242,0.05959525736791217,0.027899974574795827,0.01597029984968531,0.010241220789891942,0.006624020240045845,0.0041243427898135275,0.0024340700675517957,0.0013544690076829585,0.000705897568128704,0.0002646996847832907,7.342475681693196,3.7501799448940414,2.2495055015873167,1.2845350725280396,0.665263324593926,0.3453777175612345,0.19358551343564545,0.12420633313083304,0.08723659562025429,0.062153345684978434,0.04315697376973506,0.028761856718628277,0.018298533324875684,0.011137624632434145,0.00614585546471794
0.0,57.0,57.0,0.0,120.0,0.0,0.0,0.0,0.0,-107.0,0.0,-45.0,0.0,0.0,0.0,34.27253218749016,17.55503396713325,4.932290827643636,1.6609200085339195,0.7741911869055957,0.348238829038223,0.13915647416679386,0.057211605450169616,0.026894971631744213,0.015448609627069397,0.00993634459519947,0.006445667560496853,0.004025143722807509,0.002382403367743035,0.0013293694653292176,0.0006946378125684191,0.0002606262786388223,7.2779431671920385,3.6633676254356105,2.184555539693028,1.2443216770347238,0.6445003882890555,0.3352059651504247,0.18831059184199733,0.1210810751597994,0.08521548270746561,0.06084069581611812,0.04233689936201914,0.028276644269452623,0.018028081536237684,0.010995323360475876,0.006079444249013871
0.0,58.0,58.0,0.0,120.0,0.0,0.0,0.0,0.0,-107.0,0.0,-45.0,0.0,0.0,0.0,34.27253218749016,17.55503396713325,4.857763481677446,1.5996981982948448,0.7402387530621348,0.3322809069812731,0.1330232879257642,0.054916219634650036,0.025929201707985756,0.014946737695842682,0.009642226595021501,0.006273017534539149,0.003928765677942828,0.0023320220167031068,0.0013048083492222314,0.00068358971517753,0.00025662798873320083,7.208360964359008,3.573941371564434,2.119012936761997,1.2043380872515763,0.6240916357508989,0.3252825077858511,0.1831865453068181,0.11804823877357264,0.08325163533918802,0.05956230280634079,0.04153609204184904,0.027801528919074933,0.017762548654594996,0.01085526798919064,0.006013935157574631
0.0,59.0,59.0,0.0,120.0,0.0,0.0,0.0,0.0,-107.0,0.0,-45.0,0.0,0.0,0.0,34.27253218749016,17.55503396713325,4.777972353422755,1.5376156547186612,0.7065809186958769,0.3166931353410402,0.1270923920861686,0.05270761152600334,0.025001320567906937,0.014463880154160452,0.009358437733014681,0.006105860800953282,0.003835115747878148,0.0022828886040062077,0.001280771944350939,0.0006727486966534806,0.00025270354450679085,7.133325742458804,3.4819255617608156,2.0529751120225788,1.1646436284270867,0.6040545038744015,0.31560775055953527,0.17821014896471887,0.11510498766995421,0.08134320940019607,0.05831712287288267,0.040754018851799675,0.0273362622459036,0.017501828510272936,0.010717416587393804,0.005949314230551497
0.0,60.0,60.0,0.0,120.0,0.0,0.0,0.0,0.0,-107.0,0.0,-45.0,0.0,0.0,0.0,34.27253218749016,17.55503396713325,4.692583826133574,1.47479152889972,0.6732953506557617,0.3014997060962393,0.1213659440233575,0.050584228448009354,0.02411002351305751,0.013999268394590137,0.009084568138507073,0.005943996648614004,0.003744104459880542,0.0022349669448550945,0.0012572469290123701,0.0006621102932693458,0.00024885170839814653,7.052398737803343,3.3873643892633867,1.9865506252759202,1.1252998785262804,0.5844061548893783,0.306181953896764,0.17337825465540554,0.1122485889438396,0.07948842987359198,0.05710414890573688,0.03999016379767971,0.026880602885108556,0.0172458175982856,0.010581728146359354,0.005885567751280121
0.0,61.0,61.0,0.0,120.0,0.0,0.0,0.0,0.0,-107.0,0.0,-45.0,0.0,0.0,0.0,34.27253218749016,17.55503396713325,4.601249233491791,1.4113633763027509,0.6404627301474015,0.2867239491258243,0.11584558339085273,0.048544446004780105,0.02325404278415985,0.013552167088721409,0.008820226149388526,0.005787232615078047,0.0036556456308299914,0.0021882220346061804,0.001234220361551491,0.0006516701534845963,0.00024507132315490087,6.965103000834215,3.2903256095877955,1.9198597556066808,1.0863701112766184,0.5651633984802846,0.29700517021495776,0.16868778929018252,0.10947640324059416,0.07768558830384042,0.05592240884000284,0.03924402724459599,0.02643431629480085,0.016994414999587405,0.010448162556106144,0.005822683221047731
0.0,62.0,62.0,0.0,120.0,0.0,0.0,0.0,0.0,-107.0,0.0,-45.0,0.0,0.0,0.0,34.27253218749016,17.55503396713325,4.503606589318936,1.347488538945032,0.6081662042754924,0.272388074755189,0.1105323750914355,0.0465865694477598,0.022432143739484503,0.013121872516100856,0.008565037396300178,0.005635384097775505,0.003569656232065671,0.0021426200043478893,0.0012116796678385137,0.0006414240346493103,0.00024136129716483185,6.870920141431919,3.19090357692215,1.853034398718746,1.0479195666565622,0.5463423257691541,0.28807726978352566,0.16413571407981412,0.1067858878286222,0.07593303787946604,0.05477096455657249,0.038515125270404585,0.02599717453826434,0.01674752230657763,0.010316680580585534,0.0057606468388480825
0.0,63.0,63.0,0.0,120.0,0.0,0.0,0.0,0.0,-107.0,0.0,-45.0,0.0,0.0,0.0,34.27253218749016,17.55503396713325,4.399283506357519,1.283345384779627,0.5764906554887463,0.2585128679325401,0.10542678127002396,0.044708828282824825,0.021643123395966083,0.012707710789247761,0.00831864394303104,0.005488273991795649,0.0034860562575440308,0.002098128079331248,0.0011896126289659562,0.0006313677998647336,0.00023772068734326886,6.769288103411654,3.089224028399495,1.7862184306175535,1.010014546957979,0.5279582790568276,0.27939786366109803,0.15971903408845217,0.10417458500801197,0.07422919181116884,0.05364891029114878,0.03780298912828334,0.025568956066436492,0.016505043549567694,0.010187243835949029,0.005699445273947267
0.0,64.0,64.0,0.0,120.0,0.0,0.0,0.0,0.0,-107.0,0.0,-45.0,0.0,0.0,0.0,34.27253218749016,17.55503396713325,4.287901654027436,1.2191342564241043,0.545521806646454,0.24511738060602697,0.10052863226590064,0.04290937475190315,0.02088580873624804,0.012309036311629317,0.008080703467248748,0.005345732345442353,0.0034047685986966065,0.002054714538946013,0.001168007369471583,0.0006214974149348948,0.00023414875415957517,6.659599328058101,2.9854487528578977,1.7195675966987969,0.9727217999364096,0.5100257018287193,0.27096626538683605,0.15543479230773732,0.10164011611367722,0.07257252081016684,0.052555371296570244,0.037107164704480645,0.025149445511598468,0.016266885126405024,0.010059814768755644,0.005639065999117393
0.0,65.0,65.0,0.0,120.0,0.0,0.0,0.0,0.0,-107.0,0.0,-45.0,0.0,0.0,0.0,34.27253218749016,17.55503396713325,4.169083294302209,1.1550779803421827,0.5153451515850339,0.23221862285611522,0.09583709953677086,0.04118628555370767,0.02015905499960104,0.01192523039086995,0.00785088849065692,0.005207596030417519,0.0033257189259495255,0.0020123486781320537,0.001146852346052301,0.0006118089454241089,0.00023064501542216138,6.541199907917307,2.8797802813904645,1.6532489754350987,0.9361079960582748,0.49255792971604867,0.26278147380558686,0.15128005669308192,0.09918017847224608,0.07096155020008434,0.05148950265775339,0.03642721198488992,0.024738433490377135,0.016032955734845745,0.009934356634499026,0.005579496915465479
0.0,66.0,66.0,0.0,120.0,0.0,0.0,0.0,0.0,-107.0,0.0,-45.0,0.0,0.0,0.0,34.27253218749016,17.55503396713325,4.042460615355835,1.0914217480985486,0.4860446938643196,0.21983125170811935,0.09135067904068649,0.03953756420610158,0.01946174449370785,0.011555699941196354,0.0076288856507525215,0.005073708429063006,0.003248835575443986,0.001971000770486395,0.0011261363366634244,0.0006022985538174268,0.00022720934166889814,6.4133906115761645,2.7724667953858835,1.58744011986094,0.900239003012296,0.47556701778802996,0.25484214882670503,0.14725191341964997,0.096792541209981,0.06939485749475717,0.05045048810579207,0.035762704552030775,0.024335716413441535,0.01580316630709936,0.009810833477044159,0.005520726416560215
0.0,67.0,67.0,0.0,120.0,0.0,0.0,0.0,0.0,-107.0,0.0,-45.0,0.0,0.0,0.0,34.27253218749016,17.55503396713325,3.9076887658239254,1.0284321303477364,0.45770153391632157,0.20796725325100565,0.08706718746294222,0.03796114455226903,0.01879278560124402,0.011199876336289164,0.007414394999914533,0.004943919139306426,0.0031740494405804753,0.0019306420329532126,0.0011058484300060754,0.0005929624967682258,0.00022384206746553056,6.275430606559433,2.6638070565787615,1.5223275604386615,0.86517912876013,0.45906355222028744,0.24714659581123613,0.14334746074083132,0.09447504142981321,0.06787107013384601,0.049437538878524256,0.03511322910482699,0.02394109630193102,0.0155774299467142,0.00968921010870189,0.005462743318114598
0.0,68.0,68.0,0.0,120.0,0.0,0.0,0.0,0.0,-107.0,0.0,-45.0,0.0,0.0,0.0,34.27253218749016,17.55503396713325,3.7644640819832995,0.9663948977030931,0.4303922157072805,0.19663568959661995,0.0829837615557902,0.03645489500114833,0.01815111270081224,0.010857214169387074,0.007207129376408171,0.004818083687203974,0.0031012938696900203,0.001891244591813138,0.0010859780153757712,0.0005837971224726527,0.00022054448116121594,6.126545677017644,2.5541539555952784,1.4581054113847016,0.8309900705650106,0.44305654834138036,0.23969273758616005,0.13956380613500846,0.09222558080552196,0.06638886326592275,0.04844989265811192,0.03447838499087243,0.023554380612610382,0.015355661867234595,0.009569452090931008,0.005405537351969376
0.0,69.0,69.0,0.0,120.0,0.0,0.0,0.0,0.0,-107.0,0.0,-45.0,0.0,0.0,0.0,34.27253218749016,17.55503396713325,3.6125487257542246,0.9056116410359611,0.40418693139293516,0.18584244914291528,0.07909686660142129,0.03501662741081646,0.017535685111863944,0.01052719035117501,0.007006813768133295,0.00469606325908671,0.003030504568109754,0.001852781449928165,0.0010665147729443647,0.0005747988680851429,0.00021731901513970638,5.965942323388232,2.4439179903659545,1.3949724992517285,0.7977300832991371,0.42755325929234184,0.23247811373320995,0.13589806178177094,0.09004212243891017,0.06494695775833677,0.04748681252140123,0.033857783767757395,0.023175382067175336,0.01513777933340725,0.009451525715624706,0.005349099044029298
0.0,70.0,70.0,0.0,120.0,0.0,0.0,0.0,0.0,-107.0,0.0,-45.0,0.0,0.0,0.0,34.27253218749016,17.55503396713325,3.451804435857077,0.8463944935407648,0.37914770422462124,0.1755900370906438,0.07540232556834334,0.033644103468634425,0.01694548714043227,0.010209303152602076,0.006813184718288102,0.0045777244466396,0.0029616195042779718,0.0018152264555118046,0.0010474486643051587,0.0005659642572445041,0.00021416994700546586,5.792831351875857,2.333568402885454,1.3331292365454106,0.765452965987437,0.4125590523974001,0.22549987449167627,0.13234734244134178,0.08792268808580021,0.06354411826411938,0.046547585952953864,0.03325104877800337,0.022803918488995576,0.014923701604116166,0.00933539798696956,0.005293420049212791
0.0,71.0,71.0,0.0,120.0,0.0,0.0,0.0,0.0,-107.0,0.0,-45.0,0.0,0.0,0.0,34.27253218749016,17.55503396713325,3.2822379177600904,0.7890589552978888,0.3553265135265252,0.16587743841025207,0.07189535628070604,0.03233504299634781,0.016379528117245943,0.009903071337998028,0.006625989756015961,0.004462939004420303,0.0028945788204299584,0.001778554272041009,0.0010287699233636268,0.0005572898976724835,0.00021110438364700302,5.6064653716684605,2.2236317055746095,1.2727736561990715,0.7342070299798561,0.39807731510720046,0.2187547832102043,0.12890876198868967,0.08586535638060029,0.062179151249689334,0.04563152392693978,0.03265781473781967,0.022439812646272466,0.01471334987727063,0.009221036603742972,0.005238494204187749
0.0,72.0,72.0,0.0,120.0,0.0,0.0,0.0,0.0,-107.0,0.0,-45.0,0.0,0.0,0.0,34.27253218749016,17.55503396713325,3.1040609895117655,0.7339146077238422,0.33276351264137294,0.1567000592185943,0.06857061846502731,0.031087133267703314,0.01583684266756685,0.009608033318066462,0.006444986860248183,0.004351583617778947,0.0028293247478483924,0.0017427403492541135,0.0010104690475510921,0.0005487724788582881,0.00020813366794547895,5.406195956969016,2.114686182847168,1.2140970433577276,0.7040341093788766,0.3841093773131645,0.2122392195680391,0.12557943506255365,0.08386826013466536,0.06085090335920018,0.04473795998582509,0.03207772734980441,0.022082892100135917,0.01450664723638574,0.009108409942310993,0.005184318101253709
0.0,73.0,73.0,0.0,120.0,0.0,0.0,0.0,0.0,-107.0,0.0,-45.0,0.0,0.0,0.0,34.27253218749016,17.55503396713325,2.917768629507076,0.6812537192934229,0.3114854904715874,0.14804976106814588,0.06542226963650741,0.029898038464371755,0.015316491593990273,0.009323746202997923,0.006269943975528636,0.004243539677250989,0.002765801526974763,0.0017077608951330948,0.000992536789321867,0.0005404087698293725,0.00020527555801720136,5.191558583855093,2.007350948406053,1.1572796180450824,0.6749686330637192,0.37065445947854964,0.20594917493499854,0.12235648831555716,0.08192958151205952,0.05955826032706071,0.043866249276815414,0.03151044294394898,0.021732989057119092,0.01430351859858235,0.00899748704047739,0.00513089062598743
0.0,74.0,74.0,0.0,120.0,0.0,0.0,0.0,0.0,-107.0,0.0,-45.0,0.0,0.0,0.0,34.27253218749016,17.55503396713325,2.724237392910912,0.6313383135760463,0.291504563703636,0.13991500559046952,0.062444029720030894,0.0287654113025185,0.014817561784324399,0.009049785187555854,0.0061006384884213435,0.004138693075509431,0.002703955329701852,0.00167359284908465,0.0009749641479774925,0.0005321956169557575,0.00020255845309553004,4.962397993853984,1.9022707180520848,1.1024841103523983,0.6470368393274801,0.35770969939644054,0.1998802894738299,0.11923704722217517,0.08004755458731255,0.058300144545010715,0.04301576788131849,0.030955628096702884,0.02138994023057314,0.01410389066506676,0.008888237580754015,0.005078218090314109
0.0,75.0,75.0,0.0,120.0,0.0,0.0,0.0,0.0,-107.0,0.0,-45.0,0.0,0.0,0.0,34.27253218749016,17.55503396713325,2.5248449540948896,0.5843857444837557,0.2728176770526739,0.13228104956324943,0.05962926623761171,0.027686901768208344,0.014339167191010235,0.008785742761979704,0.005936856755637074,0.004036934011758478,0.0026437341854494974,0.0016402138562117807,0.0009577423616942374,0.0005241299418438207,0.00020002890541622254,4.719043464089223,1.8000924750516318,1.0498509387323045,0.6202561568248146,0.3452701726039428,0.19402786812463146,0.11621824423381973,0.07822046215033339,0.057075513891948794,0.042185911965593105,0.030412959298228216,0.02105358670352582,0.013907691872597302,0.008780631874967377,0.005026318591789883
0.0,76.0,76.0,0.0,120.0,0.0,0.0,0.0,0.0,-107.0,0.0,-45.0,0.0,0.0,0.0,34.27253218749016,17.55503396713325,2.3216061478098986,0.5405550663187358,0.25540653173162325,0.1251303113671293,0.056971069073419395,0.026660168374603183,0.013880449685356568,0.008531227875674972,0.005778393670408626,0.003938156802815605,0.0025850879118273266,0.0016076022422607309,0.0009408628998648039,0.0005162087393061571,0.0001977671560597907,4.462545507966145,1.7014364140171534,0.9994932870239374,0.5946348542529456,0.3333289818379186,0.18838690402719857,0.11329722316631453,0.07644663415905911,0.05588336030548647,0.04137609702941024,0.029882122624239022,0.02072377379758994,0.013714852346530788,0.008674640849091074,0.004975231623458511
0.0,77.0,77.0,0.0,120.0,0.0,0.0,0.0,0.0,-107.0,0.0,-45.0,0.0,0.0,0.0,34.27253218749016,17.55503396713325,2.117313909809589,0.49993578652961856,0.23923832968833728,0.11844282457397945,0.05446232014486457,0.025682892187049264,0.013440579339557333,0.008285865157646765,0.0056250522456450765,0.0038422597052967552,0.002527968048957511,0.0015757369892762032,0.0009243174557409396,0.0005084290753765036,0.00019592220014250168,4.194978591410464,1.6068621451182357,0.9514928958136798,0.5701721479938249,0.3218773536932548,0.1829521069742953,0.110471146042772,0.07472444567472905,0.05472270854136226,0.04058575716591507,0.029362813426438747,0.020400350945707406,0.013525303855318508,0.008570236028578253,0.004925042223504939
0.0,78.0,78.0,0.0,120.0,0.0,0.0,0.0,0.0,-107.0,0.0,-45.0,0.0,0.0,0.0,34.27253218749016,17.55503396713325,1.915659741124982,0.4625415762958103,0.22426736664129307,0.11219673734499248,0.052095774210882,0.02475278823675181,0.013018755216722704,0.008049294054999278,0.005476643221796605,0.003749144751189437,0.0024723277959561446,0.0015445977123655426,0.0009080979392565764,0.000500788085398877,0.00019479886368594648,3.9197931098124266,1.5168346327758748,0.9058982078970309,0.5468581513988214,0.31090484163050647,0.17771794428949855,0.10773719338161229,0.07305231683481339,0.053592614601960846,0.03981434443175449,0.028854736025223135,0.020083171570395148,0.013338979766587872,0.008467389523825771,0.0048759413168198195
