Line_number,Fiducial,Easting,Northing,Height,Elevation,tx_pitch,tx_roll,tx_yaw,txrx_dx,txrx_dy,txrx_dz,rx_pitch,rx_roll,rx_yaw,PX,PZ,S0X_time_1.086e-05,S0X_time_3.256e-05,S0X_time_5.426e-05,S0X_time_8.680e-05,S0X_time_1.411e-04,S0X_time_2.279e-04,S0X_time_3.689e-04,S0X_time_5.860e-04,S0X_time_9.115e-04,S0X_time_1.411e-03,S0X_time_2.192e-03,S0X_time_3.418e-03,S0X_time_5.339e-03,S0X_time_8.301e-03,S0X_time_1.338e-02,S0Z_time_1.086e-05,S0Z_time_3.256e-05,S0Z_time_5.426e-05,S0Z_time_8.680e-05,S0Z_time_1.411e-04,S0Z_time_2.279e-04,S0Z_time_3.689e-04,S0Z_time_5.860e-04,S0Z_time_9.115e-04,S0Z_time_1.411e-03,S0Z_time_2.192e-03,S0Z_time_3.418e-03,S0Z_time_5.339e-03,S0Z_time_8.301e-03,S0Z_time_1.338e-02
0.0,0.0,0.0,0.0,120.0,0.0,0.0,0.0,0.0,-107.0,0.0,-45.0,0.0,0.0,0.0,34.27253218749016,17.55503396713325,4.578827406472563,2.63974199218422,2.1876629357019954,1.727636893808137,1.237672876032291,0.7972793718726613,0.38870049000336454,0.21994977681149452,0.0871500878080849,0.05502349875208422,0.04662324792063337,-0.06969506849566372,-0.008781531751231081,0.03127040146167373,0.04787991907184986,6.9242141189528414,4.98264981514531,4.292636772275776,3.688329370231105,2.972051716782298,2.1213341870272537,1.3717552144720428,0.7529646836965246,0.3617072717496217,0.14985100691205866,0.0763786962475893,0.06010971449341218,0.03053768248644252,0.020568286239564335,0.019085889381735673
0.0,1.0,1.0,0.0,120.0,0.0,0.0,0.0,0.0,-107.0,0.0,-45.0,0.0,0.0,0.0,34.27253218749016,17.55503396713325,4.586164868952033,2.709242412902549,2.268055557315335,1.8370791858431672,1.3856936379492155,0.8348346965442948,0.5134554747162337,0.2957321045413195,0.18932225340284645,0.0695828749418178,0.046027121032977895,0.02786563131218956,-0.03361075883366641,0.02434311509142658,0.02363873757345796,6.962945346899788,4.895188441699339,4.3243309350498516,3.7894399918881523,3.099962520150632,2.3505455384562914,1.5358495737441027,0.9207878082478252,0.5182791750272918,0.2205251326828569,0.11065252032108089,0.05035614242275753,0.0024388063499107514,-0.02507160012969856,0.02428260884276114
0.0,2.0,2.0,0.0,120.0,0.0,0.0,0.0,0.0,-107.0,0.0,-45.0,0.0,0.0,0.0,34.27253218749016,17.55503396713325,4.57030251748288,2.778655890897897,2.178348706412939,1.8993040725462955,1.3584990224961566,1.053828763455377,0.6136912758931731,0.35485907953994483,0.15512767924259166,0.06604718811600414,0.008130280330091543,0.03882887483900463,0.025375235529704998,-0.014432132726029105,0.03652579903135201,6.901626319087647,4.972129816407496,4.317153219117395,3.8359118681876176,3.227282657312611,2.5028999667472194,1.7545612632887573,1.111789630169911,0.6109421836548956,0.29003546235469674,0.10767757371038736,0.06872435927029377,0.028858477047922562,0.000886812183537678,0.012756010138906673
0.0,3.0,3.0,0.0,120.0,0.0,0.0,0.0,0.0,-107.0,0.0,-45.0,0.0,0.0,0.0,34.27253218749016,17.55503396713325,4.5612927600557525,2.7762820569827853,2.317049947458697,1.8304316751207044,1.4761332702026986,1.0990261222292261,0.6903108340334507,0.34216028409573385,0.1626859067150116,0.06121916826371955,0.08952134749466889,0.026344946879552567,0.017717493206866733,-0.007846711835747432,0.02353032542134625,6.9517515141857595,5.028833567630053,4.399337671833679,3.828722659680374,3.2894673014730857,2.6456028392628426,1.8921460893080557,1.231026133178869,0.7027019909322021,0.3523861372467916,0.15147376334436177,0.06726973795692447,-0.007744421720011333,0.028049543739193654,-0.025201996499796073
0.0,4.0,4.0,0.0,120.0,0.0,0.0,0.0,0.0,-107.0,0.0,-45.0,0.0,0.0,0.0,34.27253218749016,17.55503396713325,4.616899170224831,2.7352202424949645,2.178650757487911,1.888204463091255,1.5193044271718246,1.146010606940927,0.7198942237781222,0.41957470848155454,0.21257926014773937,0.14543292497116936,0.03328151350727669,0.016831079301716286,-0.023356387285929852,0.00981418686965154,0.031153789799430984,6.948045186631018,5.013656083393636,4.417152682866215,3.9118180396421804,3.3391492340329445,2.773494542915403,2.050270883177467,1.3581595027014672,0.8404571386676732,0.4125735173636135,0.2132266664684526,0.09717658645792179,0.029899661349945345,0.014916721985129822,-0.023813341232087497
0.0,5.0,5.0,0.0,120.0,0.0,0.0,0.0,0.0,-107.0,0.0,-45.0,0.0,0.0,0.0,34.27253218749016,17.55503396713325,4.595060606161508,2.7567509186892725,2.2984691167154,1.9729630726894634,1.5208383843625888,1.1553549478425826,0.8656445267513053,0.40985941488034155,0.24826764287614406,0.11827435656844507,0.025619482692385127,0.002530058582152564,-0.002398073276594902,-0.030721173790015474,0.027404107813625296,6.968034869041553,5.017074830834649,4.401960875435392,3.924099067379625,3.4009802711685158,2.8057761768951304,2.116497315363404,1.448172269268115,0.9044380991552864,0.47025127308370784,0.19393436245522475,0.08644014991301771,0.04259266147871033,-0.009741364208744977,0.04333408259868145
0.0,6.0,6.0,0.0,120.0,0.0,0.0,0.0,0.0,-107.0,0.0,-45.0,0.0,0.0,0.0,34.27253218749016,17.55503396713325,4.573773620971358,2.895861040471781,2.3283180867110023,1.9312551288822233,1.5138251271904164,1.1787432996224751,0.8613803659268155,0.5413877832787312,0.3283566184780048,0.10902076278218994,-0.02032661254101894,-0.04914923911713277,-0.022989401938655812,-0.012845866242393514,-0.018110349279148164,7.006460468337491,5.1111360560594195,4.441490497928776,3.9545514227374396,3.385786096606917,2.852951469803377,2.1711965090246306,1.5254199199105665,1.002867159389816,0.5496165243738053,0.28806300575584365,0.0796142039397064,0.05801110422582888,-0.007104570436924187,-0.011619094649783097
0.0,7.0,7.0,0.0,120.0,0.0,0.0,0.0,0.0,-107.0,0.0,-45.0,0.0,0.0,0.0,34.27253218749016,17.55503396713325,4.5938306900861585,2.7249008818158624,2.343014443026618,1.9379903256442426,1.6033755594822194,1.23550699283342,0.9058261681572991,0.5113645199477154,0.3650154003656889,0.08508847706643716,0.10413825190577505,-0.011289751995023228,-0.012301301298683152,0.03131985191945125,-0.03540951198923441,6.931520891170099,5.068108696919583,4.470306680442438,3.997283147823906,3.473282537827051,2.8722891548537874,2.264043218746208,1.6117547706358741,1.055961036460151,0.618372296772153,0.33625911526168933,0.1578768414001076,0.01850512387906926,-0.005101747480487494,0.004968100066451194
0.0,8.0,8.0,0.0,120.0,0.0,0.0,0.0,0.0,-107.0,0.0,-45.0,0.0,0.0,0.0,34.27253218749016,17.55503396713325,4.704944422897228,2.796569221322969,2.4066142940007134,1.9742818568692841,1.6082988926979147,1.187250852098833,0.9103712356271738,0.5924989702511806,0.33241914633232905,0.14971159654144167,0.07300314704478546,0.017005429967179204,0.06697344620737371,0.019190403676950286,0.04065186410404031,6.999066605817558,5.0804808036461635,4.493874471306185,4.0115221041480575,3.4489653578190596,2.9301001506557207,2.321721399197807,1.6690584286762677,1.092661587288759,0.644302028714078,0.30833463105832476,0.12540155610722337,0.07649849302581621,0.025968481614889037,0.0026968424038884367
0.0,9.0,9.0,0.0,120.0,0.0,0.0,0.0,0.0,-107.0,0.0,-45.0,0.0,0.0,0.0,34.27253218749016,17.55503396713325,4.599988045014567,2.82733357726624,2.40019393571953,1.9850310936462376,1.6399566260670975,1.2700985533595643,0.909006329505397,0.6723359560942095,0.2621631944332127,0.16443311360080842,0.07112650872673358,0.0290420950100372,-0.007526495374547649,0.03244183483352992,0.0076689487389227755,7.021180650980447,5.129127931583942,4.5763043940414105,4.0275858031223,3.504639106629645,2.902972488843218,2.316421551069143,1.7160824377075976,1.16002639781754,0.7035243408914171,0.3969951384877199,0.18849252821049053,0.04753002091017717,0.022965524554369572,0.018813970843970282
0.0,10.0,10.0,0.0,120.0,0.0,0.0,0.0,0.0,-107.0,0.0,-45.0,0.0,0.0,0.0,34.27253218749016,17.55503396713325,4.637896047909937,2.8740573127092617,2.299098236377215,2.1027451768248953,1.703255073318724,1.2468800999698106,0.8570056816769902,0.5310406114510853,0.39610081595894603,0.16173969256809534,0.10391034599164824,0.01241442276268884,0.027085860830221246,-0.010849315149889889,-0.03539423430111313,7.020727731640007,5.10794869892695,4.53983935598411,4.0640466006661,3.5376157018960503,2.9322225151075987,2.382089019958701,1.7512406283476538,1.2530388969775301,0.7835847498594694,0.4210372131916039,0.18864842423647032,0.06666931699300355,-0.0032147467763429215,0.03596136921349954
0.0,11.0,11.0,0.0,120.0,0.0,0.0,0.0,0.0,-107.0,0.0,-45.0,0.0,0.0,0.0,34.27253218749016,17.55503396713325,4.625329376241819,2.8560138900450656,2.3674137542617637,2.02393761527066,1.5964354555324265,1.2980654717376343,0.9883323616203535,0.6677191755938698,0.3493918767491731,0.1969906097699344,0.09463107039423709,-0.005020923860375559,-0.010124885594497313,-0.016398640909082402,-0.024547466952046754,7.0197526896760545,5.202099814874748,4.595355371472769,4.09394329415648,3.5143525447786748,2.9782263450604556,2.406575660425083,1.8390890655158179,1.3137411582767613,0.8199797223854121,0.4687696286189464,0.19739366290675825,0.08779543040759652,0.035068096066955844,0.020172184060868282
0.0,12.0,12.0,0.0,120.0,0.0,0.0,0.0,0.0,-107.0,0.0,-45.0,0.0,0.0,0.0,34.27253218749016,17.55503396713325,4.643227361241562,2.9525013462808585,2.4317804500538207,2.0523448212015527,1.6327527302907412,1.335554865518909,0.9091319430242488,0.6684121260420819,0.40033318964196407,0.21753106786858484,0.08224371892760107,0.10698285431096667,0.05963992597998999,-0.03667676226832657,0.008385364116105177,7.010209606863557,5.242747945292837,4.65431532243792,4.133562419503307,3.5988803319823846,2.9835263026028844,2.42143632627045,1.858880047023107,1.342312948567833,0.8281241814628554,0.49561452984891824,0.2040628642382727,0.07706450197387957,0.05462684370128244,0.011920947194947946
0.0,13.0,13.0,0.0,120.0,0.0,0.0,0.0,0.0,-107.0,0.0,-45.0,0.0,0.0,0.0,34.27253218749016,17.55503396713325,4.658088956564435,2.99338933146756,2.503077496331082,2.0825601296484995,1.7397786541695082,1.2882700944086067,0.902717424864308,0.6413730686293823,0.4266844655682499,0.22134490017867844,0.1155931303290683,0.10212833410858257,-0.020642890434485736,-0.008728085863428296,0.02285713679768148,7.027235615208909,5.261836250466344,4.690117707178411,4.2004456726800585,3.5840045062768313,3.0151298714498296,2.4619863424739554,1.899314422389007,1.3370578132209647,0.8931353716256779,0.5136624466674459,0.26967368362613364,0.15603225430226594,0.07382622341545109,0.02447895414855998
0.0,14.0,14.0,0.0,120.0,0.0,0.0,0.0,0.0,-107.0,0.0,-45.0,0.0,0.0,0.0,34.27253218749016,17.55503396713325,4.6194159449406165,2.95712497689584,2.442398479300251,2.14540378879232,1.7069817536057599,1.3262020628543274,0.9253500135897733,0.6061707861449158,0.3981368531921441,0.19233392457452858,0.14939344661912843,0.050620475059584745,-0.036779229658479635,-0.005694083609208909,0.030445646599316666,7.052825837502101,5.234995090609012,4.700867312897719,4.180169459038138,3.5995645993977003,3.053293103376283,2.46014603424318,1.8793257106290804,1.356676276525111,0.9132403867539475,0.48260070876124034,0.29891285814577484,0.08778490589677287,0.07276394253725763,-0.014027989518351302
0.0,15.0,15.0,0.0,120.0,0.0,0.0,0.0,0.0,-107.0,0.0,-45.0,0.0,0.0,0.0,34.27253218749016,17.55503396713325,4.687864350206062,3.018981390163772,2.4972204710619303,2.159395838709012,1.7126063066624113,1.2767285587163066,0.9756887206914885,0.5963180132695094,0.3838687624129988,0.2591814315774202,0.10874668036995137,0.08863146840851836,-0.018003703523505568,-0.002029941656152256,-0.03759699703171673,7.024425729110695,5.312712078945625,4.702961645472318,4.224299206877216,3.6540030968833337,3.059131531379638,2.516165266561776,1.9272454331650195,1.3887807460055386,0.9352428468080275,0.5186850250937148,0.2769952629459684,0.12961234262742244,0.05640262075992099,-0.018916410614998276
0.0,16.0,16.0,0.0,120.0,0.0,0.0,0.0,0.0,-107.0,0.0,-45.0,0.0,0.0,0.0,34.27253218749016,17.55503396713325,4.732888969258573,3.0257663562676083,2.5438710864511926,2.1891337298405706,1.7404883930248207,1.3249062525982154,0.9787412140567326,0.7584374792310012,0.5019563683879571,0.3145579257791947,0.13044043536429326,0.05209972705719079,0.023300475500300215,0.007276987368856325,-0.0005105300633027362,7.034315928490022,5.305038443637407,4.7757766258218,4.2093795191212005,3.663654447783964,3.0676309959635653,2.500289766624983,1.934968258012802,1.4082676060738557,0.9570274038124471,0.5955364705117623,0.29447936497461763,0.15137909663450577,0.07429049402210572,0.04426003946900929
0.0,17.0,17.0,0.0,120.0,0.0,0.0,0.0,0.0,-107.0,0.0,-45.0,0.0,0.0,0.0,34.27253218749016,17.55503396713325,4.698724676215432,3.069792984634678,2.5521540856362517,2.15707364533301,1.7796969443867852,1.351492272701919,1.0682530697169554,0.6856922253446087,0.4118935563541819,0.22978323926015218,0.1332896100982949,0.04072416863591886,-0.004564033101519503,-0.027344616266028285,0.025600495825432907,7.062323638258041,5.364798959686117,4.792901146452532,4.283619532229889,3.713467783719343,3.121779684474886,2.505668713541455,1.960088572746305,1.4743363829889773,1.0083889549348175,0.6548986436709965,0.3261255434978546,0.14063072167577065,0.04586707666182975,-0.004135399686550616
0.0,18.0,18.0,0.0,120.0,0.0,0.0,0.0,0.0,-107.0,0.0,-45.0,0.0,0.0,0.0,34.27253218749016,17.55503396713325,4.732212491120902,3.0908333006409605,2.5865519073998,2.1626793071619197,1.8382370928901517,1.334120887736251,1.0345502210670956,0.6972831066287347,0.4464080224905977,0.2764754260250851,0.1381884652659739,0.030595427535593855,-0.026251801656414206,-0.015182352677569698,-0.05546028421608706,7.032345695120536,5.3786650749878016,4.760221983397369,4.278805779986066,3.721058914530216,3.159825227473133,2.544507397035089,1.9844258442642617,1.467589204796063,1.0204153077058908,0.6749691429094532,0.317656717137523,0.19802396063972685,0.07290167203963605,0.051692510299413866
0.0,19.0,19.0,0.0,120.0,0.0,0.0,0.0,0.0,-107.0,0.0,-45.0,0.0,0.0,0.0,34.27253218749016,17.55503396713325,4.718664493243319,3.130414914056933,2.671564240504406,2.2076006845714757,1.8236545784143259,1.3926866798452648,1.006697721626314,0.7114410341951888,0.41104792142297414,0.3568922617492595,0.13905773713426878,0.0914136748250065,0.09468855313815773,0.08941672107127152,0.04833874040782077,7.040236608003689,5.46833840750351,4.7729676410867725,4.30760586888543,3.7703599955983615,3.137546386197518,2.5794968562737535,1.9609885611971347,1.5149875192503228,1.0225069403932558,0.6495498321184505,0.3346251843913782,0.18828536391155987,0.09006327968412349,0.010607558752659516
0.0,20.0,20.0,0.0,120.0,0.0,0.0,0.0,0.0,-107.0,0.0,-45.0,0.0,0.0,0.0,34.27253218749016,17.55503396713325,4.718556266372184,3.142307093889159,2.739265049130841,2.310979202066506,1.8424226366151146,1.4402387514874508,1.0416201036435797,0.744895803254118,0.4938999217754532,0.22761933568708123,0.1726434222431517,0.006452696817428306,0.017228284253935355,0.0177974325327439,-0.015188731571754287,7.091718981990608,5.471008101761702,4.890686877304097,4.36463929192766,3.7756691769812303,3.194744638130127,2.567016446242213,1.96847014854831,1.475848338316674,1.0792600629569802,0.6403571455274111,0.357492819312406,0.20633609682588125,0.06943794851068717,0.05564399938316984
0.0,21.0,21.0,0.0,120.0,0.0,0.0,0.0,0.0,-107.0,0.0,-45.0,0.0,0.0,0.0,34.27253218749016,17.55503396713325,4.746099877401615,3.2003297730419873,2.8231169104709726,2.2322284462517255,1.8483947639333251,1.3860648404734621,1.0229218921638341,0.6854135997842763,0.45735042127224235,0.28333411302907624,0.14105453436586915,0.023951018011492194,0.010609197729056864,-0.002175807475352806,-0.013354884597739817,7.0908738320434335,5.4816463089521,4.929113639519227,4.340489677510441,3.794060615733377,3.2154110525561466,2.613869378701876,1.9890179988433565,1.5301103758339571,1.0751868370667752,0.6683670742156651,0.39536547715742393,0.2034524311812677,0.07167394467535781,-0.003287872516941435
0.0,22.0,22.0,0.0,120.0,0.0,0.0,0.0,0.0,-107.0,0.0,-45.0,0.0,0.0,0.0,34.27253218749016,17.55503396713325,4.7765659761966655,3.261051003587075,2.6570806751855924,2.3403768125801703,1.8755247877481311,1.4352056339940054,1.0003109744383625,0.7364836403320817,0.45322867037018116,0.37889574851536323,0.1654610078045166,0.11000637394380317,0.016184995506466245,0.02241571967107847,-0.00262360090917805,7.13465194201639,5.513158030129791,4.946365587783801,4.449869353235637,3.798559291071902,3.2125025178343494,2.612338157656699,2.045704329962778,1.5137373801557419,1.0776847083838244,0.6668218604439992,0.3938031704250728,0.17710506864443198,0.1056109017140474,0.06502512509185714
0.0,23.0,23.0,0.0,120.0,0.0,0.0,0.0,0.0,-107.0,0.0,-45.0,0.0,0.0,0.0,34.27253218749016,17.55503396713325,4.772315994407503,3.206723922700596,2.7606011718843093,2.2672655045049006,1.8882851829538458,1.4136853070730266,1.0923097663063073,0.8134400665761938,0.4457651735330064,0.2526283671925448,0.10233523726761362,0.01848045352937639,0.03571642167472819,0.07453419503743228,0.028164403525594944,7.128188466155134,5.5413590171350116,4.98391987726254,4.497463289238269,3.8751727212555056,3.2270233354817295,2.652957167540426,2.023318679829907,1.5063034887526623,1.0618804513834577,0.6930571039343341,0.3866843551171469,0.21973397358302468,0.08239356183912672,0.07120278570328414
0.0,24.0,24.0,0.0,120.0,0.0,0.0,0.0,0.0,-107.0,0.0,-45.0,0.0,0.0,0.0,34.27253218749016,17.55503396713325,4.80891443470632,3.2802280176823544,2.8344641525744834,2.376855582047752,1.8641690969801519,1.4539475001722564,1.0861438721847918,0.7660361001125445,0.5135868495871317,0.3522319214383383,0.1765437363213408,0.12270450574075212,0.004236362325880996,0.049152477528021,0.040759116793012175,7.196542041257537,5.625172234090346,5.024823282368977,4.515987763126603,3.8799521107181447,3.324530124549473,2.6130234607090306,2.031840634050212,1.5414887047424017,1.1202408292502815,0.6642756801731684,0.42079042536476985,0.2146574414397778,0.09660253672460614,0.04358876862216385
0.0,25.0,25.0,0.0,120.0,0.0,0.0,0.0,0.0,-107.0,0.0,-45.0,0.0,0.0,0.0,34.27253218749016,17.55503396713325,4.775513212972688,3.342765414241582,2.8067368495087317,2.4084027007900692,1.9244731371362023,1.44846900107806,1.0784805803482669,0.7272882912741288,0.49714166481439204,0.34169029449945737,0.1876164618017281,0.0937529261723198,0.004393741969900059,0.04213765088078344,0.008729067906119652,7.121439054478443,5.61936401757519,5.027825261596579,4.494091033716109,3.906651530879593,3.3124993562741,2.6480044500235205,2.1013453316883095,1.5117947627326453,1.11988676967012,0.6915895824118681,0.4520303317403085,0.20127052173115562,0.10538624261792998,0.02446209775033253
0.0,26.0,26.0,0.0,120.0,0.0,0.0,0.0,0.0,-107.0,0.0,-45.0,0.0,0.0,0.0,34.27253218749016,17.55503396713325,4.820794090089942,3.3571574070616736,2.8455866111383536,2.4181607338380067,1.9198795587745676,1.606527893637755,1.0836557083744096,0.7974186710676123,0.6033292919816677,0.3185054949054872,0.19241701236792963,0.09560148987132924,0.0738992281789167,0.050502075615342756,-0.02909272767497523,7.197696754578783,5.661700591677732,5.100865152819401,4.589118931245841,3.926819364369185,3.3432020046819897,2.6794554243090185,2.0970012541758725,1.579876262178723,1.112859693421674,0.7629596533785175,0.4551975151584853,0.21573063786365917,0.11918975486765254,0.04666338661849794
0.0,27.0,27.0,0.0,120.0,0.0,0.0,0.0,0.0,-107.0,0.0,-45.0,0.0,0.0,0.0,34.27253218749016,17.55503396713325,4.810433833123005,3.4573816000885387,2.8102090230576553,2.4699957485234485,2.0403354502574356,1.5232413960164028,1.0896426871857154,0.7471665060576039,0.5093335995251826,0.28014317840548136,0.1250939970030587,0.13868742806155576,0.02910783797270171,0.01531692707282634,-0.02488454866609267,7.205631116873598,5.669459364248384,5.1361419291660475,4.6306562029009175,3.9760394417205855,3.337356267527011,2.690619317899479,2.102377050453711,1.544115137506667,1.1154741291034789,0.731709715985601,0.430752877816744,0.2454591538906561,0.1118331981431351,0.012871893579303746
0.0,28.0,28.0,0.0,120.0,0.0,0.0,0.0,0.0,-107.0,0.0,-45.0,0.0,0.0,0.0,34.27253218749016,17.55503396713325,4.946379360328978,3.4268984622956626,2.8821369364706086,2.392153930286506,1.9690858611825555,1.5661631781021275,1.0931032837559216,0.7718381881778577,0.46684039718496534,0.28072383992616223,0.18375380907541364,0.026672686794281628,0.03243720320316777,-0.028314354558920708,-0.03629549928562343,7.181847584918083,5.7746891241023475,5.149646843174178,4.628212660134426,4.004507646795011,3.3869081664792096,2.706622762260916,2.1115113190867416,1.5952123524074358,1.1551004301876762,0.7657807082084883,0.4542080265751556,0.2379625155644806,0.0946843798779641,0.046608663095228396
0.0,29.0,29.0,0.0,120.0,0.0,0.0,0.0,0.0,-107.0,0.0,-45.0,0.0,0.0,0.0,34.27253218749016,17.55503396713325,4.948032365154821,3.4795760659466244,2.923824851977293,2.5063571441112815,1.9818001049958283,1.544800119081045,1.0820828229822064,0.7942179497751513,0.5338639988913217,0.32349464504825587,0.27014321871573876,0.05698776316692862,0.02241741943804305,0.05494192997217883,-0.027753769070280356,7.305952871001439,5.744916297853084,5.241999184998518,4.6256071111646,4.0464495455242675,3.4200107935694084,2.749779601103981,2.105206889958994,1.5653876651567022,1.1665432576368506,0.7289711339893499,0.5104963863924842,0.2939520890148918,0.12453898136043284,0.056427016810006995
0.0,30.0,30.0,0.0,120.0,0.0,0.0,0.0,0.0,-107.0,0.0,-45.0,0.0,0.0,0.0,34.27253218749016,17.55503396713325,4.940187080783283,3.507521280822907,3.0776857688737094,2.5146146459393743,2.0490282054244293,1.5110470541923358,1.1354273589765311,0.8068719929351801,0.5076950459758016,0.3217541238176439,0.17160786691565277,0.037240393375084675,0.06823875336860395,-0.04417951382311514,-0.015327252433780976,7.21313802659044,5.786594123175377,5.231781241698688,4.681746719504346,4.0715041220945,3.396552029490592,2.7155222706441924,2.151863131829097,1.612167354590955,1.1549685104977165,0.7514065836422534,0.44825119014725606,0.23984695834816416,0.1345602573535735,0.03612654113805426
0.0,31.0,31.0,0.0,120.0,0.0,0.0,0.0,0.0,-107.0,0.0,-45.0,0.0,0.0,0.0,34.27253218749016,17.55503396713325,4.903873615751354,3.5184747106301266,2.9335199605377715,2.577321157298459,2.0676982059328055,1.5436728407269429,1.1871046558021547,0.7703438650078283,0.5202487285863516,0.3335084298077781,0.23933782821505145,0.10935688553660719,0.04190411489120223,-0.029823523250655973,-0.05829476693308809,7.285454483514926,5.847191777882786,5.284873977243972,4.734587182237339,4.0852152967137,3.4219657445733596,2.800507487230387,2.180750817314896,1.6569708572639692,1.1765382278406038,0.7889426704367632,0.4667248619887542,0.2709589777438717,0.11889763305601146,0.051443469263260336
0.0,32.0,32.0,0.0,120.0,0.0,0.0,0.0,0.0,-107.0,0.0,-45.0,0.0,0.0,0.0,34.27253218749016,17.55503396713325,4.938808545943386,3.5684037442313077,3.0469315750685677,2.512775329041521,2.139637534879516,1.5875000986200358,1.202881741019393,0.7679936565030299,0.558624713043776,0.3363560049739217,0.13579656396666234,0.12082427830337981,0.028110582547065045,-0.0211023595778007,-0.020457690686945515,7.268826574258843,5.898372557563827,5.314692168976079,4.7742083740241466,4.134966304948056,3.484281233704127,2.8288589304640626,2.1715635334289685,1.5805698976709472,1.177999792078161,0.8035831601997632,0.4971854680191672,0.24365731507399985,0.104740727764608,0.06697168517185212
0.0,33.0,33.0,0.0,120.0,0.0,0.0,0.0,0.0,-107.0,0.0,-45.0,0.0,0.0,0.0,34.27253218749016,17.55503396713325,5.0312213812045075,3.5705821421353927,3.1454303136144808,2.601848630807839,2.0598450368595618,1.7020610340238715,1.170042127481505,0.8347618657015826,0.5234753199719729,0.40713716416776796,0.14317823528389642,0.1567699088150604,0.07699179599949611,0.07651484547258974,0.04487975751803177,7.357497291764666,5.980458665057553,5.391362607322124,4.802089779841775,4.177269025903436,3.5247089547340553,2.806535515262022,2.1647519269043176,1.5958550042131707,1.2018579501893272,0.8054412359743491,0.4857332003359201,0.27176394918082053,0.10272533669557676,0.055196304436749485
0.0,34.0,34.0,0.0,120.0,0.0,0.0,0.0,0.0,-107.0,0.0,-45.0,0.0,0.0,0.0,34.27253218749016,17.55503396713325,4.983574161558357,3.720772924188052,3.2193275061041113,2.641300348056237,2.1151807743775155,1.6214717207086748,1.1882340539928649,0.841142147910608,0.5408360841524951,0.36841828143042904,0.18511423733726115,0.07442432266944014,0.0396649274747772,0.07732031861087867,-0.030216664625391996,7.337912505389042,6.002453068900965,5.400863395911127,4.8955272868278605,4.2003715633038246,3.5385837850512676,2.828481650836886,2.2452639172642237,1.6496165510332026,1.1789945568048372,0.7906462655968234,0.5042180297528572,0.28944033082966625,0.12722458427592834,0.03287756175947201
0.0,35.0,35.0,0.0,120.0,0.0,0.0,0.0,0.0,-107.0,0.0,-45.0,0.0,0.0,0.0,34.27253218749016,17.55503396713325,5.018476449623543,3.7269270496501514,3.1813638790943735,2.7078814039641674,2.163190278436037,1.618667507423354,1.2195751926712253,0.8824811198777357,0.5949872006712665,0.3819597450661382,0.1910291165218514,0.057585339904808214,0.04325529495293312,-0.0015648153809653467,-3.436104776393528e-05,7.315429530945978,6.021208129913729,5.425412112460888,4.868488024076852,4.221679687693988,3.503584471777165,2.8453878607555185,2.2016666487748373,1.6661672022905774,1.1744345932653346,0.7949408082516796,0.46425310858644064,0.34575548358930547,0.13815213956801078,0.045065174291080035
0.0,36.0,36.0,0.0,120.0,0.0,0.0,0.0,0.0,-107.0,0.0,-45.0,0.0,0.0,0.0,34.27253218749016,17.55503396713325,5.062737442068522,3.7257078427156736,3.149051196304711,2.701616514931622,2.1905909780551585,1.6794892890075672,1.2343308828376305,0.8686191354576983,0.5973036501280979,0.35399281587313225,0.2189386346697716,0.11561272078638124,0.06394398255542848,0.09797196413341219,0.022012604701566695,7.418882973547254,6.066736268740569,5.487176952038935,4.8909031472037645,4.234950401842027,3.6098406874316806,2.8584110888363954,2.2369406718656375,1.637060562901483,1.1650760195752488,0.7963581724908511,0.5079252223041799,0.3088569369775494,0.15188990361701266,0.06384323037442119
0.0,37.0,37.0,0.0,120.0,0.0,0.0,0.0,0.0,-107.0,0.0,-45.0,0.0,0.0,0.0,34.27253218749016,17.55503396713325,5.130105427028448,3.831672075557001,3.2928144719018015,2.745261973623012,2.2247098891121038,1.6428423400163803,1.2692677409505653,0.8082172324845587,0.5224202994241121,0.35675335203624403,0.2548164186203789,0.1418022981622943,0.08266371225873814,-0.00844144399605494,0.09633243127211355,7.438677956641061,6.04770961026671,5.484657884811101,4.96765993663036,4.23646110897919,3.5771899643369327,2.8775093589873015,2.2079573288201626,1.6748938318343283,1.1985532538849317,0.8120989642603292,0.49274254764411624,0.29044236046549077,0.1673611788080348,0.05968940346606883
0.0,38.0,38.0,0.0,120.0,0.0,0.0,0.0,0.0,-107.0,0.0,-45.0,0.0,0.0,0.0,34.27253218749016,17.55503396713325,5.229694286905633,3.834441819787624,3.3244881887215025,2.7584890876114705,2.2476456161476883,1.6036896225333388,1.3332614574986021,0.7930536192162243,0.5702178075578668,0.40208367116669774,0.20343674790800048,0.049992978677528215,0.024309469008978707,0.04652489663798179,0.005523903074350754,7.44173685846805,6.22523614406401,5.6122799569165425,4.994611722187207,4.293959536117391,3.603694141872879,2.893233944685127,2.2471505972131456,1.6597385043788113,1.220873413374302,0.7690700262176362,0.5274360427207226,0.2901655631717759,0.15092880497486272,0.0712027728280504
0.0,39.0,39.0,0.0,120.0,0.0,0.0,0.0,0.0,-107.0,0.0,-45.0,0.0,0.0,0.0,34.27253218749016,17.55503396713325,5.163174174437546,3.9550325452250954,3.3046644778725063,2.834361145886043,2.262765567678494,1.6687395149576414,1.2657220472224617,0.8270673929471668,0.5954450843072004,0.388668073156474,0.1849348749870062,0.10875694331483,0.0814360331467915,0.024213073464440005,0.01144311758749679,7.468917178505845,6.204374895824318,5.647924485966558,5.034780624097536,4.350290074006419,3.6261089810084193,2.909879551526805,2.2599883937671352,1.7239793924840066,1.217101359814631,0.8520713447781875,0.5171925718985698,0.31256768709043015,0.14918624268218372,0.02527284985112631
0.0,40.0,40.0,0.0,120.0,0.0,0.0,0.0,0.0,-107.0,0.0,-45.0,0.0,0.0,0.0,34.27253218749016,17.55503396713325,5.204204200513409,3.9338326216089454,3.398206228500162,2.851894705260867,2.247144536667146,1.778947364958893,1.341753948980846,0.8908391595272078,0.5227089192354497,0.3969696465099575,0.21268036121286468,0.11912485074502875,0.10324178591331201,-0.0019101855925763127,0.04403724793231703,7.511535292889437,6.231651016382604,5.693925353568683,5.063247043151782,4.427926549167317,3.6900552834802673,2.953261207447533,2.2733418135913537,1.7088355273974725,1.1902125383427615,0.8265335430309634,0.5114162743745772,0.32662790396001035,0.1417521295626576,0.07427835526023818
0.0,41.0,41.0,0.0,120.0,0.0,0.0,0.0,0.0,-107.0,0.0,-45.0,0.0,0.0,0.0,34.27253218749016,17.55503396713325,5.312051324579328,4.059215856218087,3.4468142664342505,2.8332361673820423,2.2837138353632667,1.8116968779739826,1.2869079506319292,0.8647454162901717,0.5673552170724938,0.36792760267880814,0.24225500416634915,0.11523351752312525,0.0353344668435768,0.07793392571377873,0.015658665570754564,7.5958187502578545,6.292450282990536,5.702987671316901,5.088121035717693,4.399229877411355,3.7226588627068207,2.98249400436163,2.280627458884967,1.7115079787815333,1.1831049404179836,0.8350973810629627,0.5029433736780536,0.33534723592253685,0.17455245034793376,0.06977665127068333
0.0,42.0,42.0,0.0,120.0,0.0,0.0,0.0,0.0,-107.0,0.0,-45.0,0.0,0.0,0.0,34.27253218749016,17.55503396713325,5.327414412117426,4.000141285387515,3.5313465843488436,2.882763421375955,2.324918454320353,1.8012120643389014,1.2254116051953303,0.8532747701294033,0.6175507382686098,0.3847067343527567,0.22760168430304456,0.07176051017941874,0.013476087825596096,0.09007079102069394,0.030629707088342006,7.6171076578277495,6.341216802298561,5.755367776873772,5.104805875251404,4.440818548117209,3.742431673818941,2.9628926812844787,2.3066990744774083,1.6884286290086752,1.222957281998278,0.8233551232182448,0.5470786174872321,0.31189568364271036,0.19215288744784081,0.09360207660523151
0.0,43.0,43.0,0.0,120.0,0.0,0.0,0.0,0.0,-107.0,0.0,-45.0,0.0,0.0,0.0,34.27253218749016,17.55503396713325,5.411227995862885,4.022510378042613,3.508516853808978,2.9237205373974082,2.4025575319445114,1.8060197919660905,1.3529187716620286,0.8955705810135899,0.6121185534678162,0.35351693176948057,0.19304531743292727,0.1306024172056537,0.08027180190352358,0.05272629657453373,0.011275419055957534,7.586552021790429,6.308719055973431,5.738560486579892,5.199569727873289,4.548391051205726,3.7672941867846075,2.991599650472184,2.3366064163977738,1.698479508963733,1.223005023747234,0.8118090798680817,0.5354500776327472,0.2949747836950498,0.14135170624888674,0.07825544824208022
0.0,44.0,44.0,0.0,120.0,0.0,0.0,0.0,0.0,-107.0,0.0,-45.0,0.0,0.0,0.0,34.27253218749016,17.55503396713325,5.3602954603066335,4.135365537742447,3.5446400405321397,3.0003031223253847,2.3224373364002147,1.7931194810373254,1.378633901772495,0.8832093015830739,0.5963729828771621,0.4005690412252362,0.28330393394120573,0.09370016551255185,0.08974288845869358,-0.050111790426317304,-0.054478866781758076,7.645763943379423,6.46623060250636,5.836264663151927,5.22079754400804,4.489665716008354,3.783903779807301,3.011480873563115,2.3591515309956237,1.7520782170855156,1.2916952652330536,0.8594330083718639,0.5417249605059647,0.32490797147272216,0.1577806364427858,0.0985750947412259
0.0,45.0,45.0,0.0,120.0,0.0,0.0,0.0,0.0,-107.0,0.0,-45.0,0.0,0.0,0.0,34.27253218749016,17.55503396713325,5.473083678948192,4.121294629545299,3.5382931420954606,2.9948312838362194,2.473803113546001,1.8383968512496136,1.3636639138545132,0.8763671627678539,0.6092819105128664,0.36503310719354026,0.20001973056126748,0.15937698389320792,0.08950652947804706,-0.036800471484767346,-0.027413132665280372,7.722963650182577,6.494248146379067,5.902953760116283,5.294078705989831,4.5973897626743545,3.8326569102101717,3.0368853119469033,2.3823251763869577,1.739822439473049,1.2523055737105944,0.8379525431014316,0.5336933092174191,0.341908989978555,0.18682627099861962,0.057443680602412145
0.0,46.0,46.0,0.0,120.0,0.0,0.0,0.0,0.0,-107.0,0.0,-45.0,0.0,0.0,0.0,34.27253218749016,17.55503396713325,5.523003343724377,4.288928911513482,3.5759728270303537,3.045677480904568,2.353043827732866,1.8500576970081846,1.3024341646114093,0.9202198525169841,0.6356263212864495,0.39267825732388606,0.23501672919566438,0.13780254523572505,-0.03106526928664119,0.008983892587717434,-0.0508771818005971,7.7470904099204345,6.5302504230889005,5.941952323992686,5.294098078540109,4.6036517353398425,3.825942431476538,3.0491159668248544,2.403410000250757,1.7763383559764865,1.2952140229367164,0.8558930120844234,0.510928501797181,0.31474056491731656,0.19042297052636417,0.08468028868012636
0.0,47.0,47.0,0.0,120.0,0.0,0.0,0.0,0.0,-107.0,0.0,-45.0,0.0,0.0,0.0,34.27253218749016,17.55503396713325,5.591854198613705,4.2211070762875424,3.6601458035699745,3.1067336770472793,2.5266576194188586,1.912411521549664,1.3541344135477662,0.9685654474934334,0.6224828061493348,0.4190289366710186,0.16704040849642018,0.12079375018060377,0.08679786911455373,0.03711544373148372,0.08658855422770477,7.802636327045134,6.603964231715269,5.998917853676558,5.354529362475981,4.656236252028217,3.884475898366518,3.101637885141582,2.396591718472867,1.7546220880826557,1.23911997008003,0.8482663522879733,0.5514911755481217,0.3319926416193483,0.18476653022176248,0.08963529821550956
0.0,48.0,48.0,0.0,120.0,0.0,0.0,0.0,0.0,-107.0,0.0,-45.0,0.0,0.0,0.0,34.27253218749016,17.55503396713325,5.649703571377977,4.311623744678927,3.7501986333633317,3.1949915473478625,2.5161632098747675,1.9260512954375695,1.3988881686669001,0.918639183192459,0.6051982327899169,0.3492340442491168,0.22140830402171924,0.15754548253086714,0.06907924370209068,0.0237976912657356,0.004666391018778342,7.865181897159451,6.614597007445072,6.0348971738954225,5.4127679166725615,4.623657582099845,3.8770382045401597,3.1741808419961566,2.408140868658798,1.7859242098335615,1.2683079667430641,0.8467032062597456,0.5634195199095537,0.32530328525648494,0.1553800397497614,0.05245810732145371
0.0,49.0,49.0,0.0,120.0,0.0,0.0,0.0,0.0,-107.0,0.0,-45.0,0.0,0.0,0.0,34.27253218749016,17.55503396713325,5.728593548459041,4.288560649913191,3.7374388462343333,3.1884132172969073,2.605225482218519,1.9925962472799092,1.4086831509885294,0.9168922266571025,0.5976762136118561,0.37121268780716055,0.21438151961416585,0.09136147982404869,0.07957877222267018,0.03359299967959272,-0.00588632159572159,7.8908822560521825,6.657362511797618,6.076197305167118,5.440150361998307,4.70837921553316,3.9153184736765905,3.1762476878662347,2.3982761355190387,1.786032917137728,1.3021091549020487,0.8681647511785071,0.5526222931301751,0.26658652469631766,0.1551417394158558,0.11167315253690262
0.0,50.0,50.0,0.0,120.0,0.0,0.0,0.0,0.0,-107.0,0.0,-45.0,0.0,0.0,0.0,34.27253218749016,17.55503396713325,5.7032953839420335,4.386370368421315,3.8198219391121544,3.218214212673014,2.560858599782422,1.932034778987242,1.4553740192557312,0.9867715737018437,0.625883312272373,0.3522098448026739,0.1731440488497615,0.14720456495459983,0.1434121229743235,0.0035606310147096483,0.021765035472656562,7.953594234374219,6.780642800133409,6.125064738688287,5.458169695215119,4.742127668919369,3.960371852203396,3.148180118580022,2.41806211919818,1.8200261476974204,1.2845554543290734,0.8587021656806315,0.5242143091624004,0.3125274251151357,0.14637456618790276,0.09796033760739793
0.0,51.0,51.0,0.0,120.0,0.0,0.0,0.0,0.0,-107.0,0.0,-45.0,0.0,0.0,0.0,34.27253218749016,17.55503396713325,5.84686798222536,4.474248245281973,3.8714306232556988,3.2577377201029623,2.6375937001399885,1.9670532558235472,1.4471878268820497,0.932042265316007,0.6200133014555304,0.40433276690483827,0.2615201081499389,0.17374656790118642,0.060598160255835476,0.028102579751785848,-0.04013321915086433,7.9500330101002366,6.831157271202185,6.161651556706554,5.553637429436314,4.759542283912164,3.9684969973871285,3.2545514436293987,2.457587876266756,1.8005942898643108,1.2445652458003702,0.8618442719012878,0.6079288000771534,0.31177124525690825,0.1574830416284164,0.07299808635770459
0.0,52.0,52.0,0.0,120.0,0.0,0.0,0.0,0.0,-107.0,0.0,-45.0,0.0,0.0,0.0,34.27253218749016,17.55503396713325,5.91675431990509,4.578767745941068,3.875049997261595,3.211282395610315,2.617236930535243,2.006244213419104,1.4133274563386675,0.9484319786471471,0.6291272812013353,0.36302120076186023,0.2085830588477034,0.11481401625392652,0.09062691118065799,0.02277935165946429,-0.015066476769574972,7.995106255369235,6.86984353235669,6.257638541117278,5.590907862966358,4.755062871626806,4.052571481552888,3.2211835100318935,2.4534680576042183,1.825215779665926,1.2914025925467418,0.897988504344673,0.5694531218816988,0.31798538784620856,0.18483137038253475,0.08063401257907116
0.0,53.0,53.0,0.0,120.0,0.0,0.0,0.0,0.0,-107.0,0.0,-45.0,0.0,0.0,0.0,34.27253218749016,17.55503396713325,5.8612644495067645,4.611978367502022,3.9609655495686704,3.3281653571893086,2.6888665665132696,1.9752304115641057,1.4570954925252595,0.9927513103064229,0.6661852370105612,0.43411013436396145,0.2634452590575197,0.08087679405538847,0.0336854918182542,0.061677218772788964,-0.004143175491432102,8.107609507316651,6.887233841558381,6.265737487751776,5.6209333648266,4.88105102669913,4.070500272692955,3.2341987287403895,2.451132519804669,1.8323774810893256,1.270633608433394,0.9004158383239707,0.5187944634883267,0.31713080561887713,0.19027402274678137,0.09321549748872499
0.0,54.0,54.0,0.0,120.0,0.0,0.0,0.0,0.0,-107.0,0.0,-45.0,0.0,0.0,0.0,34.27253218749016,17.55503396713325,6.050960932182183,4.606847979075394,4.0290807480051924,3.4395051292263426,2.695443976969651,2.1127889742885952,1.473954154047463,0.9840555518440395,0.6252783883180444,0.38527975157995525,0.23751139766323695,0.10001901913678021,0.08304783289676837,0.011781191129649222,0.009934094851343793,8.12859100809472,6.986434216703772,6.373415406876869,5.670183597616249,4.9329657704199485,4.068273424547713,3.2485282488126863,2.472347260854534,1.8349741635326808,1.342004403903097,0.8602259069437643,0.5107908286765734,0.31897704115210285,0.16755474033058804,0.07572491752354008
0.0,55.0,55.0,0.0,120.0,0.0,0.0,0.0,0.0,-107.0,0.0,-45.0,0.0,0.0,0.0,34.27253218749016,17.55503396713325,6.073071898418014,4.7136064316190565,4.062018546548999,3.3944210963206323,2.6809999634060735,2.024622711709292,1.4601898291094404,1.01102096054674,0.5708458331499513,0.4055151411517785,0.2952018594749596,0.18504396001694814,0.061459415380979966,0.09720077689565917,0.005715069124059164,8.204681205542794,7.062087792407894,6.375053769711876,5.655276427840728,4.975391365828665,4.080529832691229,3.3217290337259526,2.4986784154390977,1.8949622425056898,1.3069535000910757,0.8756135372313711,0.5506649631908448,0.3203243785845353,0.14998843546022195,0.07570836947731602
0.0,56.0,56.0,0.0,120.0,0.0,0.0,0.0,0.0,-107.0,0.0,-45.0,0.0,0.0,0.0,34.27253218749016,17.55503396713325,6.046131672614875,4.757136588159162,4.114907041632532,3.5037387255440033,2.760902332384579,1.988158620431816,1.4481845538558027,1.037349881078884,0.6426101598070116,0.4012680296852885,0.18875558759172353,0.19230907767349664,0.08279690943909764,0.1237245569842671,0.012340305221822334,8.26547957277482,7.074365478747712,6.412866036001675,5.799835109065481,5.027598481640134,4.118069432640656,3.343497754424711,2.5406504801688747,1.878336972486382,1.296157222906249,0.8584828210592222,0.5703299364347264,0.3297039705477317,0.1936915717183373,0.08344320238598628
0.0,57.0,57.0,0.0,120.0,0.0,0.0,0.0,0.0,-107.0,0.0,-45.0,0.0,0.0,0.0,34.27253218749016,17.55503396713325,6.190150752350399,4.90703146303649,4.1126027632034745,3.4486232278438553,2.79676118131426,2.1309004720188502,1.4440105054791654,1.0300922503893508,0.7059609227282367,0.4820024418409841,0.22943108452252733,0.15390393642935501,0.0839591373089905,-0.02285783336530435,0.06281781023327829,8.274399396839224,7.168179530792766,6.514879937096175,5.786481780468157,5.067000549326884,4.213757004658461,3.310189991362816,2.519995636481037,1.9011674284900684,1.3012732565073417,0.8544981153730471,0.6064729779273828,0.3459920377921999,0.19344478580714125,0.0964282956831031
0.0,58.0,58.0,0.0,120.0,0.0,0.0,0.0,0.0,-107.0,0.0,-45.0,0.0,0.0,0.0,34.27253218749016,17.55503396713325,6.242764280542378,5.002390579284728,4.273349180454227,3.6205379739243906,2.8706686516015973,2.1724706518474104,1.4786180376862446,1.0416575617355102,0.70759549802419,0.39266937469605834,0.2652682390692783,0.16331926219472198,0.016018730246099157,0.002746946273386279,-0.014741589656335277,8.360163026493085,7.2087188445291295,6.531021280690028,5.850476603960986,5.063386739624732,4.244598457686862,3.3421750466879447,2.5750180117365056,1.922103046427798,1.3433672720709748,0.9136377314925344,0.5576245665182167,0.35928654231374146,0.1549143439484868,0.1387425771717466
0.0,59.0,59.0,0.0,120.0,0.0,0.0,0.0,0.0,-107.0,0.0,-45.0,0.0,0.0,0.0,34.27253218749016,17.55503396713325,6.318734092494339,5.03777211532166,4.249215105434242,3.6405393430563913,2.914601761038337,2.081065340815587,1.56916651261021,1.022783708904949,0.6296692194833047,0.42370108805947676,0.2616501958885625,0.08738984194090807,0.11739482873906401,0.031494163080471343,0.0005533752002560878,8.464974229466536,7.300512401141034,6.5894938703622286,5.971548518369578,5.114147863113979,4.221416329258137,3.4124838699576103,2.588169666106763,1.9112673687221362,1.3276349052062897,0.8668019981518278,0.6109229547632709,0.36543507363873046,0.1762756058050317,0.09542875316193294
0.0,60.0,60.0,0.0,120.0,0.0,0.0,0.0,0.0,-107.0,0.0,-45.0,0.0,0.0,0.0,34.27253218749016,17.55503396713325,6.443881486073548,5.078607148980476,4.408081398548516,3.6502868868653224,2.876111360338879,2.198446772284591,1.5202853207031777,1.0965557477828283,0.6584105465089782,0.3787679767197206,0.26534518932578005,0.12469397655936754,0.04719275744083472,0.017929664468146422,0.04290659782730077,8.53172742216311,7.373189883547633,6.641052376648263,5.988221145973416,5.159298787394387,4.276074266042362,3.4153209138463625,2.5596233858498176,1.9357078940468193,1.3633867519903602,0.9028188589692467,0.5609480213480842,0.34699641688447064,0.18418094709949875,0.11625693064741752
0.0,61.0,61.0,0.0,120.0,0.0,0.0,0.0,0.0,-107.0,0.0,-45.0,0.0,0.0,0.0,34.27253218749016,17.55503396713325,6.567785253920537,5.129948111696379,4.382203902111079,3.681998608110863,2.9308665716002746,2.223837858263314,1.5391846017375284,1.0579660704968425,0.6905007938525596,0.41005087859138134,0.22677172143268082,0.06527030799877302,0.09678317724571563,-0.06551643799881299,-0.01383066877777426,8.555007408188274,7.42054087197947,6.739892888605311,6.024568394226674,5.22837968692932,4.3158204617788325,3.416835323548936,2.6088983810681006,1.923421214680298,1.3530995353796824,0.9050199742411329,0.6110424353339627,0.35990930063022863,0.1668920061049939,0.07487221507827066
0.0,62.0,62.0,0.0,120.0,0.0,0.0,0.0,0.0,-107.0,0.0,-45.0,0.0,0.0,0.0,34.27253218749016,17.55503396713325,6.646670458395525,5.262873369525299,4.454371697338942,3.767971562875095,2.937452206062252,2.2509992844328575,1.5951353101968322,1.1402218111917033,0.6995932925033599,0.41706653125108467,0.2941812186267793,0.11071844827659463,0.08955430450193383,0.006895442462338829,0.028389215315708878,8.632446140187561,7.48095400657722,6.770516293714718,6.032947389868813,5.259215334026775,4.352515314795775,3.4608222124025256,2.630131481815858,1.9460324962993998,1.3675089463594792,0.8934877407995638,0.5619374416023651,0.3214330035887249,0.19531804266353425,0.1155920238760095
0.0,63.0,63.0,0.0,120.0,0.0,0.0,0.0,0.0,-107.0,0.0,-45.0,0.0,0.0,0.0,34.27253218749016,17.55503396713325,6.7214603072986066,5.330264449276921,4.5632076561195785,3.7929462144239574,3.050122973980854,2.274060941012336,1.6093527657177136,1.106314648468207,0.706356845401684,0.3847492223565179,0.2819080160493072,0.09445347948416888,0.04418442812045284,0.038931948499676856,0.016294485439750726,8.636638517544712,7.527558838131059,6.85308306048733,6.125174102348234,5.206252343672236,4.371160786457639,3.490512656736609,2.6428067742751016,1.9413632182759495,1.4088125068786779,0.9144702362992633,0.6034946819233581,0.34621825852305016,0.19931530922201698,0.07654042041865627
0.0,64.0,64.0,0.0,120.0,0.0,0.0,0.0,0.0,-107.0,0.0,-45.0,0.0,0.0,0.0,34.27253218749016,17.55503396713325,6.752451010445445,5.402208437777405,4.530630386294877,3.786243288430138,3.079942569679936,2.2119645332037905,1.6206171364426973,1.0665629358271895,0.7160076841006238,0.4710117973066337,0.2537647658832608,0.07098974652452891,0.04788779580594105,0.046988294866758956,-0.0009301582147892822,8.736469548395428,7.625041493998826,6.902452381011762,6.165914348701512,5.3546510347909155,4.46344673789414,3.5298209606664206,2.661135750547041,1.9727446447381003,1.3561727794373954,0.9252891102499076,0.5764197145637399,0.339413391298981,0.1765648098337633,0.10852227659376219
0.0,65.0,65.0,0.0,120.0,0.0,0.0,0.0,0.0,-107.0,0.0,-45.0,0.0,0.0,0.0,34.27253218749016,17.55503396713325,6.835838000566165,5.429494067272776,4.632227838874612,3.8805775217410705,3.1267102439011976,2.38408662725544,1.6402932916647,1.13683553204152,0.6811766833313282,0.4575706212542538,0.17359709389099676,0.07905095749685462,0.025872677088555958,-0.04680943333215745,0.007404173561638788,8.855015225452801,7.666901262326916,7.006552350373203,6.306271397724475,5.379099037771392,4.434009844318755,3.5231577337854496,2.6789717958420622,2.0150826022248194,1.3628791502029791,0.9513705716390921,0.5719927129098691,0.37302205795380666,0.2230333459992413,0.08892832904880198
0.0,66.0,66.0,0.0,120.0,0.0,0.0,0.0,0.0,-107.0,0.0,-45.0,0.0,0.0,0.0,34.27253218749016,17.55503396713325,6.954570217646917,5.504357511178387,4.707180537778753,3.9623419201541816,3.0652754263064605,2.357105905478733,1.6837800246302628,1.1530517022303846,0.7361042160289262,0.4765908345915668,0.15585055074865672,0.15279673239139308,0.11262772991306408,0.04841850544535327,0.03277741893640225,8.945920014995359,7.653492481848182,7.061788611052419,6.280080697999018,5.392002837228261,4.508127254893715,3.593906763426785,2.741469078705325,2.0240453436701444,1.3623628693687473,0.9052360053277299,0.5405622888910966,0.3401272497088327,0.18421244809434395,0.09127127029356508
0.0,67.0,67.0,0.0,120.0,0.0,0.0,0.0,0.0,-107.0,0.0,-45.0,0.0,0.0,0.0,34.27253218749016,17.55503396713325,7.119550894313786,5.604642119080574,4.689390451236548,3.9611899414496596,3.1447327177380906,2.369051163252126,1.6539843367632754,1.1499994772351565,0.8045054212950887,0.48512103506804516,0.2176648673384618,0.1963010627011118,0.09331320423668917,0.0022018915794047404,0.028641958569220555,9.015407457344061,7.738658870043825,7.089164244631456,6.359838023090428,5.4916058477381515,4.571609030395099,3.6139953724241853,2.7165200000656085,1.9968658015037495,1.3925983225117617,0.8756883177418875,0.6429022290172574,0.359611133395816,0.2442688363463847,0.0882886648426294
0.0,68.0,68.0,0.0,120.0,0.0,0.0,0.0,0.0,-107.0,0.0,-45.0,0.0,0.0,0.0,34.27253218749016,17.55503396713325,7.222141904959795,5.6831703772595334,4.857589274905885,4.1227838068176235,3.2178838639002394,2.393917451614449,1.722954469049445,1.2075364544510458,0.7279475451101347,0.4058704935640611,0.19715753671687708,0.13429090691155932,0.08686031006828904,-0.044293554903697206,0.007050057584612008,9.061237652224419,7.88989485903613,7.1491910231536515,6.415619059272187,5.506737340094096,4.611288001177385,3.640325217710349,2.76770526934998,2.009860483696492,1.395783555896161,0.950052481590735,0.6083522758786238,0.37567284615750723,0.24502203899162847,0.0899394544145085
0.0,69.0,69.0,0.0,120.0,0.0,0.0,0.0,0.0,-107.0,0.0,-45.0,0.0,0.0,0.0,34.27253218749016,17.55503396713325,7.285205468693991,5.742942441734113,4.800865781361367,4.0826151976882805,3.256718316945013,2.42221623487952,1.717365601508254,1.1948891477623178,0.8112302617557977,0.46925003687753997,0.2945012720406401,0.15190868254516615,0.032861859087735944,0.04249094887590846,-0.01784321029549706,9.143563922910673,7.909698870869391,7.180626671112262,6.468807462870692,5.602366539298638,4.653837465293451,3.661357251223786,2.7681082631461176,2.008249206140049,1.4204465481951674,0.947465769489438,0.5887607009310718,0.35933604251706086,0.20010387273222308,0.1188385727769123
0.0,70.0,70.0,0.0,120.0,0.0,0.0,0.0,0.0,-107.0,0.0,-45.0,0.0,0.0,0.0,34.27253218749016,17.55503396713325,7.427076791740782,5.8288181268788595,4.943111423500991,4.1509857070376315,3.289405021952071,2.4972279239543727,1.8527711047645603,1.1786433541256316,0.7081783956904936,0.41722534839812525,0.2781704136885438,0.0885807690150309,0.03359605460886903,-0.03285920883905558,0.010701785979093758,9.220391745872108,8.060182902171405,7.2920363988122965,6.538763414098067,5.561632373443929,4.623287420724599,3.7228705472946975,2.8002246976641336,2.0313311770973668,1.4362458370973488,0.9558024379895049,0.6033022578373173,0.33981304752521413,0.20183081889442328,0.047672238018670106
0.0,71.0,71.0,0.0,120.0,0.0,0.0,0.0,0.0,-107.0,0.0,-45.0,0.0,0.0,0.0,34.27253218749016,17.55503396713325,7.520697959876543,5.954009171365536,5.070773582149352,4.182231008305324,3.31554727325678,2.4883566344462023,1.743245302538532,1.1108767532382287,0.7725147735912201,0.44222441677832625,0.24040407762098284,0.2030086388749069,0.008055801880190915,0.03153672164366926,0.020358762669328106,9.211635511838486,8.060789463353956,7.3379936653510525,6.540331824360152,5.675552280690402,4.70732844064794,3.7311323641667555,2.790444706167809,2.0778718387770705,1.4477038448611246,0.9453646235116537,0.5916371595451774,0.3733707270048709,0.18830127746141276,0.08535934081878783
0.0,72.0,72.0,0.0,120.0,0.0,0.0,0.0,0.0,-107.0,0.0,-45.0,0.0,0.0,0.0,34.27253218749016,17.55503396713325,7.633772162675392,5.926121603541649,5.137533285402163,4.223522110022378,3.4033385209467277,2.4691948995224564,1.7594664743822959,1.186255145336706,0.732586744298223,0.46994299339627177,0.2697329141650365,0.1414520610288965,0.09593021148890174,0.05929320892761738,-0.01397495698499182,9.41714903092797,8.123488441372599,7.381388441422996,6.612452165034241,5.697594090664287,4.729966770364621,3.743590844468213,2.853755269488414,2.0741988771206454,1.413907129798738,0.9361714944054681,0.5854055238671364,0.33623834905094735,0.19151112780328844,0.10227544564574746
0.0,73.0,73.0,0.0,120.0,0.0,0.0,0.0,0.0,-107.0,0.0,-45.0,0.0,0.0,0.0,34.27253218749016,17.55503396713325,7.707181382470585,5.991897769548792,5.131124293622652,4.302462618595241,3.417415051448084,2.4918421439627303,1.8509098351077102,1.2400857894526547,0.7609031677792524,0.418140846231088,0.28243596832805734,0.11583264309085486,0.09117075729836752,-0.0431978959960678,0.005075820403113641,9.461165856888238,8.194203375963731,7.496776728809868,6.677199377930762,5.7344424310415985,4.818215244055115,3.7826678203418047,2.8569973365356955,2.111026860730176,1.4552837873462254,0.9475461625083166,0.5797832787173409,0.37657467392305,0.21762318651601406,0.06840308253184813
0.0,74.0,74.0,0.0,120.0,0.0,0.0,0.0,0.0,-107.0,0.0,-45.0,0.0,0.0,0.0,34.27253218749016,17.55503396713325,7.823392803572761,6.168097546634958,5.306305859733283,4.430894952909533,3.4545313675161715,2.519512376596302,1.8622730594797738,1.2115883796580613,0.7631956729380951,0.44051638891697126,0.26513228669593614,0.09910039687822908,0.16374526774214937,-0.01077740711534507,0.024981357794825226,9.578212589129205,8.371518145084222,7.623708473815698,6.761449596289761,5.857819794594025,4.83617997971235,3.8193077654742895,2.8678436099230646,2.0792900718484577,1.4548720481031454,0.9467993502520045,0.6009668129283101,0.35130426200904885,0.1993812294761473,0.14836126693101512
0.0,75.0,75.0,0.0,120.0,0.0,0.0,0.0,0.0,-107.0,0.0,-45.0,0.0,0.0,0.0,34.27253218749016,17.55503396713325,7.92038442195458,6.298360746008419,5.352720534843741,4.46861036279302,3.581942975312156,2.6265885949782484,1.8534483212090125,1.2157008150152706,0.7842064490464208,0.3843017083326936,0.275575086330359,0.21882178942632471,0.09917572013192166,0.017151181196879483,0.06174350157735409,9.588837913687849,8.378159515092952,7.661828229113988,6.808570546466789,5.861961115442716,4.865589761256085,3.8295693897977903,2.848193195307293,2.132759508888471,1.4409294620898372,0.9783232386097517,0.5921889326391624,0.3517280577152212,0.16446449773893107,0.06839736232213725
0.0,76.0,76.0,0.0,120.0,0.0,0.0,0.0,0.0,-107.0,0.0,-45.0,0.0,0.0,0.0,34.27253218749016,17.55503396713325,8.066273388635347,6.365171518203533,5.405999125094587,4.542285937197043,3.55529941490295,2.720910262410231,1.835288809013106,1.2365458242185776,0.7763303759436726,0.4783297511592803,0.21176064633499903,0.10309570131193857,0.03852781071008466,0.02262790815781493,0.010071127278708965,9.729101183442639,8.47457765089203,7.721627304428278,6.8506282703352674,5.910748884123471,4.897596897585243,3.874437130798329,2.9015687072221645,2.130264412649322,1.4635793328905011,0.9612874491739979,0.6325456909232349,0.35473003213826737,0.19687384155006363,0.03160152209880783
0.0,77.0,77.0,0.0,120.0,0.0,0.0,0.0,0.0,-107.0,0.0,-45.0,0.0,0.0,0.0,34.27253218749016,17.55503396713325,8.133922915017786,6.488958768530158,5.456660445257266,4.588702693533366,3.635287634583048,2.7297028513030783,1.8835495486510587,1.1936173560139547,0.7592479157398311,0.469677314205187,0.2752326607916618,0.14367123002573817,0.018254020118696222,0.06619282611803784,0.003346177066197404,9.743505219356516,8.512822647994208,7.7378221653170725,6.964599518534492,6.012744950914464,4.975269568332251,3.8581271553460312,2.9478651283372255,2.154821315219061,1.47677550572338,0.9525954531486756,0.5948442356040036,0.35220967977143547,0.19030676472521654,0.1017239212951027
0.0,78.0,78.0,0.0,120.0,0.0,0.0,0.0,0.0,-107.0,0.0,-45.0,0.0,0.0,0.0,34.27253218749016,17.55503396713325,8.302476779116116,6.545187605123725,5.591484871929378,4.611555489803524,3.631465795518511,2.7011801779495204,1.9270431045021896,1.291511181450838,0.7584231947201139,0.4833100985862312,0.26591357475172733,0.12429376826563604,0.07099021793609699,0.027213924366400882,0.004123291687310352,9.841126594897473,8.621229982877782,7.803397547887803,6.996690526248501,5.998019185598662,5.0015210144985325,3.9464965246148775,3.0159919965978275,2.110176451922968,1.494152529087842,0.9913562703988273,0.6325749919646402,0.381691066614903,0.19016830374564297,0.11384608439351782
