Line_number,Fiducial,Easting,Northing,Height,Elevation,tx_pitch,tx_roll,tx_yaw,txrx_dx,txrx_dy,txrx_dz,rx_pitch,rx_roll,rx_yaw,PX,PZ,S0X_time_1.086e-05,S0X_time_3.256e-05,S0X_time_5.426e-05,S0X_time_8.680e-05,S0X_time_1.411e-04,S0X_time_2.279e-04,S0X_time_3.689e-04,S0X_time_5.860e-04,S0X_time_9.115e-04,S0X_time_1.411e-03,S0X_time_2.192e-03,S0X_time_3.418e-03,S0X_time_5.339e-03,S0X_time_8.301e-03,S0X_time_1.338e-02,S0Z_time_1.086e-05,S0Z_time_3.256e-05,S0Z_time_5.426e-05,S0Z_time_8.680e-05,S0Z_time_1.411e-04,S0Z_time_2.279e-04,S0Z_time_3.689e-04,S0Z_time_5.860e-04,S0Z_time_9.115e-04,S0Z_time_1.411e-03,S0Z_time_2.192e-03,S0Z_time_3.418e-03,S0Z_time_5.339e-03,S0Z_time_8.301e-03,S0Z_time_1.338e-02
0.0,0.0,0.0,0.0,120.0,0.0,0.0,0.0,0.0,-107.0,0.0,-45.0,0.0,0.0,0.0,34.27253218749016,17.55503396713325,5.882553229630938,3.3634865661513618,2.2792803787165563,1.4791395409271648,0.8810795590717401,0.5042323072181614,0.27651643360090145,0.14841130009722367,0.07897375751268912,0.04077325268645005,0.020164574967515343,0.009554022645441954,0.004346736966352709,0.0018986129418866926,0.00066284587545716,8.121375666504536,5.790661168964098,4.515722584350169,3.3870460174498387,2.3756666761755936,1.6035553276100982,1.041924333128433,0.6626926807941954,0.41668184514813433,0.25488376608508506,0.1501552894806195,0.08511151809543899,0.04648506136478579,0.024610554617550077,0.011894400008422202
0.0,1.0,1.0,0.0,120.0,0.0,0.0,0.0,0.0,-107.0,0.0,-45.0,0.0,0.0,0.0,34.27253218749016,17.55503396713325,5.88186487252389,3.3487484492956283,2.2490414223844093,1.4409298194271927,0.8460017418351159,0.4795754221182365,0.26233581447438425,0.14118304345672855,0.07550321880999278,0.03920438646273307,0.01949954151107421,0.00928788260619065,0.0042454985076684085,0.0018617707626329208,0.0006518515033905204,8.120881679411157,5.774980038807046,4.477305257080879,3.3289724476604894,2.3109724532759945,1.5482078269573718,1.0030859946761885,0.6386597812829141,0.40278779506378876,0.24732599115240136,0.14628784795565675,0.08323874675934956,0.04562168868908522,0.024228100918344302,0.011743623224562351
0.0,2.0,2.0,0.0,120.0,0.0,0.0,0.0,0.0,-107.0,0.0,-45.0,0.0,0.0,0.0,34.27253218749016,17.55503396713325,5.881163144136865,3.335063183862737,2.221496866925439,1.4061080096372356,0.8137679759871038,0.45671201776177445,0.24909077197422358,0.13438928247342377,0.072220303231235,0.037710159503433566,0.0188617531967172,0.009030978351625585,0.004147205747143328,0.0018258145185026892,0.000641022651187722,8.12037328763512,5.760235872508022,4.441750521792013,3.2751451949741637,2.2505022696324097,1.4960211700161676,0.9662318004014491,0.6157481352045068,0.38948306181309866,0.2400538347650695,0.14254771208540729,0.08141867740316103,0.04477881585661297,0.023853225957783303,0.011595196417844726
0.0,3.0,3.0,0.0,120.0,0.0,0.0,0.0,0.0,-107.0,0.0,-45.0,0.0,0.0,0.0,34.27253218749016,17.55503396713325,5.8804277661402,3.3220903708210856,2.196088442474495,1.374165046879493,0.7840636003728287,0.4354818402945492,0.23670591178182496,0.12799741699227157,0.06911217061058607,0.03628603325530567,0.018249773115777062,0.00878289414950855,0.004051745726168023,0.0017907164294323288,0.0006303606351767158,8.11983462642361,5.746117518705729,4.40847882653555,3.2249702187547866,2.193852338856317,1.4467706645715035,0.9312378595179301,0.5938914881412258,0.3767353093188498,0.23305319297824384,0.13892937926378124,0.07964935844697184,0.04395580096839288,0.023485732731818216,0.011449077953122725
0.0,4.0,4.0,0.0,120.0,0.0,0.0,0.0,0.0,-107.0,0.0,-45.0,0.0,0.0,0.0,34.27253218749016,17.55503396713325,5.8796423737122625,3.3095714704059143,2.1723653682792055,1.3446623366702677,0.7566038671859485,0.4157385717310924,0.22511312633734992,0.12197801805504334,0.06616714261700962,0.03492783761347395,0.01766226625666218,0.008543239823233021,0.00395901162700917,0.0017564499312436638,0.0006198661291652317,8.119252635607413,5.73238603173523,4.377017324404212,3.1779265237186145,2.140645204443043,1.4002425740167654,0.8979886835017757,0.5730287053124797,0.36451461280428216,0.2263109199997063,0.1354276757965938,0.07792893876217372,0.043152030274138116,0.02312543139887156,0.011305226855331895
0.0,5.0,5.0,0.0,120.0,0.0,0.0,0.0,0.0,-107.0,0.0,-45.0,0.0,0.0,0.0,34.27253218749016,17.55503396713325,5.878792776082945,3.297306074320946,2.149962464768037,1.317224196912274,0.7311329781938182,0.39734865341879055,0.21425062754423646,0.11630441353732615,0.06337456321193556,0.03363173119944148,0.01709798984670134,0.008311648578391301,0.0038689022798005916,0.0017229896009734983,0.000609539290741939,8.118615752349992,5.718853247348004,4.3469779746985,3.1335600244859267,2.0905321976746607,1.3562346384090185,0.8663763346924174,0.553103198627304,0.3527932093364699,0.2198147384841595,0.13203772981044357,0.07625566047793329,0.042366916442806817,0.0227721389118148,0.011163602790966997
0.0,6.0,6.0,0.0,120.0,0.0,0.0,0.0,0.0,-107.0,0.0,-45.0,0.0,0.0,0.0,34.27253218749016,17.55503396713325,5.877865929703486,3.285135769172853,2.128582496582786,1.2915299036092542,0.7074224827174448,0.3801903004266793,0.2040621674827229,0.11095234219377538,0.0607246800319802,0.03239416697859007,0.016555784853015048,0.008087775077572603,0.003781321726401854,0.001690311088204235,0.0005993798535032257,8.117913152617477,5.705367418790895,4.318040051625951,3.091476262881882,2.043194141481154,1.3145564515586647,0.8362997581489984,0.5340624391911735,0.34154528140386836,0.21355316055049983,0.1287549470284938,0.07462785246477133,0.04159989697385928,0.02242567867525899,0.011024166058203394
0.0,7.0,7.0,0.0,120.0,0.0,0.0,0.0,0.0,-107.0,0.0,-45.0,0.0,0.0,0.0,34.27253218749016,17.55503396713325,5.8768492859545765,3.2729329790263537,2.1079821980505806,1.2673060906013307,0.685269280426171,0.36415262344021226,0.19449640368785245,0.10589966336389348,0.05820854304789519,0.031211862380086233,0.016034568475500395,0.007871293728053797,0.0036961788330664436,0.0016583910518221336,0.0005893871969306184,8.117134275473251,5.69180340979751,4.289936398917916,3.05133303597552,1.9983408368209514,1.2750296397885268,0.8076642498084762,0.5158575419234894,0.33074676844950096,0.20751541801165557,0.1255749890445218,0.07304392441382472,0.04085043273363554,0.022085880225722963,0.010886877584317016
0.0,8.0,8.0,0.0,120.0,0.0,0.0,0.0,0.0,-107.0,0.0,-45.0,0.0,0.0,0.0,34.27253218749016,17.55503396713325,5.875730347151695,3.26059311412899,2.087961304023143,1.2443198579825423,0.664493432343597,0.34913481334776725,0.18550637496543668,0.10112611214796496,0.05581791756239876,0.03008177322915944,0.015533327492605983,0.0076618971522739825,0.003613386944778415,0.0016272071016806837,0.0005795604013669195,8.116268499966331,5.6780558682932,4.262442691276154,3.0128334747706482,1.9557097663725496,1.2374878368001312,0.7803810226008302,0.49844291084738196,0.3203752021607934,0.20169140054975568,0.12249375378375565,0.07150236144290936,0.040118006603849496,0.021752578932692196,0.010751698928186946
0.0,9.0,9.0,0.0,120.0,0.0,0.0,0.0,0.0,-107.0,0.0,-45.0,0.0,0.0,0.0,34.27253218749016,17.55503396713325,5.874496344295387,3.248028949767455,2.068353959016081,1.2223727136209368,0.644935930816533,0.33504536761786863,0.17704906164670067,0.09661309183836023,0.05354520916899588,0.029001070920388086,0.015051112343175193,0.0074592948157421604,0.003532863575125715,0.0015967377447005675,0.0005698982927698153,8.115304907729161,5.664034381822298,4.235369045621871,2.9757198097414115,1.9150643414638289,1.2017764763153007,0.7543668409264238,0.48177593520881834,0.3104095620273529,0.19607160076731026,0.119507357885528,0.07000171917072291,0.03940212223116062,0.021425615718842928,0.01061859228578307
0.0,10.0,10.0,0.0,120.0,0.0,0.0,0.0,0.0,-107.0,0.0,-45.0,0.0,0.0,0.0,34.27253218749016,17.55503396713325,5.873133989054386,3.2351665350245242,2.049021981182382,1.2012953478490465,0.6264565304965448,0.3218013510599083,0.16908501062598383,0.09234349694847188,0.05138339873633571,0.027967122356838573,0.01458703184620494,0.007263211791184714,0.0034545301265659985,0.0015669623349892025,0.0005603994802153051,8.114232095528662,5.649659973358852,4.208553447249914,2.939767890943228,1.8761919234761197,1.1677524363412533,0.7295437017552169,0.46581672798094964,0.30083014825252663,0.19064706520764257,0.1166121207809654,0.06854061920892622,0.038702302868411295,0.021104836797922754,0.01048752049696788
0.0,11.0,11.0,0.0,120.0,0.0,0.0,0.0,0.0,-107.0,0.0,-45.0,0.0,0.0,0.0,34.27253218749016,17.55503396713325,5.871629272544641,3.2219421688780496,2.029849564478946,1.1809431803808947,0.6089317034297504,0.3093276903189123,0.16157801059304716,0.08830156142901906,0.04932598583429208,0.026977472258288268,0.014140248475659067,0.007073387641238621,0.0033783116368143393,0.0015378610276035516,0.0005510623880730502,8.113038017914088,5.634862519283083,4.181856572801424,2.9047824428126807,1.8389017763927074,1.1352835717447054,0.7058385470970919,0.4505278995648443,0.29161846957063775,0.1854093505724602,0.11380455027048672,0.06711774502864766,0.03801809029933717,0.020790093428928035,0.01035844705238425
0.0,12.0,12.0,0.0,120.0,0.0,0.0,0.0,0.0,-107.0,0.0,-45.0,0.0,0.0,0.0,34.27253218749016,17.55503396713325,5.869967294262622,3.2083001331038568,2.0107390950465867,1.1611925935157952,0.5922527527012091,0.29755650419213453,0.15449480674288144,0.08447272767203944,0.04736693929886496,0.026029827505925827,0.013709974120098438,0.006889575404906127,0.003304136547863425,0.0015094147356375417,0.0005418852841226884,8.111709848468616,5.619578812256368,4.155157689538025,2.8705929926015314,1.80302305181242,1.104248169496464,0.6831829976328062,0.43587436062723006,0.2827571439020299,0.18035048447679564,0.11108132943218092,0.06573183816358444,0.03734904383958559,0.020481241685361102,0.010231336099561452
0.0,13.0,13.0,0.0,120.0,0.0,0.0,0.0,0.0,-107.0,0.0,-45.0,0.0,0.0,0.0,34.27253218749016,17.55503396713325,5.86813211058456,3.1941909700965554,1.9916078325891502,1.1419377601431895,0.5763240992502523,0.28642647239307384,0.14780484713025033,0.080843532727014,0.045500653858541754,0.025122043243702725,0.013295466267322295,0.006711540675357908,0.0032319364947538593,0.0014816050903294674,0.0005328663043922272,8.11023385457762,5.60375108749164,4.12835139479308,2.8370504035815953,1.7684028685692517,1.0745343506739624,0.6615131037975646,0.4218231480595881,0.27422981035300337,0.17546293012432254,0.10843930472159644,0.06438169471573102,0.03669473940753142,0.020178142238633626,0.010106152504520594
0.0,14.0,14.0,0.0,120.0,0.0,0.0,0.0,0.0,-107.0,0.0,-45.0,0.0,0.0,0.0,34.27253218749016,17.55503396713325,5.86610659558865,3.179570158763513,1.9723852659842065,1.1230879797096556,0.5610617437446247,0.2758822445666633,0.14148005504413366,0.0774015087885893,0.04372191194000371,0.024252110496719846,0.0128960245635668,0.00653906075846768,0.0031616461117647977,0.001454414403942375,0.0005240034772033929,8.108595309946491,5.587325964306198,4.101345123870811,2.804024048298053,1.734904525165423,1.046039361090646,0.6407691518276665,0.4083432555665554,0.26602105496225736,0.17073955365304747,0.1058754752447651,0.06306616212270214,0.0360547686574333,0.019880660157433463,0.009982862814953296
0.0,15.0,15.0,0.0,120.0,0.0,0.0,0.0,0.0,-107.0,0.0,-45.0,0.0,0.0,0.0,34.27253218749016,17.55503396713325,5.863872310682341,3.1643970859788735,1.953010996750769,1.1045654424564044,0.5463918955490521,0.26587389154376867,0.13549462301583537,0.07413509567622668,0.042025849870804516,0.02341814511786575,0.012510987700556501,0.0063719239037916256,0.0030932028539623377,0.001427825635163377,0.0005152947431810127,8.106778270590253,5.570253236117418,4.074056605118854,2.771398864544637,1.702405838333431,1.0186692642979709,0.6208952740285008,0.3954055515672931,0.25811632547196206,0.1661735983327645,0.10338698242803931,0.06178413623206642,0.03542873818006308,0.019588664705082668,0.00986143203730694
0.0,16.0,16.0,0.0,120.0,0.0,0.0,0.0,0.0,-107.0,0.0,-45.0,0.0,0.0,0.0,34.27253218749016,17.55503396713325,5.861409377004359,3.1486342378535515,1.9334330366840575,1.086303353866065,0.5322497601936029,0.2563563985499354,0.12982482514237242,0.07103356343503173,0.04040792786751316,0.022618377882552904,0.012139730595804789,0.006209928599451696,0.0030265468326848175,0.0014018223568066448,0.0005067379673090011,8.104765571574596,5.552485454897449,4.046412591319623,2.7390736732461436,1.6707976629579706,0.992338004903521,0.6018393875251722,0.3829825997763731,0.2505018835732849,0.16175865552443805,0.10097110139159844,0.06053455850810437,0.03481626874446757,0.01930202917001121,0.009741826973149167
0.0,17.0,17.0,0.0,120.0,0.0,0.0,0.0,0.0,-107.0,0.0,-45.0,0.0,0.0,0.0,34.27253218749016,17.55503396713325,5.858696350252498,3.1322465603541754,1.9136064354848223,1.068244362046877,0.5185784703714621,0.2472891987197585,0.1244488460899469,0.06808694326686152,0.03886390333201435,0.021851145581994743,0.01178166183267396,0.0060528829247623855,0.00296162066342845,0.0013763887256752502,0.0004983309583688357,8.1025386756384,5.533977232127182,4.018347310644551,2.7069592167815806,1.639982536364002,0.9669669266231582,0.5835529221571928,0.3710485669219075,0.24316474281173267,0.15748864208316643,0.09862523249380742,0.059316413506606096,0.03421699459861494,0.019020630691617323,0.00962401508583244
0.0,18.0,18.0,0.0,120.0,0.0,0.0,0.0,0.0,-107.0,0.0,-45.0,0.0,0.0,0.0,34.27253218749016,17.55503396713325,5.85571009547449,3.1152009491942594,1.8934921695069034,1.0503392369680746,0.5053281464683163,0.2386357466335832,0.11934662432974724,0.06528596573725974,0.0373898069583614,0.021114883001112982,0.01143622133027411,0.005900603954955626,0.0028983693249915268,0.0013515094543668715,0.0004900714834148134,8.100077558005383,5.514684748527759,3.9898013212974677,2.674976622074552,1.6098734676844646,0.9424842063280895,0.5659906112685412,0.35957912104030726,0.23609261718202312,0.1533577788550935,0.0963468937044143,0.05812872651966968,0.03363056281384069,0.01874435009953714,0.009507964495936945
0.0,19.0,19.0,0.0,120.0,0.0,0.0,0.0,0.0,-107.0,0.0,-45.0,0.0,0.0,0.0,34.27253218749016,17.55503396713325,5.8524256604149345,3.0974658405900986,1.8730562397536235,1.0325457605620292,0.49245507279247325,0.23036312958449776,0.11449970829453496,0.06262200517222002,0.03598192129248661,0.020408115670969545,0.011102878218854518,0.005752917212880427,0.0028367400288659174,0.001327169784886139,0.0004819572806066332,8.097360588876745,5.494565343597053,3.96072056908533,2.643056094386831,1.5803928567098615,0.9188243186310204,0.5491102904019327,0.3485513380587711,0.22927387450271783,0.14936057105752257,0.09413371358986401,0.05697056139004911,0.033056632671737064,0.018473071761872017,0.009393643974952367
0.0,20.0,20.0,0.0,120.0,0.0,0.0,0.0,0.0,-107.0,0.0,-45.0,0.0,0.0,0.0,34.27253218749016,17.55503396713325,5.848816146361605,3.0790108815389132,1.8522689382630086,1.0148277931080578,0.4799209762475411,0.22244171430566578,0.10989112424689898,0.060087029401225005,0.03463676142771448,0.01972945330405933,0.010781128898824814,0.0056096561632294215,0.002776682097971543,0.0013033554639116955,0.0004739860704969775,8.094364412684385,5.473577167909381,3.9310556090583946,2.611135806533461,1.5514715313321725,0.895927533395821,0.5328727042120216,0.33794361552115026,0.2226974939780262,0.14549179033570048,0.09198342485031578,0.055841018480159245,0.032494875090164015,0.018206683441747317,0.009281022937409658
0.0,21.0,21.0,0.0,120.0,0.0,0.0,0.0,0.0,-107.0,0.0,-45.0,0.0,0.0,0.0,34.27253218749016,17.55503396713325,5.844852575676727,3.05980666355673,1.8311042507976563,0.9971544871270466,0.4676923951978766,0.21484482669978924,0.10550525483453334,0.05767355415251864,0.03335105756675139,0.019077583833322347,0.010470495264208358,0.00547066174534555,0.002718146853937456,0.0012800527195982489,0.00046615556587723065,8.091063823312977,5.451678885494767,3.900760960702779,2.5791609538513893,1.5230478924806234,0.8737394471123976,0.5172413218728775,0.3277355925412977,0.21635302743821028,0.14174645831575317,0.08989385835472649,0.05473923278233033,0.03194497208534912,0.01794507616164258,0.009170071431698212
0.0,22.0,22.0,0.0,120.0,0.0,0.0,0.0,0.0,-107.0,0.0,-45.0,0.0,0.0,0.0,34.27253218749016,17.55503396713325,5.840503755372971,3.0398245076936927,1.8095393705445315,0.9794996248779091,0.45574012741252284,0.20754846203787494,0.10132772744149117,0.055374601526138656,0.03212173922074459,0.018451267986368786,0.010170523073636438,0.005335781941102443,0.0026610875122205896,0.0012572482397954447,0.0004584634802905395,8.08743163458857,5.428829416744222,3.869794572632176,2.5470829500115695,1.4950671557532849,0.8522105480293043,0.5021821611757531,0.31790807524812853,0.2102305638220323,0.1381198314956198,0.08786293762631085,0.05366437215823068,0.03140661626730734,0.01768814407497348,0.009060760129799061
0.0,23.0,23.0,0.0,120.0,0.0,0.0,0.0,0.0,-107.0,0.0,-45.0,0.0,0.0,0.0,34.27253218749016,17.55503396713325,5.835736136215369,3.0190362915342512,1.7875543028090135,0.9618410595874456,0.44403874713181296,0.20053102310496662,0.09734531154391014,0.05318366206601308,0.030945920849516338,0.017849334335456865,0.009880780453959027,0.005204871374695887,0.0026054590844069997,0.0012349291515687149,0.0004509075353125702,8.0834385453869,5.404987714562966,3.838117377769025,2.514858742765941,1.4674806795567839,0.831295814196428,0.4876636214176192,0.30844296712788677,0.20432069652634924,0.1346073873352471,0.08588867373591051,0.052615635696532714,0.030879510366013718,0.017435784344430112,0.008953060316144927
0.0,24.0,24.0,0.0,120.0,0.0,0.0,0.0,0.0,-107.0,0.0,-45.0,0.0,0.0,0.0,34.27253218749016,17.55503396713325,5.830513666909595,2.997414311073098,1.765131544811114,0.9441602438908324,0.43256618241948896,0.19377308384192493,0.0935458243556538,0.05109466002920156,0.02982088877523509,0.017270674771464347,0.009600856523297247,0.005077790941531755,0.0025512182871212387,0.0012130830019373732,0.0004434854667150156,8.079052998739174,5.380112568174252,3.805692923964359,2.4824502320718183,1.4402453703307412,0.8109543430681195,0.47365632508384087,0.2993232037790605,0.19861449330064485,0.13120481142401927,0.08396916056543113,0.0515922521789777,0.030363366786010985,0.01718789702664136,0.008846943875813971
0.0,25.0,25.0,0.0,120.0,0.0,0.0,0.0,0.0,-107.0,0.0,-45.0,0.0,0.0,0.0,34.27253218749016,17.55503396713325,5.824797642980758,2.9749311720332585,1.7422558279267355,0.9264418317247308,0.42130334500719835,0.18725717614497925,0.0899180441113241,0.04910192151215205,0.028744089225473696,0.01671424035670403,0.009330360121847738,0.004954407463658836,0.002498323457001365,0.001191697739728039,0.0004361950296148779,8.074241034308635,5.354162430242488,3.7724870681289224,2.44982377583747,1.413323156259667,0.7911490109958604,0.46013296823833505,0.2905326916808923,0.19310346840927092,0.12790798561797326,0.08210257040755595,0.05059347864591227,0.029857907187312484,0.01694438496274716,0.008742383282231694
0.0,26.0,26.0,0.0,120.0,0.0,0.0,0.0,0.0,-107.0,0.0,-45.0,0.0,0.0,0.0,34.27253218749016,17.55503396713325,5.8185465499598505,2.951559706499904,1.7189139122645247,0.9086733421978942,0.41023380579047275,0.18096759762336734,0.08645163038622053,0.047200145143707066,0.027713117381580738,0.01617903751709121,0.009068918640080258,0.004834593369460136,0.0024467344712650893,0.0011707616984758399,0.0004290340027214919,8.068966133577582,5.3270952639613895,3.7384677244234394,2.416949770873804,1.3866805217035605,0.7718461607530833,0.44706817945607913,0.28205625064251627,0.18777955682247702,0.12471297705198983,0.0802871498715445,0.04961859905323105,0.029362862090649044,0.01670515367450545,0.008639351584542074
0.0,27.0,27.0,0.0,120.0,0.0,0.0,0.0,0.0,-107.0,0.0,-45.0,0.0,0.0,0.0,34.27253218749016,17.55503396713325,5.811715900480184,2.927272911780797,1.6950944254829552,0.890844875848761,0.3993435099901212,0.1748902382683202,0.08313705089818971,0.045384375095106164,0.026725707325164143,0.015664124539037,0.008816176935103738,0.004718226395519405,0.0023964126734082295,0.0011502635802821779,0.00042200019177458,8.06318905702224,5.2988684075278565,3.703604659026021,2.3838022985950524,1.360288095373445,0.7530153151472938,0.4344383870676815,0.27387955965097055,0.18263509022997296,0.12161602794318514,0.07852121606810245,0.0486669230134034,0.028877970505266307,0.016470111265572872,0.00853782239477789
0.0,28.0,28.0,0.0,120.0,0.0,0.0,0.0,0.0,-107.0,0.0,-45.0,0.0,0.0,0.0,34.27253218749016,17.55503396713325,5.804258064844741,2.902043909242277,1.670787739349919,0.8729488752554724,0.38862052675160885,0.16901242414543746,0.0799655142771315,0.04364997619028019,0.025779722789742686,0.015168608340643649,0.008571796327002135,0.004605189308802079,0.002347320803642507,0.0011301924405766725,0.00041509143227703527,8.05686767246001,5.269438454055903,3.6678693255695065,2.3503588266504485,1.3341202860194743,0.7346289147583296,0.42222169443419366,0.265989105875934,0.17766277469845615,0.11861354611132645,0.07680315304909936,0.04773778461395789,0.02840297957764487,0.016239168327650585,0.008437769874945744
0.0,29.0,29.0,0.0,120.0,0.0,0.0,0.0,0.0,-107.0,0.0,-45.0,0.0,0.0,0.0,34.27253218749016,17.55503396713325,5.7961220945591325,2.875845921558735,1.6459858788190749,0.8549799232487895,0.3780548286227177,0.16332277638101775,0.07692890832530706,0.041992610926979236,0.024873148636705967,0.014691641490399402,0.008335453667820932,0.004495369647448407,0.002299422933693139,0.0011105376737094571,0.0004083055916101933,8.049956773629829,5.238761145519311,3.631234736607173,2.316599959042796,1.3081549600772913,0.7166620778752164,0.41039776293147,0.25837213661997677,0.17285566981814846,0.11570209615052097,0.07513140848042339,0.04683054130739821,0.027937644259642163,0.01601223785118095,0.008339168724122631
0.0,30.0,30.0,0.0,120.0,0.0,0.0,0.0,0.0,-107.0,0.0,-45.0,0.0,0.0,0.0,34.27253218749016,17.55503396713325,5.787253538232979,2.8486522673904795,1.6206824594128324,0.8369345730395417,0.3676380969339546,0.15781108386703036,0.07401974332640157,0.04040821824181378,0.024004082985001708,0.014232419449717338,0.008106840476669541,0.004388659478646762,0.002252684405621601,0.0010912889993247008,0.0004016405706167111,8.042407887908812,5.206791279776249,3.5936753674884825,2.282509228442285,1.2823731563299183,0.6990923807714833,0.39894770229599247,0.2510166140271778,0.16820716920340126,0.11287839119376374,0.07350449052844445,0.045944572867074734,0.02748172699468498,0.015789235140326697,0.008241994165637269
0.0,31.0,31.0,0.0,120.0,0.0,0.0,0.0,0.0,-107.0,0.0,-45.0,0.0,0.0,0.0,34.27253218749016,17.55503396713325,5.777594249136159,2.820436372996893,1.5948726495155332,0.8188112054481984,0.35736354961497013,0.1524681882563369,0.07123109999395749,0.03889299387118079,0.023170729932687185,0.013790178018378261,0.007885662135090692,0.004284955172192023,0.00220707177435485,0.0010724364494522404,0.00039509430472383023,8.034169071875658,5.1734826301454815,3.555167089860788,2.2480729253704252,1.2567588331883806,0.6818996565479936,0.3878539679666686,0.2439111723821348,0.1637109822294343,0.11013928521838687,0.07192096494252155,0.04507928040404156,0.027034997420759897,0.015570077731969376,0.008146221934404044
0.0,32.0,32.0,0.0,120.0,0.0,0.0,0.0,0.0,-107.0,0.0,-45.0,0.0,0.0,0.0,34.27253218749016,17.55503396713325,5.767082183554993,2.7911718007193365,1.5685531548332052,0.8006099091465978,0.34722578842212676,0.14728587995792344,0.0685565816805058,0.0374433721759783,0.022371392815933706,0.013364190964318855,0.0076716371374707356,0.004184157188475202,0.0021625527536488823,0.0010539703562813753,0.0003886647646859577,8.025184693200563,5.138787877387178,3.515687132698978,2.2132799597393196,1.2312986446781073,0.6650658108744928,0.3771002650479764,0.23704507784670184,0.1593611169017431,0.10748176584609341,0.07037945231773458,0.04423408544035706,0.026597232089042334,0.015354685318486896,0.008051828264462619
0.0,33.0,33.0,0.0,120.0,0.0,0.0,0.0,0.0,-107.0,0.0,-45.0,0.0,0.0,0.0,34.27253218749016,17.55503396713325,5.755651188927828,2.7608322946474324,1.541722222801002,0.7823323804164141,0.3372206629351774,0.14225680397027404,0.06599027049772312,0.0360560093115871,0.02160446795746296,0.012953767821257848,0.007464496391783365,0.004086169879750917,0.0021190961652145348,0.0010358813405611598,0.00038234995700067004,8.01539519707052,5.102658554305323,3.4752140693367486,2.178121750909207,1.2059817416441403,0.6485746530694425,0.36667145851777,0.23040819049426672,0.1551518637670353,0.10490294759622665,0.06887862552355065,0.04340842903470436,0.026168214197118317,0.015142979674094389,0.007958789876769522
0.0,34.0,34.0,0.0,120.0,0.0,0.0,0.0,0.0,-107.0,0.0,-45.0,0.0,0.0,0.0,34.27253218749016,17.55503396713325,5.74323078075427,2.7293918444988874,1.5143796653162391,0.763981839113652,0.32734514910874957,0.1373743744796214,0.063526687038879,0.03472776763209323,0.02086843886268685,0.012558251839313642,0.007263982566478424,0.003990901303647396,0.0020766718907780967,0.001018160300591505,0.00037614792523827897,8.004736844986002,5.065045004048305,3.4337278402559384,2.1425921470901717,1.1807995897300938,0.6324117429488523,0.3565534889717203,0.22399092851414423,0.15107778079809836,0.10240006555071485,0.06741720728679096,0.04260177095623578,0.025747733335884114,0.014934884584530572,0.007867083960708223
0.0,35.0,35.0,0.0,120.0,0.0,0.0,0.0,0.0,-107.0,0.0,-45.0,0.0,0.0,0.0,34.27253218749016,17.55503396713325,5.729745910820909,2.6968247676243124,1.486526893190126,0.745562957114265,0.3175972424794254,0.13263269652932175,0.06116075352304482,0.03345570124038213,0.020161870818023286,0.01217701807783261,0.007069849479104602,0.0038982630481177354,0.0020352508268270384,0.0010007984017699042,0.0003700567525531275,7.993141452295794,5.0258963506374315,3.391209779067112,2.1066873600845484,1.1557458166513392,0.6165642466928458,0.34673329448108864,0.21778423446854137,0.14713367914065598,0.09997046941124277,0.06599396791346163,0.04181358890414111,0.025335585249047828,0.014730325779908602,0.007776688165592766
0.0,36.0,36.0,0.0,120.0,0.0,0.0,0.0,0.0,-107.0,0.0,-45.0,0.0,0.0,0.0,34.27253218749016,17.55503396713325,5.715116710448744,2.663105810419999,1.458166976098112,0.7270818033450824,0.3079758565084804,0.12802649664817223,0.05888775958774377,0.03223704260749855,0.0194834058745058,0.01180947162249319,0.006881861525002847,0.003808170066524609,0.001994804841937739,0.0009837870666456502,0.00036407455384399414,7.9805361246659485,4.985160486024941,3.347642641368711,2.070405909883279,1.1308160877886662,0.6010207999882256,0.3371987383684736,0.21177954345408834,0.14331460966341492,0.09761161791827092,0.06460772313886845,0.041043377769809736,0.024931571604390877,0.014529230870538739,0.007687580612819157
0.0,37.0,37.0,0.0,120.0,0.0,0.0,0.0,0.0,-107.0,0.0,-45.0,0.0,0.0,0.0,34.27253218749016,17.55503396713325,5.699258223813721,2.6282102741206392,1.4293047132250436,0.7085457940317068,0.29848073334739866,0.12355105861577288,0.056703331119813696,0.031069190131537448,0.018831758176773458,0.011455045921133972,0.006699793141380582,0.0037205405225181416,0.0019553067364032847,0.0009671179654679814,0.0003581994802545472,7.9668428913714315,4.942784077007378,3.3030107391811603,2.0337486191666003,1.1060079555805653,0.5857713957119245,0.32793853921429034,0.20596875312022156,0.1396158503726574,0.09532107356228768,0.06325733210844225,0.040290648935646906,0.024535499776678182,0.014331529285571212,0.007599739855085246
0.0,38.0,38.0,0.0,120.0,0.0,0.0,0.0,0.0,-107.0,0.0,-45.0,0.0,0.0,0.0,34.27253218749016,17.55503396713325,5.682080123992458,2.5921141617494357,1.399946713862454,0.6899636515531693,0.28911236303686927,0.11920216456503543,0.05460340162487116,0.029949696621614525,0.018205709601417708,0.011113201229871963,0.006523428303963413,0.003635295643955293,0.0019167302040246047,0.0009507830071878473,0.0003524297179950409,7.951978372565918,4.898712587606658,3.257300030493996,1.9967185980767534,1.0813207553679396,0.5708072687707277,0.31894220746996366,0.2003441954046882,0.1360328944579993,0.09309649762687842,0.06194169546283239,0.03955492961236449,0.024147182640600888,0.01413715221428931,0.0075131448763563514
0.0,39.0,39.0,0.0,120.0,0.0,0.0,0.0,0.0,-107.0,0.0,-45.0,0.0,0.0,0.0,34.27253218749016,17.55503396713325,5.663486406687603,2.5547943514336464,1.3701014930961992,0.6713453696704761,0.2798719084099233,0.11497604139673297,0.05258418588839782,0.02887625860928605,0.017604105692109174,0.010783423157888902,0.006352560054397241,0.0035523595850492666,0.001879049795922368,0.0009347743308785765,0.0003467634876538844,7.935853394644219,4.852890324534789,3.2104982529807167,1.9593212502616744,1.0567555025913271,0.5561207924069573,0.3101999856743547,0.1948986099004334,0.13256143903121761,0.0909356455040968,0.06065975352971025,0.03883576220970558,0.02376643837362684,0.01394603254990958,0.007427775081867654
0.0,40.0,40.0,0.0,120.0,0.0,0.0,0.0,0.0,-107.0,0.0,-45.0,0.0,0.0,0.0,34.27253218749016,17.55503396713325,5.643375060588653,2.5162287978893736,1.3397795796538754,0.652702183317428,0.27076113544340547,0.11086931168734855,0.050642155776428666,0.027846706431952972,0.01702585186560665,0.010465221304247109,0.006186990055849764,0.003471659296230519,0.001842240886238955,0.0009190842975662074,0.00034119904336442277,7.918372566283365,4.805260507581974,3.1625950834072762,1.92156429173503,1.0323147989394794,0.5417053818140551,0.30170279255917076,0.1896251187644536,0.12919737449160762,0.08883636227059583,0.05941048461276066,0.03813270373895172,0.023393090268064753,0.013758104835757885,0.007343610288495813
0.0,41.0,41.0,0.0,120.0,0.0,0.0,0.0,0.0,-107.0,0.0,-45.0,0.0,0.0,0.0,34.27253218749016,17.55503396713325,5.621637711664752,2.4763967648695226,1.3089936352066118,0.6340465414975298,0.2617823481138198,0.10687894862441973,0.04877401800147849,0.026858995031742224,0.016469909868471383,0.010158127979756862,0.00602652817472443,0.003393124401169571,0.0018062796395906593,0.0009037054824338421,0.000335734671814136,7.899433809595153,4.755765368664938,3.113582323679066,1.8834577810922413,1.008002745880884,0.5275554042679356,0.2934421707713403,0.1845172030839892,0.12593677447900775,0.08679657850655931,0.05819290337122978,0.037445325245154495,0.023026966551781082,0.013573305213689995,0.007260630715444786
0.0,42.0,42.0,0.0,120.0,0.0,0.0,0.0,0.0,-107.0,0.0,-45.0,0.0,0.0,0.0,34.27253218749016,17.55503396713325,5.59815923859307,2.4352790917022835,1.2777585843758381,0.6153920818886465,0.25293832692299617,0.10300223455790142,0.04697669369487716,0.02591119541785284,0.01593529446613865,0.00986169700756928,0.005870992086589945,0.0033166870804703366,0.0017711429801572855,0.0008886306673784693,0.0003303686911004314,7.878927840164795,4.70434628397981,3.0634541146265866,1.8450141596602416,0.9838248641245315,0.5136660950509168,0.285410237958447,0.17956868062001163,0.1227758863789113,0.08481430634110892,0.057006059283965425,0.036773211267214174,0.022667900217061988,0.013391571374637007,0.0071788169751738976
0.0,43.0,43.0,0.0,120.0,0.0,0.0,0.0,0.0,-107.0,0.0,-45.0,0.0,0.0,0.0,34.27253218749016,17.55503396713325,5.572817357007875,2.392858497734568,1.2460917546446122,0.5967536053973929,0.24423227023421565,0.09923672295920127,0.045247299592617106,0.025001486751295748,0.015421070347892083,0.009575502596336452,0.005720206904749977,0.003242281961540237,0.00173680856231621,0.0008738528339073008,0.0003250994503880239,7.856737598978025,4.650943969003891,3.0122072060871705,1.8062483083413334,0.9597879948722574,0.500033487977672,0.2775996377087735,0.17477368591128262,0.11971112210120398,0.08288763575289339,0.055849035185837906,0.03611595932476899,0.022315728857257616,0.01321284251098984,0.007098150195055314
0.0,44.0,44.0,0.0,120.0,0.0,0.0,0.0,0.0,-107.0,0.0,-45.0,0.0,0.0,0.0,34.27253218749016,17.55503396713325,5.545482172113451,2.3491199297962497,1.2140130249487242,0.5781470472359536,0.23566773753806958,0.09558020407591225,0.04358313051787088,0.024128149024289024,0.014926349237873364,0.009299138277979256,0.005574004830692389,0.0031698460139966134,0.0017032547427647529,0.0008593651563428835,0.0003199253328930266,7.832737673060299,4.595498853295767,2.959841408630108,1.7671776573090896,0.9359000783118606,0.4866544027231218,0.270003475327985,0.17012665746633374,0.11673904798644602,0.08101473131070705,0.0547209458415067,0.035473179433549565,0.021970294511281352,0.013037059269922125,0.007018612861373711
0.0,45.0,45.0,0.0,120.0,0.0,0.0,0.0,0.0,-107.0,0.0,-45.0,0.0,0.0,0.0,34.27253218749016,17.55503396713325,5.516015678857887,2.3040509446403328,1.1815449814827663,0.559589459078942,0.22724859768946506,0.0920306684374811,0.0419816447752442,0.023289556079567227,0.014450287173809378,0.009032215923536598,0.005432224818918736,0.003099318451931635,0.0016704605536515275,0.0008451609953500652,0.0003148447322988146,7.806793322329797,4.537950714863303,2.9063591917431606,1.7278220350353124,0.9121706717175949,0.47352612991186227,0.26261536219937837,0.165622291842871,0.11385638313277303,0.07919382768625706,0.05362093680099431,0.034844493620765374,0.021631443511234208,0.012864163714199834,0.006940185436260033
0.0,46.0,46.0,0.0,120.0,0.0,0.0,0.0,0.0,-107.0,0.0,-45.0,0.0,0.0,0.0,34.27253218749016,17.55503396713325,5.484271249579389,2.257642159905799,1.1487130818224496,0.5410989660146097,0.2189789719090111,0.08858628107888011,0.04044044824226194,0.02248416948578009,0.013992081976971932,0.008774364795130142,0.005294712267890824,0.0030306406389456696,0.0016384056775184432,0.0008312338916995659,0.000309856079067064,7.7787599578664235,4.478239695095423,2.8517667889102714,1.6882039627224017,0.8886102400945776,0.46064663017140645,0.25542928620998023,0.16125555592045593,0.11105998490714729,0.07742322769266821,0.0525481829665593,0.03422953550026458,0.021299026342658747,0.012694099275258,0.00686285001583091
0.0,47.0,47.0,0.0,120.0,0.0,0.0,0.0,0.0,-107.0,0.0,-45.0,0.0,0.0,0.0,34.27253218749016,17.55503396713325,5.450093063715687,2.2098877466275595,1.1155458211581846,0.522694732793856,0.2108631826634373,0.0852453520151858,0.03895728154670105,0.021710532590451165,0.0135509708788143,0.008525230666516385,0.005161318722670105,0.0029637559994796572,0.0016070704230426026,0.0008175775603313331,0.0003049578290429634,7.748482151752633,4.416306456466952,2.7960743023976766,1.648348641394475,0.8652303089957543,0.4480143777417568,0.2484396084637386,0.1570216601316279,0.10834684416712874,0.07570129883681077,0.051501887468262474,0.03362794984139823,0.020972897506512243,0.012526810714540662,0.00678658904479816
0.0,48.0,48.0,0.0,120.0,0.0,0.0,0.0,0.0,-107.0,0.0,-45.0,0.0,0.0,0.0,34.27253218749016,17.55503396713325,5.413315502186008,2.1607859853032036,1.0820749014251263,0.5043969199216443,0.20290570151495732,0.08200631032431963,0.03753000786201358,0.020967265076977982,0.01312622829756074,0.008284474991279966,0.005031901594661528,0.0028986099342115153,0.001576435701988043,0.0008041858846593254,0.00030014846301097356,7.715792641401989,4.3520926609834225,2.739296110328556,1.6082840183907334,0.8420433935173699,0.4356282993804967,0.2416410301926938,0.1529160430242661,0.10571407847175779,0.0740264704509843,0.05048128053282582,0.03303939216395763,0.020652915388027795,0.01236224408468222,0.006711385307293246
0.0,49.0,49.0,0.0,120.0,0.0,0.0,0.0,0.0,-107.0,0.0,-45.0,0.0,0.0,0.0,34.27253218749016,17.55503396713325,5.373762502988573,2.110339887314808,1.0483353997686296,0.4862266316660216,0.19511109708655283,0.07886768012688504,0.03615660173550259,0.02025305791783441,0.01271716375519822,0.00805177411848444,0.004906323896176588,0.002835149739628695,0.0015464830072034717,0.0007910529111178674,0.00029542648682883034,7.680511220467059,4.285541542797163,2.6814513098172736,1.568040851236803,0.8190629250570138,0.4234877156371018,0.23502856173189274,0.14893435675521718,0.1031589256605347,0.07239723096936056,0.049485618406293404,0.03246352835122664,0.020338942131018858,0.012200346692164089,0.006637221917932898
0.0,50.0,50.0,0.0,120.0,0.0,0.0,0.0,0.0,-107.0,0.0,-45.0,0.0,0.0,0.0,34.27253218749016,17.55503396713325,5.331246880929982,2.058557887163694,1.0143659329001795,0.468205854445813,0.18748398291360216,0.07582805834320774,0.0348351388753356,0.019566668696406924,0.012323119925478337,0.007826818552637983,0.00478445398886393,0.002773324531518035,0.0015171943916018136,0.0007781728439262604,0.00029079043210908134,7.6424435052237865,4.216598589648459,2.622564196496616,1.5276527662023627,0.7963031748485055,0.4115922842103095,0.2285974934331071,0.14507245346577952,0.10067873778091642,0.07081212534084007,0.04851418232735522,0.031900034280131974,0.02003084351734208,0.01204106706136993,0.006564082313448523
0.0,51.0,51.0,0.0,120.0,0.0,0.0,0.0,0.0,-107.0,0.0,-45.0,0.0,0.0,0.0,34.27253218749016,17.55503396713325,5.285569616657955,2.0054546109747458,0.9802088131161294,0.450357384011822,0.18002896502432975,0.07288609413057308,0.033563786829294895,0.018906917271955464,0.011943470804232043,0.007609312255093298,0.004666165345153654,0.002713085172143922,0.0014885524480721618,0.0007655400400728967,0.0002862388572210243,7.601379565054348,4.145212349716066,2.562664780124998,1.4871563084876354,0.7737791733269002,0.3999419451491546,0.22234336840538726,0.1413263724927685,0.09827097534600471,0.06926975257058557,0.04756627754843102,0.03134859546755003,0.019728488851248963,0.011884354899976626,0.006491950245229611
0.0,52.0,52.0,0.0,120.0,0.0,0.0,0.0,0.0,-107.0,0.0,-45.0,0.0,0.0,0.0,34.27253218749016,17.55503396713325,5.236519123097387,1.9510517265367826,0.9459101908247638,0.4327047397992022,0.17275058916828123,0.0700404699238992,0.03234079649435855,0.018272681764035216,0.011577619993880944,0.007398971984201174,0.004551336321900344,0.0026543842008921043,0.0014605402902625833,0.0007531490044973655,0.00028177034811848725,7.557092405538336,4.071335382559936,2.5017893350582,1.4465909805642085,0.7515066244232584,0.3885368677041779,0.2162619569827718,0.1376923283718496,0.09593320190518928,0.06776876338301946,0.04664123240180963,0.030808906731894518,0.019431750848371784,0.01173016106561732,0.006420809773006809
0.0,53.0,53.0,0.0,120.0,0.0,0.0,0.0,0.0,-107.0,0.0,-45.0,0.0,0.0,0.0,34.27253218749016,17.55503396713325,5.183870501255108,1.895378879676736,0.9115201773466406,0.415272064810159,0.1656532876937343,0.06728988402108091,0.031164494401860386,0.01766289483441762,0.011224999094600138,0.007195526671748064,0.004439849945494707,0.002597175768182199,0.001433141534194495,0.0007409943854672018,0.0002773835183031702,7.509336292779475,3.994925375111581,2.43998098314386,1.4059992647260968,0.729501813947693,0.3773773986806202,0.21034923283117904,0.13416669959263866,0.09366307891154006,0.06630785799956175,0.04573839740834095,0.03028067186916702,0.019140505529114747,0.011578437533755547,0.006350645259601112
0.0,54.0,54.0,0.0,120.0,0.0,0.0,0.0,0.0,-107.0,0.0,-45.0,0.0,0.0,0.0,34.27253218749016,17.55503396713325,5.127384802575067,1.8384747208822743,0.8770929405162454,0.39808400939947786,0.15874132616097836,0.06463303467027669,0.030033275727977055,0.01707654024610267,0.010885066195084036,0.006998716833385123,0.004331593707746441,0.0025414155724581442,0.0014063402806520607,0.0007290709701345855,0.0002730770071997891,7.457844908080408,3.915946446104679,2.3772903049682768,1.3654266253870668,0.7077815112959106,0.36646401218986113,0.20460135061760257,0.13074601806768096,0.09145836087066389,0.06488578402483693,0.04485714442633738,0.029763603342704704,0.01885463211621657,0.011429137366710604,0.006281441366185828
0.0,55.0,55.0,0.0,120.0,0.0,0.0,0.0,0.0,-107.0,0.0,-45.0,0.0,0.0,0.0,34.27253218749016,17.55503396713325,5.066808333849275,1.780388019817055,0.8426867527935767,0.38116560439632435,0.15201874716599104,0.06206860641183847,0.02894559782700209,0.016512649695429236,0.010557304456713051,0.006808294010293574,0.0042264593721653585,0.00248706080000794,0.0013801210983324533,0.000717373680262918,0.00026884949428755613,7.402329279674965,3.8343707188052356,2.313776014706659,1.3249214440164447,0.6863628806738054,0.35579725662889916,0.1990146257140873,0.12742695930319692,0.0893168907317145,0.06350133444325437,0.0439968658363836,0.029257421986436973,0.01857401293618479,0.01128221468378125,0.006213183015883983
0.0,56.0,56.0,0.0,120.0,0.0,0.0,0.0,0.0,-107.0,0.0,-45.0,0.0,0.0,0.0,34.27253218749016,17.55503396713325,5.001872015510968,1.721178868595018,0.8083640050585265,0.36454211181714197,0.14548931546654248,0.05959525736791218,0.02789997457479584,0.0159702998496853,0.010241220789891934,0.0066240202400458395,0.004124342789813529,0.0024340700675518053,0.001354469007682956,0.0007058975681287025,0.0002646996847832916,7.342475681693196,3.750179944894041,2.249505501587316,1.2845350725280396,0.665263324593926,0.3453777175612346,0.19358551343564548,0.124206333130833,0.0872365956202543,0.06215334568497847,0.04315697376973505,0.028761856718628274,0.018298533324875688,0.011137624632434135,0.006145855464717943
0.0,57.0,57.0,0.0,120.0,0.0,0.0,0.0,0.0,-107.0,0.0,-45.0,0.0,0.0,0.0,34.27253218749016,17.55503396713325,4.932290827643636,1.6609200085339195,0.7741911869055956,0.34823882903822323,0.13915647416679386,0.057211605450169595,0.026894971631744247,0.015448609627069376,0.009936344595199476,0.006445667560496853,0.004025143722807511,0.0023824033677430313,0.0013293694653292152,0.0006946378125684173,0.00026062627863882194,7.27794316719204,3.6633676254356105,2.1845555396930285,1.2443216770347236,0.6445003882890555,0.3352059651504248,0.18831059184199758,0.12108107515979936,0.08521548270746561,0.06084069581611811,0.04233689936201911,0.028276644269452644,0.018028081536237684,0.01099532336047586,0.006079444249013869
0.0,58.0,58.0,0.0,120.0,0.0,0.0,0.0,0.0,-107.0,0.0,-45.0,0.0,0.0,0.0,34.27253218749016,17.55503396713325,4.857763481677446,1.5996981982948448,0.7402387530621348,0.3322809069812732,0.13302328792576407,0.05491621963465017,0.025929201707985707,0.01494673769584269,0.009642226595021489,0.006273017534539144,0.0039287656779428285,0.0023320220167031068,0.001304808349222229,0.0006835897151775294,0.00025662798873319904,7.208360964359008,3.573941371564434,2.1190129367619965,1.204338087251576,0.6240916357508988,0.3252825077858511,0.18318654530681808,0.1180482387735727,0.08325163533918808,0.059562302806340776,0.04153609204184904,0.027801528919074926,0.017762548654594975,0.01085526798919064,0.006013935157574628
0.0,59.0,59.0,0.0,120.0,0.0,0.0,0.0,0.0,-107.0,0.0,-45.0,0.0,0.0,0.0,34.27253218749016,17.55503396713325,4.777972353422755,1.537615654718661,0.7065809186958771,0.3166931353410403,0.12709239208616865,0.05270761152600334,0.025001320567906896,0.014463880154160502,0.0093584377330147,0.006105860800953304,0.003835115747878164,0.0022828886040061965,0.00128077194435094,0.0006727486966534798,0.00025270354450678396,7.133325742458804,3.4819255617608156,2.0529751120225788,1.1646436284270867,0.6040545038744013,0.31560775055953527,0.1782101489647189,0.11510498766995426,0.08134320940019607,0.058317122872882696,0.04075401885179966,0.02733626224590361,0.017501828510272942,0.010717416587393811,0.005949314230551489
0.0,60.0,60.0,0.0,120.0,0.0,0.0,0.0,0.0,-107.0,0.0,-45.0,0.0,0.0,0.0,34.27253218749016,17.55503396713325,4.692583826133574,1.47479152889972,0.673295350655762,0.3014997060962396,0.12136594402335751,0.05058422844800916,0.024110023513057594,0.013999268394590184,0.00908456813850706,0.005943996648613997,0.0037441044598805237,0.0022349669448550966,0.0012572469290123714,0.0006621102932693454,0.0002488517083981471,7.052398737803343,3.3873643892633867,1.98655062527592,1.1252998785262804,0.5844061548893783,0.3061819538967641,0.17337825465540554,0.11224858894383954,0.07948842987359202,0.05710414890573685,0.039990163797679744,0.026880602885108577,0.017245817598285616,0.010581728146359343,0.005885567751280098
0.0,61.0,61.0,0.0,120.0,0.0,0.0,0.0,0.0,-107.0,0.0,-45.0,0.0,0.0,0.0,34.27253218749016,17.55503396713325,4.601249233491791,1.4113633763027507,0.6404627301474013,0.28672394912582433,0.11584558339085275,0.04854444600478011,0.023254042784159816,0.013552167088721421,0.008820226149388535,0.005787232615078029,0.003655645630829997,0.0021882220346061796,0.0012342203615514909,0.000651670153484594,0.0002450713231549024,6.965103000834213,3.290325609587796,1.9198597556066808,1.0863701112766184,0.5651633984802845,0.29700517021495776,0.1686877892901826,0.10947640324059416,0.07768558830384042,0.055922408840002845,0.03924402724459596,0.02643431629480085,0.01699441499958742,0.010448162556106129,0.005822683221047725
0.0,62.0,62.0,0.0,120.0,0.0,0.0,0.0,0.0,-107.0,0.0,-45.0,0.0,0.0,0.0,34.27253218749016,17.55503396713325,4.5036065893189345,1.347488538945032,0.6081662042754924,0.27238807475518906,0.11053237509143544,0.04658656944775986,0.022432143739484493,0.013121872516100844,0.0085650373963002,0.005635384097775512,0.0035696562320656666,0.0021426200043478927,0.0012116796678385072,0.0006414240346493072,0.00024136129716483259,6.870920141431919,3.1909035769221497,1.853034398718746,1.0479195666565624,0.5463423257691543,0.28807726978352566,0.16413571407981412,0.10678588782862218,0.075933037879466,0.0547709645565725,0.03851512527040459,0.025997174538264316,0.016747522306577656,0.010316680580585531,0.005760646838848089
0.0,63.0,63.0,0.0,120.0,0.0,0.0,0.0,0.0,-107.0,0.0,-45.0,0.0,0.0,0.0,34.27253218749016,17.55503396713325,4.399283506357519,1.283345384779627,0.5764906554887462,0.25851286793254025,0.10542678127002399,0.044708828282824874,0.02164312339596605,0.012707710789247723,0.00831864394303107,0.005488273991795645,0.0034860562575440295,0.002098128079331245,0.0011896126289659555,0.0006313677998647317,0.00023772068734326934,6.769288103411654,3.089224028399495,1.7862184306175535,1.010014546957979,0.5279582790568276,0.27939786366109803,0.15971903408845217,0.104174585008012,0.07422919181116878,0.05364891029114876,0.037802989128283344,0.025568956066436485,0.016505043549567708,0.01018724383594904,0.00569944527394727
0.0,64.0,64.0,0.0,120.0,0.0,0.0,0.0,0.0,-107.0,0.0,-45.0,0.0,0.0,0.0,34.27253218749016,17.55503396713325,4.287901654027436,1.2191342564241043,0.545521806646454,0.24511738060602692,0.10052863226590077,0.04290937475190316,0.020885808736248075,0.012309036311629211,0.008080703467248734,0.005345732345442366,0.00340476859869661,0.0020547145389460193,0.0011680073694715816,0.0006214974149348953,0.0002341487541595753,6.659599328058099,2.9854487528578977,1.7195675966987976,0.9727217999364096,0.5100257018287193,0.270966265386836,0.1554347923077373,0.10164011611367718,0.07257252081016685,0.05255537129657025,0.037107164704480645,0.02514944551159845,0.01626688512640503,0.010059814768755651,0.005639065999117393
0.0,65.0,65.0,0.0,120.0,0.0,0.0,0.0,0.0,-107.0,0.0,-45.0,0.0,0.0,0.0,34.27253218749016,17.55503396713325,4.169083294302209,1.1550779803421827,0.515345151585034,0.23221862285611525,0.09583709953677075,0.04118628555370774,0.020159054999601026,0.01192523039086995,0.007850888490656923,0.005207596030417525,0.003325718925949527,0.0020123486781320507,0.0011468523460522958,0.0006118089454241082,0.00023064501542216045,6.541199907917307,2.8797802813904645,1.6532489754350987,0.9361079960582748,0.49255792971604867,0.2627814738055868,0.15128005669308195,0.0991801784722461,0.07096155020008434,0.05148950265775338,0.03642721198488992,0.024738433490377132,0.016032955734845755,0.009934356634499032,0.005579496915465478
0.0,66.0,66.0,0.0,120.0,0.0,0.0,0.0,0.0,-107.0,0.0,-45.0,0.0,0.0,0.0,34.27253218749016,17.55503396713325,4.042460615355835,1.0914217480985486,0.4860446938643197,0.21983125170811924,0.09135067904068651,0.03953756420610147,0.019461744493707824,0.011555699941196365,0.00762888565075253,0.005073708429063021,0.003248835575443975,0.001971000770486395,0.0011261363366634287,0.0006022985538174274,0.00022720934166889841,6.4133906115761645,2.772466795385883,1.58744011986094,0.9002390030122958,0.4755670177880297,0.25484214882670525,0.14725191341965005,0.09679254120998106,0.06939485749475717,0.05045048810579203,0.03576270455203077,0.02433571641344151,0.01580316630709937,0.009810833477044149,0.005520726416560218
0.0,67.0,67.0,0.0,120.0,0.0,0.0,0.0,0.0,-107.0,0.0,-45.0,0.0,0.0,0.0,34.27253218749016,17.55503396713325,3.9076887658239254,1.0284321303477364,0.45770153391632146,0.20796725325100562,0.08706718746294227,0.037961144552269004,0.01879278560124402,0.011199876336289138,0.007414394999914536,0.004943919139306436,0.0031740494405804775,0.0019306420329532094,0.0011058484300060778,0.0005929624967682249,0.0002238420674655305,6.275430606559433,2.6638070565787615,1.5223275604386615,0.86517912876013,0.4590635522202874,0.2471465958112361,0.14334746074083135,0.09447504142981318,0.067871070133846,0.049437538878524236,0.035113229104826976,0.023941096301931003,0.015577429946714233,0.009689210108701897,0.005462743318114586
0.0,68.0,68.0,0.0,120.0,0.0,0.0,0.0,0.0,-107.0,0.0,-45.0,0.0,0.0,0.0,34.27253218749016,17.55503396713325,3.7644640819832995,0.9663948977030935,0.43039221570728065,0.1966356895966198,0.08298376155579014,0.03645489500114827,0.01815111270081225,0.010857214169387047,0.007207129376408193,0.004818083687203974,0.0031012938696900224,0.0018912445918131372,0.0010859780153757697,0.0005837971224726521,0.00022054448116121496,6.126545677017645,2.5541539555952792,1.4581054113847018,0.8309900705650105,0.44305654834138036,0.23969273758616017,0.13956380613500852,0.09222558080552197,0.06638886326592275,0.048449892658111955,0.03447838499087244,0.02355438061261037,0.015355661867234584,0.00956945209093101,0.005405537351969375
0.0,69.0,69.0,0.0,120.0,0.0,0.0,0.0,0.0,-107.0,0.0,-45.0,0.0,0.0,0.0,34.27253218749016,17.55503396713325,3.6125487257542255,0.9056116410359609,0.40418693139293527,0.18584244914291528,0.07909686660142132,0.0350166274108164,0.01753568511186396,0.010527190351175001,0.007006813768133293,0.004696063259086717,0.0030305045681097618,0.00185278144992816,0.0010665147729443654,0.0005747988680851427,0.00021731901513970584,5.965942323388234,2.443917990365955,1.3949724992517283,0.7977300832991372,0.4275532592923419,0.23247811373320992,0.13589806178177094,0.09004212243891019,0.06494695775833675,0.047486812521401224,0.03385778376775739,0.023175382067175343,0.015137779333407271,0.009451525715624715,0.005349099044029292
0.0,70.0,70.0,0.0,120.0,0.0,0.0,0.0,0.0,-107.0,0.0,-45.0,0.0,0.0,0.0,34.27253218749016,17.55503396713325,3.4518044358570776,0.8463944935407648,0.3791477042246214,0.17559003709064375,0.07540232556834334,0.033644103468634355,0.016945487140432317,0.010209303152602048,0.006813184718288118,0.004577724446639607,0.0029616195042779796,0.001815226455511802,0.0010474486643051602,0.0005659642572445022,0.00021416994700546382,5.792831351875857,2.3335684028854535,1.3331292365454104,0.7654529659874368,0.4125590523974001,0.2254998744916762,0.13234734244134183,0.0879226880858002,0.06354411826411938,0.046547585952953906,0.03325104877800338,0.022803918488995576,0.014923701604116154,0.009335397986969555,0.005293420049212793
0.0,71.0,71.0,0.0,120.0,0.0,0.0,0.0,0.0,-107.0,0.0,-45.0,0.0,0.0,0.0,34.27253218749016,17.55503396713325,3.2822379177600904,0.7890589552978884,0.35532651352652533,0.16587743841025204,0.071895356280706,0.03233504299634781,0.016379528117245995,0.009903071337998047,0.0066259897560159734,0.0044629390044203,0.002894578820429967,0.001778554272041006,0.001028769923363622,0.0005572898976724845,0.00021110438364700567,5.6064653716684605,2.2236317055746095,1.272773656199071,0.7342070299798563,0.3980773151072005,0.21875478321020436,0.12890876198868964,0.08586535638060035,0.06217915124968928,0.045631523926939775,0.03265781473781965,0.022439812646272476,0.014713349877270632,0.009221036603742967,0.0052384942041877455
0.0,72.0,72.0,0.0,120.0,0.0,0.0,0.0,0.0,-107.0,0.0,-45.0,0.0,0.0,0.0,34.27253218749016,17.55503396713325,3.1040609895117655,0.7339146077238421,0.33276351264137305,0.15670005921859442,0.06857061846502724,0.03108713326770333,0.015836842667566842,0.009608033318066478,0.006444986860248204,0.00435158361777894,0.002829324747848398,0.001742740349254117,0.0010104690475510932,0.0005487724788582871,0.0002081336679454775,5.406195956969016,2.114686182847168,1.2140970433577276,0.7040341093788768,0.38410937731316447,0.2122392195680391,0.12557943506255367,0.0838682601346654,0.060850903359200174,0.044737959985825075,0.032077727349804394,0.022082892100135927,0.014506647236385744,0.009108409942310979,0.00518431810125371
0.0,73.0,73.0,0.0,120.0,0.0,0.0,0.0,0.0,-107.0,0.0,-45.0,0.0,0.0,0.0,34.27253218749016,17.55503396713325,2.917768629507076,0.6812537192934229,0.3114854904715874,0.14804976106814569,0.06542226963650744,0.029898038464371744,0.015316491593990308,0.009323746202997937,0.006269943975528609,0.004243539677250995,0.0027658015269747594,0.0017077608951330955,0.000992536789321869,0.0005404087698293723,0.00020527555801720042,5.191558583855093,2.007350948406053,1.1572796180450824,0.6749686330637192,0.3706544594785497,0.20594917493499854,0.12235648831555723,0.08192958151205952,0.059558260327060734,0.04386624927681543,0.03151044294394898,0.021732989057119113,0.01430351859858236,0.008997487040477387,0.005130890625987424
0.0,74.0,74.0,0.0,120.0,0.0,0.0,0.0,0.0,-107.0,0.0,-45.0,0.0,0.0,0.0,34.27253218749016,17.55503396713325,2.724237392910912,0.6313383135760461,0.29150456370363603,0.1399150055904695,0.062444029720030894,0.02876541130251848,0.014817561784324404,0.00904978518755584,0.006100638488421342,0.004138693075509428,0.0027039553297018544,0.0016735928490846516,0.0009749641479774933,0.000532195616955757,0.00020255845309553004,4.962397993853984,1.902270718052085,1.1024841103523986,0.6470368393274801,0.35770969939644076,0.1998802894738299,0.11923704722217507,0.08004755458731254,0.05830014454501074,0.04301576788131848,0.030955628096702884,0.02138994023057312,0.014103890665066746,0.008888237580754011,0.0050782180903141206
0.0,75.0,75.0,0.0,120.0,0.0,0.0,0.0,0.0,-107.0,0.0,-45.0,0.0,0.0,0.0,34.27253218749016,17.55503396713325,2.5248449540948896,0.5843857444837557,0.2728176770526739,0.1322810495632495,0.05962926623761171,0.02768690176820838,0.01433916719101024,0.008785742761979678,0.0059368567556370875,0.004036934011758479,0.002643734185449513,0.0016402138562117735,0.0009577423616942292,0.0005241299418438208,0.00020002890541622378,4.719043464089223,1.8000924750516323,1.0498509387323045,0.6202561568248144,0.34527017260394277,0.1940278681246315,0.11621824423381968,0.0782204621503334,0.05707551389194876,0.04218591196559311,0.030412959298228216,0.021053586703525817,0.013907691872597308,0.00878063187496738,0.005026318591789876
0.0,76.0,76.0,0.0,120.0,0.0,0.0,0.0,0.0,-107.0,0.0,-45.0,0.0,0.0,0.0,34.27253218749016,17.55503396713325,2.321606147809898,0.540555066318736,0.2554065317316233,0.12513031136712918,0.056971069073419374,0.026660168374603197,0.013880449685356568,0.008531227875674986,0.005778393670408623,0.003938156802815597,0.002585087911827333,0.0016076022422607285,0.0009408628998648058,0.0005162087393061574,0.00019776715605979123,4.462545507966145,1.7014364140171534,0.9994932870239377,0.5946348542529456,0.33332898183791854,0.1883869040271986,0.11329722316631441,0.07644663415905911,0.05588336030548653,0.04137609702941022,0.029882122624238994,0.020723773797589922,0.013714852346530783,0.008674640849091069,0.004975231623458507
0.0,77.0,77.0,0.0,120.0,0.0,0.0,0.0,0.0,-107.0,0.0,-45.0,0.0,0.0,0.0,34.27253218749016,17.55503396713325,2.1173139098095892,0.4999357865296186,0.2392383296883373,0.11844282457397945,0.05446232014486457,0.025682892187049198,0.013440579339557331,0.008285865157646786,0.005625052245645064,0.003842259705296757,0.00252796804895751,0.0015757369892762047,0.0009243174557409371,0.0005084290753765025,0.0001959222001425028,4.194978591410464,1.6068621451182359,0.9514928958136798,0.5701721479938249,0.32187735369325493,0.1829521069742953,0.110471146042772,0.07472444567472902,0.05472270854136224,0.040585757165915094,0.029362813426438743,0.020400350945707406,0.013525303855318499,0.008570236028578246,0.004925042223504941
0.0,78.0,78.0,0.0,120.0,0.0,0.0,0.0,0.0,-107.0,0.0,-45.0,0.0,0.0,0.0,34.27253218749016,17.55503396713325,1.9156597411249825,0.46254157629581016,0.2242673666412931,0.11219673734499246,0.05209577421088199,0.024752788236751797,0.01301875521672268,0.008049294054999281,0.005476643221796597,0.003749144751189444,0.002472327795956145,0.001544597712365541,0.0009080979392565747,0.0005007880853988773,0.00019479886368594648,3.9197931098124275,1.5168346327758746,0.9058982078970309,0.5468581513988214,0.31090484163050663,0.17771794428949853,0.10773719338161233,0.07305231683481339,0.053592614601960825,0.03981434443175448,0.02885473602522312,0.020083171570395145,0.013338979766587867,0.008467389523825771,0.004875941316819825
