Line_number,Fiducial,Easting,Northing,Height,Elevation,tx_pitch,tx_roll,tx_yaw,txrx_dx,txrx_dy,txrx_dz,rx_pitch,rx_roll,rx_yaw,PX,PZ,S0X_time_1.086e-05,S0X_time_3.256e-05,S0X_time_5.426e-05,S0X_time_8.680e-05,S0X_time_1.411e-04,S0X_time_2.279e-04,S0X_time_3.689e-04,S0X_time_5.860e-04,S0X_time_9.115e-04,S0X_time_1.411e-03,S0X_time_2.192e-03,S0X_time_3.418e-03,S0X_time_5.339e-03,S0X_time_8.301e-03,S0X_time_1.338e-02,S0Z_time_1.086e-05,S0Z_time_3.256e-05,S0Z_time_5.426e-05,S0Z_time_8.680e-05,S0Z_time_1.411e-04,S0Z_time_2.279e-04,S0Z_time_3.689e-04,S0Z_time_5.860e-04,S0Z_time_9.115e-04,S0Z_time_1.411e-03,S0Z_time_2.192e-03,S0Z_time_3.418e-03,S0Z_time_5.339e-03,S0Z_time_8.301e-03,S0Z_time_1.338e-02
0.0,0.0,0.0,0.0,120.0,0.0,0.0,0.0,0.0,-107.0,0.0,-45.0,0.0,0.0,0.0,34.27253218749016,17.55503396713325,10.34970834608349,9.626453135099451,9.27629428046227,8.679362702046278,8.017537107799539,7.238481793808474,6.515468174151011,5.503247762617037,4.519258500855439,3.5603221201867936,2.5057394334979763,1.6165305563931327,0.8414385813063989,0.3860334429619361,0.16321021857909898,10.915471884162695,10.544115990891472,10.209912876936173,9.853865116440316,9.428237721335378,8.887137237578889,8.30043113954375,7.5521360106359445,6.743771579207516,5.790994380402995,4.610908874587598,3.339465221787308,2.154123460564556,1.2303002616810517,0.5333201047943003
0.0,1.0,1.0,0.0,120.0,0.0,0.0,0.0,0.0,-107.0,0.0,-45.0,0.0,0.0,0.0,34.27253218749016,17.55503396713325,10.34913052222599,9.6348198968908,9.224583068758603,8.677978948896572,7.973807738732238,7.25765490052558,6.347949680970011,5.519622101298754,4.507180145049671,3.540440517454045,2.568920620090596,1.5931078363528302,0.8549560080026826,0.40034755586918314,0.2133766138741165,10.991971341439577,10.554339842651077,10.22644377346446,9.928336908265708,9.417529806635512,8.899229164810016,8.259695107434355,7.595754880754201,6.733458237420045,5.766522190039988,4.563608640775872,3.329987027347274,2.0957281945686947,1.1616216668409334,0.5264936154093542
0.0,2.0,2.0,0.0,120.0,0.0,0.0,0.0,0.0,-107.0,0.0,-45.0,0.0,0.0,0.0,34.27253218749016,17.55503396713325,10.381453442451104,9.70852147913974,9.140334932696856,8.626763392397589,7.942166686566805,7.288251219558256,6.365204145656389,5.514516523204759,4.5424745831094135,3.606331987829996,2.548271326999539,1.6253356193460011,0.7982674893584536,0.4022484218843298,0.13241570194592192,10.958681804886037,10.549056870030544,10.207919896104096,9.937232017234315,9.436541697910815,8.988933885642423,8.315611129145745,7.570302654214045,6.764564955713555,5.831333376397158,4.570678280391426,3.308969691734,2.062189360888712,1.1364579064903886,0.5535563537997412
0.0,3.0,3.0,0.0,120.0,0.0,0.0,0.0,0.0,-107.0,0.0,-45.0,0.0,0.0,0.0,34.27253218749016,17.55503396713325,10.358906563447201,9.603110243035998,9.14346456351596,8.64392234916186,7.956377978447036,7.260784028094357,6.419846026098755,5.514673045731056,4.574647341799908,3.5298628297816896,2.5074379941147695,1.517999044599794,0.7903138263200342,0.3486250819733194,0.16570232923725375,10.923695470858245,10.470617631086455,10.255913319738646,9.878528584002702,9.537742846311733,8.924697449664059,8.305749912699689,7.532226797905139,6.749415176132672,5.771135791390653,4.5980189706950165,3.3107147787572617,2.0865637908888433,1.1899974731340195,0.5382820761629471
0.0,4.0,4.0,0.0,120.0,0.0,0.0,0.0,0.0,-107.0,0.0,-45.0,0.0,0.0,0.0,34.27253218749016,17.55503396713325,10.424057311520247,9.656963605074038,9.183709712307417,8.651195662079726,8.039525690281817,7.301852610523891,6.445176419164673,5.506025852139689,4.557366221513312,3.5228031419846797,2.5068442836987614,1.4707031382128524,0.7469841893188667,0.34546473468928673,0.16521560200540084,10.985576496941114,10.515661645765608,10.220092404064049,9.899983832223029,9.498860723334854,8.995811518284292,8.332351125420713,7.546812276682399,6.758220690595591,5.765175998943325,4.568863855072884,3.2740190218076823,2.0580670852422482,1.1209945760962254,0.5613601590045195
0.0,5.0,5.0,0.0,120.0,0.0,0.0,0.0,0.0,-107.0,0.0,-45.0,0.0,0.0,0.0,34.27253218749016,17.55503396713325,10.334726633633357,9.72477809098146,9.180853636992854,8.673735269729816,8.051709282267959,7.31801853537382,6.384074734448905,5.516035662586243,4.534950629991285,3.4587932655002818,2.425710708684522,1.5029847533617104,0.8336331585883923,0.3146389836373574,0.1273133235814645,10.951915446859214,10.547686542532963,10.235072536341942,9.898023749290779,9.496518138078066,8.95295381243328,8.345524444431707,7.538039564607803,6.71005508001176,5.752742426351564,4.519058034216404,3.277235568353557,2.038666128632297,1.1027293366935214,0.49072907144440925
0.0,6.0,6.0,0.0,120.0,0.0,0.0,0.0,0.0,-107.0,0.0,-45.0,0.0,0.0,0.0,34.27253218749016,17.55503396713325,10.46312251143649,9.678995057919272,9.236798705010875,8.623284694162932,8.005519068877835,7.249128239968766,6.3360098925134105,5.509004700101689,4.546214643621031,3.4418534916671564,2.418272047231703,1.5036843403749598,0.7958099103390621,0.329171797465378,0.11668975489123512,11.026462967526363,10.534356628485538,10.279242136553284,9.890926429961308,9.455896615774545,8.9744032091649,8.352621150891894,7.604699998591117,6.801413455794836,5.783194314577602,4.546706582945956,3.2286712856567883,2.0269604438902276,1.107589069208224,0.4966854082210614
0.0,7.0,7.0,0.0,120.0,0.0,0.0,0.0,0.0,-107.0,0.0,-45.0,0.0,0.0,0.0,34.27253218749016,17.55503396713325,10.417997389511065,9.69230305578093,9.168866177158364,8.595806510616123,7.952523950960126,7.28371292237877,6.4024974588596155,5.5063281224682115,4.505598832207118,3.4849393717011643,2.4388375746255795,1.4855635129763562,0.7808686656981341,0.4228987072845252,0.07971239256025597,10.966479350569589,10.529010094648003,10.29481180346643,9.92720987280653,9.533944289486977,8.974011925518928,8.358879227638244,7.640700320936985,6.739022054893964,5.752219733313143,4.490549718489547,3.205404819962869,1.9948498391593106,1.08087723950956,0.49847787558819123
0.0,8.0,8.0,0.0,120.0,0.0,0.0,0.0,0.0,-107.0,0.0,-45.0,0.0,0.0,0.0,34.27253218749016,17.55503396713325,10.418926964634537,9.667941369162968,9.227687395660087,8.75160450615252,7.980254571002243,7.304932163279402,6.456374302036687,5.48042476379473,4.545174965638368,3.4645784793735297,2.4290587133334323,1.4588767664200835,0.7043749386624472,0.34843994501935804,0.17916590054109272,10.937973796500454,10.522163683899237,10.303959977057744,9.89428779741859,9.457090959047063,8.962053133178571,8.411309835201319,7.599414643510166,6.7153733151926245,5.7263866120965785,4.480907177669554,3.1948112622999507,1.979459436894543,1.037206452314568,0.4802712547401113
0.0,9.0,9.0,0.0,120.0,0.0,0.0,0.0,0.0,-107.0,0.0,-45.0,0.0,0.0,0.0,34.27253218749016,17.55503396713325,10.338873643454898,9.648275364875614,9.246005428309507,8.656893174847626,7.948488660708387,7.310501756970427,6.352633548097584,5.533577065325606,4.539559959316742,3.446804763460133,2.442924310557903,1.5029899958622182,0.7111467880835459,0.3153507892811863,0.09958215410037227,11.053298148655314,10.588700478751312,10.20521335291026,9.90457757560227,9.489470172497368,8.954755772796627,8.32727050161802,7.638242614153007,6.783188248529807,5.700828683807912,4.47970539364673,3.119194177485792,1.9747977485543493,1.0658802792567108,0.4572878135529257
0.0,10.0,10.0,0.0,120.0,0.0,0.0,0.0,0.0,-107.0,0.0,-45.0,0.0,0.0,0.0,34.27253218749016,17.55503396713325,10.368108310652218,9.617802708135489,9.229734514796593,8.707303420323509,8.038297794256,7.26683804986623,6.433750610065174,5.482220514557069,4.468951426714877,3.5314770628019314,2.442499511942206,1.4748517354289596,0.6795840561147811,0.3291261089613181,0.13177608871080457,10.992417805305038,10.551955809973636,10.305973573379225,9.918193690976368,9.538176116029547,8.993599108249484,8.31752527509966,7.573434676079452,6.733515446296468,5.736099647353331,4.461464588337389,3.1250242636069907,1.9357872246336338,0.9896873578956069,0.4933627998394987
0.0,11.0,11.0,0.0,120.0,0.0,0.0,0.0,0.0,-107.0,0.0,-45.0,0.0,0.0,0.0,34.27253218749016,17.55503396713325,10.410918535258444,9.636797369704253,9.226283112763483,8.703330198699776,7.989656046760045,7.307375468221673,6.411809414569396,5.444511266453285,4.527210667240161,3.426324639011777,2.313474040913816,1.388539134219361,0.7083218704852128,0.3146749464941382,0.10936618577679195,11.01351799631187,10.605940447570735,10.317822985628103,9.971189379260093,9.560324110132335,8.962830257142183,8.354697643219128,7.630369918162815,6.774042187769996,5.711131927288896,4.4065677055416295,3.1172979717671887,1.8765090828956823,1.0453386201036188,0.4642671396091756
0.0,12.0,12.0,0.0,120.0,0.0,0.0,0.0,0.0,-107.0,0.0,-45.0,0.0,0.0,0.0,34.27253218749016,17.55503396713325,10.469726449202513,9.671009511792764,9.199411791627615,8.744079654406177,8.042331710763635,7.240691207825841,6.372065278715579,5.566519430177129,4.547319879885322,3.3399180508164847,2.442468141512781,1.3791483384476035,0.7650459313670986,0.36608108353510704,0.0869463057424943,11.01189124155467,10.58494475287141,10.246795952731382,9.914803834884307,9.507086198793127,9.017401235771032,8.413050664658197,7.676899231702067,6.806578231387282,5.683734080115144,4.389100040024987,3.0438712390538303,1.9013665380952924,1.0181819902238687,0.40469406205678576
0.0,13.0,13.0,0.0,120.0,0.0,0.0,0.0,0.0,-107.0,0.0,-45.0,0.0,0.0,0.0,34.27253218749016,17.55503396713325,10.446799544234151,9.65100396331428,9.222523715589864,8.628275511116954,7.953916125201448,7.280123347999728,6.479324856155927,5.566917201827362,4.528470676659484,3.4115270013464425,2.3262488379545245,1.3973938436698021,0.6765079000224011,0.261186270146452,0.09084237272463501,11.061546683849988,10.601720790712607,10.341676579581298,9.96794246989563,9.551509955379428,9.002692075083228,8.418574904193129,7.589369710554884,6.751202765062524,5.692588366209113,4.361070230377703,3.046501487168345,1.8544318392187646,1.03511355595819,0.44951652152661264
0.0,14.0,14.0,0.0,120.0,0.0,0.0,0.0,0.0,-107.0,0.0,-45.0,0.0,0.0,0.0,34.27253218749016,17.55503396713325,10.371684690048331,9.800184918826382,9.117740986834983,8.7005678614086,8.138706274939617,7.284993771065452,6.3697719442483,5.524047793902321,4.536288743606259,3.410927065174554,2.3586538474277186,1.3914725969207435,0.6766289927808105,0.3155599132363144,0.12472760216637097,11.048606106194077,10.573257078300045,10.268751905866424,9.958580728979465,9.580903066243078,9.055419110998148,8.402568835644688,7.654895242859914,6.795786624329699,5.665504404194338,4.389504237604764,3.057695039299767,1.8185607886696518,0.9793679377995635,0.44403703355663393
0.0,15.0,15.0,0.0,120.0,0.0,0.0,0.0,0.0,-107.0,0.0,-45.0,0.0,0.0,0.0,34.27253218749016,17.55503396713325,10.426238012115148,9.625765734650834,9.17459832509398,8.683843931406333,8.045030666051453,7.317864380354241,6.432627896950265,5.4788121858863175,4.599522984368998,3.446775234331249,2.3230022601803144,1.3635939828406958,0.6410607495944237,0.20878833515857043,0.08191582152232652,11.038983335963229,10.600887336799865,10.343327614199966,9.936468600659857,9.565708021942445,9.01341777243608,8.429542932003118,7.649146030940978,6.80973837576635,5.660386131073497,4.384510430583594,2.9838063420264342,1.8219464317325327,0.9737815606255493,0.3880935757619327
0.0,16.0,16.0,0.0,120.0,0.0,0.0,0.0,0.0,-107.0,0.0,-45.0,0.0,0.0,0.0,34.27253218749016,17.55503396713325,10.386838626661733,9.688621698249623,9.167744158213852,8.662436695230475,8.00720853675868,7.231189072059886,6.429501431501546,5.502256943525105,4.4559681327027505,3.383019069312845,2.2199164494832124,1.2834959848894298,0.6136232481591672,0.25574411731112195,0.06438045926833104,11.052574588928158,10.57623761702594,10.341350534469365,9.972495314228135,9.613701698246745,9.034906673688122,8.413397789230421,7.650683589073621,6.74037069897095,5.620715432273538,4.310594212601394,2.9818298009113646,1.775163481556293,0.9239778058682971,0.3932842777660921
0.0,17.0,17.0,0.0,120.0,0.0,0.0,0.0,0.0,-107.0,0.0,-45.0,0.0,0.0,0.0,34.27253218749016,17.55503396713325,10.408200859357727,9.631363427786752,9.225513356713922,8.776170600515375,8.079423786202517,7.211078583992861,6.433902741463091,5.5154584961719255,4.477150336402073,3.420489653720993,2.246147637580191,1.268009445540258,0.6955364748030517,0.26636982846926194,0.07688617317594093,11.018911962537649,10.644084364349634,10.36792055870132,9.986157845412901,9.547943933272634,9.033122961108347,8.36796120634281,7.687698370956421,6.748319997815153,5.627168694119559,4.341632556517188,2.9167984956623387,1.7389075598782033,0.9049567477742745,0.40975614215859457
0.0,18.0,18.0,0.0,120.0,0.0,0.0,0.0,0.0,-107.0,0.0,-45.0,0.0,0.0,0.0,34.27253218749016,17.55503396713325,10.491221605122231,9.718360248681261,9.237710347004532,8.707478837902716,7.914988973712605,7.273544959370535,6.402794589242788,5.545187422714716,4.4459216080123936,3.4324372244831456,2.217469660738895,1.2454424607088161,0.6710630541241387,0.2583185043310981,0.09063197704635628,11.092630436865639,10.61501506603279,10.310851619939589,10.024038493661212,9.562771231729963,9.03737320890507,8.392744974851718,7.6524544330807815,6.7262377188236,5.632768261721331,4.2730541452628374,2.9116088843371903,1.6901015867870537,0.9061416676614428,0.3922478756858824
0.0,19.0,19.0,0.0,120.0,0.0,0.0,0.0,0.0,-107.0,0.0,-45.0,0.0,0.0,0.0,34.27253218749016,17.55503396713325,10.458921121123796,9.746753158485769,9.22357830378045,8.713488386355104,8.054864047824355,7.271255692346128,6.427900667467978,5.482540626662088,4.497761638103839,3.297994445223886,2.1396725246002126,1.295105792995224,0.6335159746833107,0.2276470105362691,0.02628462888167893,11.031045312468088,10.654701479401357,10.340227032983472,10.04310347597231,9.55972619992241,9.04757077280216,8.403784766641767,7.665017385962805,6.767303183097523,5.611482436909096,4.292543680195103,2.8703260534348605,1.7209819245359759,0.8711781961321526,0.32887897911155306
0.0,20.0,20.0,0.0,120.0,0.0,0.0,0.0,0.0,-107.0,0.0,-45.0,0.0,0.0,0.0,34.27253218749016,17.55503396713325,10.515253487978189,9.668881358927525,9.20095559401352,8.709400365594155,7.957142638383765,7.333871716658703,6.469929109629685,5.489246622608111,4.4654166965063835,3.303387905692898,2.2136418958160724,1.271301850144978,0.5972363163515947,0.2872626366888153,0.03882655351835913,11.041589288755425,10.558816477377865,10.367645167575596,10.010475291669216,9.560484372822879,9.082311974527403,8.416633945553542,7.664080835422015,6.752739124089814,5.59023812585157,4.258998822044757,2.856863022342886,1.647305002351399,0.8330563513227942,0.32905192315697035
0.0,21.0,21.0,0.0,120.0,0.0,0.0,0.0,0.0,-107.0,0.0,-45.0,0.0,0.0,0.0,34.27253218749016,17.55503396713325,10.407382205252906,9.728048503204228,9.14126105363441,8.666025510634244,8.069408299865982,7.330392759601233,6.439818267106773,5.503756471640697,4.517100782805848,3.3248654977665586,2.1296099639773196,1.1639681860870696,0.5878547059894527,0.25887704324557853,0.05678314795240443,11.100481404523693,10.639400400053422,10.299396648330074,10.036874041209948,9.562414072090975,9.091055120040044,8.455889816296729,7.672753925591245,6.765208319883423,5.565410356983549,4.19625339919452,2.81770914656798,1.6400821275171333,0.8729416554181864,0.36296709350158624
0.0,22.0,22.0,0.0,120.0,0.0,0.0,0.0,0.0,-107.0,0.0,-45.0,0.0,0.0,0.0,34.27253218749016,17.55503396713325,10.550826294753497,9.625517127448402,9.213888328157472,8.661782277964583,8.074870364308016,7.289883224995875,6.448139630280818,5.460727222750481,4.431944237647455,3.2488273651598956,2.1453138369176434,1.2116568336241045,0.566191856396733,0.24305766033308693,0.09365684063045152,11.072436910079626,10.667373026795527,10.37207422294567,10.062235292413106,9.601450932906687,9.096422166120053,8.415102360102725,7.62343335787628,6.716849443195712,5.535144008862873,4.139676095916442,2.724489002534099,1.6612821030211735,0.8256701380996759,0.34659614643616565
0.0,23.0,23.0,0.0,120.0,0.0,0.0,0.0,0.0,-107.0,0.0,-45.0,0.0,0.0,0.0,34.27253218749016,17.55503396713325,10.50064307472002,9.617699029314831,9.228874543994873,8.689753699594442,8.097871338879957,7.279584978975076,6.3626765485743,5.5030943617857115,4.331255525453091,3.202004474613828,2.1356418364338294,1.215349255383566,0.5576066427497239,0.20112057915984627,-0.005511768427398492,11.077575935536201,10.624675716672238,10.353779284771061,10.004459420073758,9.588988799577612,9.130517606152512,8.367221855907784,7.596137545889372,6.715021386167804,5.496897200135668,4.096626146700726,2.7053674009402613,1.582227170788551,0.7987517107267901,0.3451799188908308
0.0,24.0,24.0,0.0,120.0,0.0,0.0,0.0,0.0,-107.0,0.0,-45.0,0.0,0.0,0.0,34.27253218749016,17.55503396713325,10.491312686172929,9.666346073296488,9.21808576890792,8.68736196507018,8.044393266340816,7.288390441917878,6.381635888025567,5.4716234324418185,4.396439411818683,3.2223454222672205,2.1163734980018867,1.1743392449536696,0.4669557119870223,0.17273637339804734,0.10014781623925624,11.083842080539505,10.667521334245542,10.360781698402734,10.075249440323953,9.61526287091061,9.090921838699836,8.401146540202584,7.612560957903529,6.678656572045643,5.505879115628021,4.069268698583731,2.732566679094799,1.5351549359497079,0.7825787143795234,0.30856581576697606
0.0,25.0,25.0,0.0,120.0,0.0,0.0,0.0,0.0,-107.0,0.0,-45.0,0.0,0.0,0.0,34.27253218749016,17.55503396713325,10.452809070108371,9.750541759693299,9.258462150859554,8.767462390411676,8.016270554812586,7.251007912437182,6.380957674905121,5.445773319942145,4.317073441249078,3.156272453671228,2.0237361546491996,1.2464966184070563,0.5264942290139735,0.19881993268286383,0.038269020169471576,11.070492800470873,10.665686843949482,10.345052207895336,9.997249967553042,9.568579705617784,9.143587432365685,8.429119465517505,7.610341380964138,6.667092066105125,5.472681031160749,4.051939489647226,2.635608345626053,1.5162839585212171,0.741473103260077,0.33130025172354344
0.0,26.0,26.0,0.0,120.0,0.0,0.0,0.0,0.0,-107.0,0.0,-45.0,0.0,0.0,0.0,34.27253218749016,17.55503396713325,10.500640826630683,9.699565950298432,9.133096099168265,8.685325573250267,8.053437256791398,7.2776226307882945,6.41072467591392,5.462784185573442,4.373756413557627,3.210929379931453,1.9954059460377003,1.0942534229014291,0.4990536256188881,0.20369207744582415,0.07753215690282814,11.113170645752176,10.655476156470002,10.407231202295128,10.081693757466603,9.67045038493363,9.126953531496017,8.387334827285395,7.633267124086745,6.662756455962009,5.431936165606554,3.9827800302554133,2.6072358929641153,1.4837306899435065,0.7455784786692304,0.2866252832833937
0.0,27.0,27.0,0.0,120.0,0.0,0.0,0.0,0.0,-107.0,0.0,-45.0,0.0,0.0,0.0,34.27253218749016,17.55503396713325,10.433169083844675,9.657230177366776,9.239866912000776,8.692107386668608,8.1284502502663,7.282916825370547,6.384583883929864,5.41630834162375,4.311854987554609,3.2110195687368983,2.0450071979527413,1.090868628587951,0.4851143043742971,0.10663180046620825,0.028238632782104443,11.11609216176612,10.660792789044793,10.443865423877687,10.083739459924137,9.6356605664698,9.130482878819146,8.422074145014514,7.695145870158112,6.7064656412951305,5.392776700323307,3.989327309872733,2.579742052540873,1.4446113734014852,0.7276006613387195,0.3151484199832232
0.0,28.0,28.0,0.0,120.0,0.0,0.0,0.0,0.0,-107.0,0.0,-45.0,0.0,0.0,0.0,34.27253218749016,17.55503396713325,10.513637061479907,9.776415388151635,9.16557098205186,8.681760540265572,8.0478549800959,7.304196507113941,6.333798678202438,5.42655657248682,4.379866725953074,3.0380505071173762,1.957221223063689,1.0444444502876773,0.4891683989409804,0.1698502884784209,0.025768976302486556,11.139809234776447,10.682811707702871,10.431453528321702,10.080017893941829,9.65831713065484,9.146652986016994,8.411290660014238,7.666248444622568,6.6326521730032155,5.339523592419918,3.9277422639192974,2.5247782339413596,1.4131697776909145,0.6907046225716065,0.2726998898832643
0.0,29.0,29.0,0.0,120.0,0.0,0.0,0.0,0.0,-107.0,0.0,-45.0,0.0,0.0,0.0,34.27253218749016,17.55503396713325,10.51796215366363,9.67159789647621,9.211338626866848,8.66297041331716,8.08623667140797,7.327303913926883,6.400119184589835,5.371126108244139,4.275636803910798,3.0475109174568376,1.954914331988335,0.9600790663560538,0.4428979063664086,0.23884738204695993,0.07178032093707001,11.092559252179532,10.682978253571866,10.427152610587731,10.098735928555891,9.612737174211567,9.144587588762317,8.448620090204614,7.6035027104374695,6.63458389890388,5.329264143442282,3.8896438380425824,2.496416367075018,1.3978201161316297,0.6820249396529962,0.2487281924494715
0.0,30.0,30.0,0.0,120.0,0.0,0.0,0.0,0.0,-107.0,0.0,-45.0,0.0,0.0,0.0,34.27253218749016,17.55503396713325,10.409736745537316,9.65229856914656,9.294745417930752,8.662920890059354,8.083128812711871,7.36178261871634,6.391165777096604,5.404126627778476,4.221831989453877,3.039291285438103,1.8796428517812485,1.0372342934141447,0.42247192893028346,0.16126567437898812,0.11590922761613333,11.102411234445631,10.735476114309076,10.404876943964995,10.0903308360495,9.642203499224928,9.135849745543423,8.479322974124122,7.6204689501259555,6.571584924413246,5.27012558808241,3.83716862432572,2.4493542133924886,1.3593195222882384,0.6356827377234099,0.2623620474837005
0.0,31.0,31.0,0.0,120.0,0.0,0.0,0.0,0.0,-107.0,0.0,-45.0,0.0,0.0,0.0,34.27253218749016,17.55503396713325,10.43590717866308,9.698898084622009,9.278071007638772,8.699938653773193,8.034723271855652,7.314221046252784,6.479702558777453,5.406247367544173,4.276910247560577,2.9461468788120864,1.8212114506783825,0.9398176687848706,0.4738698187181386,0.11072257690992399,0.07351680665146457,11.14555323898344,10.710529523253328,10.448757143481233,10.108147159120003,9.714422796356335,9.104537496071567,8.51608066745499,7.61525493971941,6.554778260907612,5.267490736936338,3.7775626992311127,2.422975752214546,1.3221432278610303,0.6464190618462226,0.2735176384148624
0.0,32.0,32.0,0.0,120.0,0.0,0.0,0.0,0.0,-107.0,0.0,-45.0,0.0,0.0,0.0,34.27253218749016,17.55503396713325,10.507807627844644,9.666356697734516,9.207260076557155,8.747093589291403,8.109175654935747,7.351473004440445,6.397195739985847,5.368604743244335,4.110657438566289,2.960262203997215,1.7913633836001561,0.9758181432823853,0.35318967407475294,0.12774985458188742,0.046334584486921765,11.145773074833784,10.719761652619397,10.387815190620216,10.12373084436803,9.691210617652047,9.146015089316382,8.47238400274974,7.598478588063295,6.491756795492978,5.219967147588292,3.8161895630214233,2.3943925567354194,1.2924875065679544,0.6180711151018407,0.27414972303660595
0.0,33.0,33.0,0.0,120.0,0.0,0.0,0.0,0.0,-107.0,0.0,-45.0,0.0,0.0,0.0,34.27253218749016,17.55503396713325,10.493917907260503,9.656744097416988,9.204191381265602,8.740334672416108,8.051571702371,7.3374301464244756,6.450376712454224,5.291133283590455,4.162594772019281,2.9470182330589165,1.819513285421622,0.9359127067280404,0.4274167663289138,0.1841182279559391,0.028759011990911347,11.170853538779173,10.697312178006282,10.414862577178958,10.10244847987234,9.670744159715337,9.158586647189795,8.477783921252293,7.6006676515654705,6.542641930089124,5.158967680249202,3.743113425723456,2.352491430517169,1.257389121206178,0.5619083026374488,0.25893322462687324
0.0,34.0,34.0,0.0,120.0,0.0,0.0,0.0,0.0,-107.0,0.0,-45.0,0.0,0.0,0.0,34.27253218749016,17.55503396713325,10.492189892501589,9.680579128738838,9.217227326924922,8.64180496199876,8.055714213468208,7.299595106437634,6.385628623107691,5.300168269064215,4.111055074892118,2.954872871757297,1.6980994442355328,0.80812225507961,0.3450368297585325,0.15213003712446102,0.075086544595943,11.130931267509887,10.776729626808873,10.438121278379567,10.098957091067245,9.65933298961415,9.153811682685292,8.482451891175453,7.576920152420048,6.486429356735092,5.091355209854498,3.656271701143571,2.326891545204781,1.2634636658081424,0.6087488395601754,0.21391446861543517
0.0,35.0,35.0,0.0,120.0,0.0,0.0,0.0,0.0,-107.0,0.0,-45.0,0.0,0.0,0.0,34.27253218749016,17.55503396713325,10.388021002544821,9.668336948066125,9.192608921371667,8.715757927169253,8.02150175138318,7.233365124291092,6.469792623164544,5.331557248011526,4.173501072275702,2.801887037275464,1.7552366984103176,0.8320419087752269,0.35873201642564045,0.10531460224844419,0.014634886754397076,11.211914023052604,10.70356344300357,10.447408869389843,10.126153897069184,9.643768114061354,9.102399190216369,8.48170899446946,7.561922599597648,6.440470549923643,5.093257037130555,3.592758812049248,2.206395079024017,1.2113791800607934,0.5602428023735909,0.21877218337392954
0.0,36.0,36.0,0.0,120.0,0.0,0.0,0.0,0.0,-107.0,0.0,-45.0,0.0,0.0,0.0,34.27253218749016,17.55503396713325,10.497813120931239,9.73549569670713,9.25255832898237,8.760265176500715,8.151358040571308,7.195611759385299,6.3676217630329734,5.334975102540652,4.044660329327637,2.819341315850588,1.7065118448282146,0.8343350906286724,0.36154588736971277,0.10776722182614179,0.02170416936928458,11.167861943526713,10.73566522062866,10.406213992910075,10.091444722018847,9.678928358567127,9.13588462784595,8.461419736872733,7.533470678522766,6.398785074160973,5.047875576197872,3.5376601767784623,2.149941378102735,1.1512320302870456,0.5480332535224409,0.2039911971490298
0.0,37.0,37.0,0.0,120.0,0.0,0.0,0.0,0.0,-107.0,0.0,-45.0,0.0,0.0,0.0,34.27253218749016,17.55503396713325,10.370740846308216,9.716042198462759,9.122869430625519,8.718213423144848,8.051031505892132,7.315541908129582,6.41544462806757,5.268567985923941,4.052654325322467,2.75779584234499,1.6190531153654792,0.8579488120952181,0.3069671593730298,0.10446141555478494,0.08051906784872792,11.172574738824991,10.773161876287341,10.442392693005788,10.04640495888276,9.674241143441943,9.18237060385342,8.443336177851869,7.5719940541365105,6.3711117256538135,4.976807055943012,3.538187977856299,2.1070382097845792,1.1796974871286303,0.49186185823314943,0.17402750436361336
0.0,38.0,38.0,0.0,120.0,0.0,0.0,0.0,0.0,-107.0,0.0,-45.0,0.0,0.0,0.0,34.27253218749016,17.55503396713325,10.397269698272087,9.718102763202568,9.332211806559798,8.780341669358958,8.10231731132509,7.3173340239506395,6.393310068737015,5.253186288013469,3.99900001500562,2.7166362257143803,1.6054297389667616,0.7550965212957891,0.3380956620746274,0.08557145010051723,0.011578968414801636,11.17782231768598,10.744172891398943,10.497368577695607,10.144647295096293,9.684017340816366,9.165914707991366,8.461000191942336,7.521214506967387,6.307767960920794,4.90157850735356,3.411030707704,2.060635830650929,1.0699470844634626,0.5216797730550857,0.23813822428068918
0.0,39.0,39.0,0.0,120.0,0.0,0.0,0.0,0.0,-107.0,0.0,-45.0,0.0,0.0,0.0,34.27253218749016,17.55503396713325,10.439734302870638,9.684769907311745,9.19449646668329,8.69493168201088,8.138420444536411,7.316513259286609,6.333973803374393,5.189672997536437,3.9016174127260794,2.67803006787711,1.5527856193612157,0.7909371776721669,0.3171626627647422,0.1671021102850494,0.0875438102496677,11.204815380898895,10.74670711267009,10.41257750192847,10.1066845426635,9.683138484773284,9.143467475300065,8.47127664457601,7.520948989435356,6.329310310898289,4.924719337494016,3.410271083555194,1.9764769052029503,1.0653414926886087,0.4823365021233573,0.17694594282504367
0.0,40.0,40.0,0.0,120.0,0.0,0.0,0.0,0.0,-107.0,0.0,-45.0,0.0,0.0,0.0,34.27253218749016,17.55503396713325,10.529122085671492,9.720663077284234,9.219551643904147,8.638381453920214,8.093299290900179,7.312883805367646,6.435445685221811,5.201347699420727,3.89450485771269,2.5636510927164746,1.4797291794779248,0.7390336864194025,0.2958976270727772,0.14832411210966331,0.03647230660533324,11.152869703941153,10.703187351014117,10.463348229869071,10.114328796739384,9.676079880169366,9.210198584618869,8.451572121480606,7.495250648666485,6.318407962296115,4.825560432204506,3.297464075754063,2.0040515854879044,1.008744066860546,0.47982106012493736,0.13417873232722483
0.0,41.0,41.0,0.0,120.0,0.0,0.0,0.0,0.0,-107.0,0.0,-45.0,0.0,0.0,0.0,34.27253218749016,17.55503396713325,10.481579228232302,9.705942325027904,9.310583661474478,8.758074410172922,8.01586198240306,7.27930476961074,6.3932016350615735,5.136876257659363,3.960341655765614,2.589257838765587,1.5458033883374096,0.7271554182511916,0.259434852676123,0.13737310927881807,0.10801401551161165,11.186723565221229,10.766419298591874,10.501405130621047,10.21707639113079,9.7452885481022,9.125324521958976,8.392421593884285,7.4307135234521375,6.228730114848556,4.815077857767182,3.247823590993355,1.936347899737338,1.0029174250075252,0.42970811426353345,0.1412218077109384
0.0,42.0,42.0,0.0,120.0,0.0,0.0,0.0,0.0,-107.0,0.0,-45.0,0.0,0.0,0.0,34.27253218749016,17.55503396713325,10.439196356157398,9.633832342848887,9.231048698689753,8.688296741490948,8.073074377126634,7.2451481415751235,6.311572650485634,5.119677176882078,3.8647879362762034,2.533978555183297,1.4007372042122093,0.6765385003085473,0.3816506206161755,0.1461670357536895,-0.01209675502342927,11.189567678949205,10.769133498241741,10.471863123412955,10.145214336080207,9.69643700005022,9.135274342284033,8.417428825752555,7.414120040035916,6.191102334432724,4.6693586639772615,3.1680882587761596,1.9506675778107723,0.9395983147480353,0.4093259583551902,0.1828730738493245
0.0,43.0,43.0,0.0,120.0,0.0,0.0,0.0,0.0,-107.0,0.0,-45.0,0.0,0.0,0.0,34.27253218749016,17.55503396713325,10.457387722691008,9.685017256498423,9.242158386706105,8.748747840507788,8.027665517526133,7.2385277340107255,6.315492307206297,5.055088828194197,3.775233685144603,2.44059109484884,1.4209600766885138,0.6678413175528364,0.3424659484746675,0.035451733867856904,0.009068409936629773,11.21988746223827,10.735126414391186,10.495459784380609,10.136331553194875,9.685358830748836,9.169617330868638,8.395023468271564,7.380773042473381,6.1010068211311035,4.63271154466108,3.1129659207538296,1.853348672627373,0.8952915698988029,0.40594545989500536,0.14586843406419728
0.0,44.0,44.0,0.0,120.0,0.0,0.0,0.0,0.0,-107.0,0.0,-45.0,0.0,0.0,0.0,34.27253218749016,17.55503396713325,10.381977722131834,9.683987295903298,9.280654499820587,8.71169018828075,8.077238127866062,7.302957159865187,6.304443595783254,4.999051195816069,3.7158471590833018,2.4247552959650482,1.3359637518843526,0.6480225725342004,0.32640379271014447,0.1266103663664935,0.058826031544295485,11.227711108453486,10.799095536621762,10.472011860873977,10.149114182252895,9.716985298223031,9.144147450317076,8.419194431947147,7.384448767169679,6.10697689185767,4.512054494793458,3.0140616127343502,1.730799419886777,0.8878080590949453,0.41048499161165874,0.1642113798759435
0.0,45.0,45.0,0.0,120.0,0.0,0.0,0.0,0.0,-107.0,0.0,-45.0,0.0,0.0,0.0,34.27253218749016,17.55503396713325,10.520404895640732,9.669815205721576,9.28135351016525,8.682037226432698,7.99515397254369,7.227032117011629,6.200216680994935,5.00084215830208,3.6314456690535617,2.350678100461524,1.270336748364348,0.5754688741065075,0.22684256944377476,0.07958573786793319,0.03205370486133488,11.164495624245506,10.787433917057303,10.484972408531688,10.106218427115557,9.733583690415054,9.086772954736523,8.347670864243522,7.297418402902705,5.969561920990015,4.465356418752277,3.033874753710331,1.693136265866577,0.8311633249631242,0.3795089798521951,0.13838509643433392
0.0,46.0,46.0,0.0,120.0,0.0,0.0,0.0,0.0,-107.0,0.0,-45.0,0.0,0.0,0.0,34.27253218749016,17.55503396713325,10.48938801545271,9.745649177890908,9.230769500034167,8.750696602174877,8.033994849294112,7.220621900033605,6.200948265878294,4.904454389615082,3.594413386773295,2.3184479857230498,1.1896458240318175,0.5806263690125044,0.18178674412210993,0.09519977706889426,-6.370827384835284e-05,11.254805372243608,10.78233224002376,10.496571922919662,10.154932615930056,9.689850589304074,9.154298989915176,8.31240820508587,7.214608412789654,5.939852288194438,4.38066335421583,2.899907316380158,1.6561897693354064,0.8184960271456471,0.3328768700149273,0.13886438084668645
0.0,47.0,47.0,0.0,120.0,0.0,0.0,0.0,0.0,-107.0,0.0,-45.0,0.0,0.0,0.0,34.27253218749016,17.55503396713325,10.399704562034767,9.776847002300746,9.133229897672278,8.767743664788844,8.044953062662493,7.181963727596035,6.150018671851113,4.8767119173739975,3.487423663167946,2.2560839277604177,1.2126145782688458,0.5240906230479545,0.20604831654772143,0.040560690913190936,0.11066730301686076,11.286116304983658,10.827721345097375,10.508821324040055,10.105322253540585,9.670779877117306,9.170889220061474,8.318031402590593,7.232963884685922,5.874767112322029,4.309363845300733,2.8112403619971182,1.6349988620072498,0.7631951668107947,0.36186919645267507,0.11985958128431222
0.0,48.0,48.0,0.0,120.0,0.0,0.0,0.0,0.0,-107.0,0.0,-45.0,0.0,0.0,0.0,34.27253218749016,17.55503396713325,10.460585783771204,9.704272482090301,9.282935158486865,8.683141587174003,8.064363852024831,7.1293904901797305,6.100875778959349,4.803376725839351,3.43301006792724,2.1325762355146733,1.0692864327666183,0.5303706242595161,0.1914269099119393,0.063647235185406,0.045811667748584535,11.168095172716622,10.716378064798636,10.53040217483315,10.129132455895832,9.723510801670624,9.111916126890772,8.26212101063796,7.130178516880156,5.759371783910125,4.274989758114601,2.7862057000493055,1.5429233392180688,0.7693354077721078,0.3193945653683567,0.08847725533394774
0.0,49.0,49.0,0.0,120.0,0.0,0.0,0.0,0.0,-107.0,0.0,-45.0,0.0,0.0,0.0,34.27253218749016,17.55503396713325,10.53744029533797,9.742439860956965,9.229228890582148,8.693805716461043,8.059942296150043,7.14487668041462,6.098597773210961,4.767360751151892,3.3920956732857643,2.0653455100662184,1.058469602776416,0.5075722982457357,0.19662186374539906,0.0041397326170987125,0.004274242337197294,11.206799754167612,10.768595513495011,10.501109568207871,10.191098345135371,9.786843595324829,9.157223334640229,8.279327594082266,7.105505145027336,5.673093750419683,4.150178900097483,2.648076988948305,1.504738736094474,0.7213056283700184,0.2969269381872428,0.12444511598824283
0.0,50.0,50.0,0.0,120.0,0.0,0.0,0.0,0.0,-107.0,0.0,-45.0,0.0,0.0,0.0,34.27253218749016,17.55503396713325,10.408518316046926,9.641134433213496,9.245676370461409,8.751764982933382,7.9672009905051695,7.229695971189506,6.0324567597392225,4.722554540375721,3.2871168301591815,2.0981069057781254,1.0566896618386183,0.42717603656448383,0.18132473502076601,0.056521477320084626,-0.00581584907537726,11.200703294834465,10.82374815132894,10.49493747312777,10.195232994559735,9.723919216918498,9.11108489348321,8.226192059352767,7.059274826220613,5.633637861961641,4.052568062981446,2.5831809614436847,1.4377341865150013,0.6357660445603756,0.2883943390407639,0.0893662241768569
0.0,51.0,51.0,0.0,120.0,0.0,0.0,0.0,0.0,-107.0,0.0,-45.0,0.0,0.0,0.0,34.27253218749016,17.55503396713325,10.414666963455453,9.62812784516418,9.256397278949692,8.699886759368333,8.030736312603468,7.173054819415661,6.008756117789221,4.618704887801666,3.3053225762455742,1.9431661561206341,0.9903131723240174,0.43835258596134635,0.11220042656175383,0.018498283454801694,0.00951469012393239,11.255867226037676,10.783856311288007,10.485588987454097,10.149366765825334,9.733420904038004,9.097355443176433,8.18817673250364,6.934534541530696,5.477779783066577,3.979424837831638,2.4755904612855835,1.3716921400875959,0.6328748317940172,0.260806563109882,0.11215900979811687
0.0,52.0,52.0,0.0,120.0,0.0,0.0,0.0,0.0,-107.0,0.0,-45.0,0.0,0.0,0.0,34.27253218749016,17.55503396713325,10.422502227442752,9.699793226626607,9.259644274565533,8.70774185499751,7.9702892763134985,7.072977216279512,5.971689282260556,4.5296323312811895,3.025484800933242,1.9222448738343818,0.8943186245557391,0.41720695459293433,0.19064846300013985,-0.0028358873205618987,0.022840745044219592,11.21323749819361,10.845479532033512,10.50987127900979,10.16910360275981,9.65871477394459,9.047118842903503,8.11813265472158,6.877845919480341,5.448465621617821,3.8552887120732207,2.4198623957088663,1.2751504424486202,0.5898743244126277,0.22388225913437237,0.08074305004648111
0.0,53.0,53.0,0.0,120.0,0.0,0.0,0.0,0.0,-107.0,0.0,-45.0,0.0,0.0,0.0,34.27253218749016,17.55503396713325,10.464693939443148,9.74311042361898,9.25003050046224,8.730135922551773,7.9857034057313765,7.053857512951603,5.845614896521916,4.379203986616906,3.0246247660261303,1.7905671635942575,0.9539886161998951,0.34812005185188993,0.0826978289279775,0.10164632159226983,-0.024528262369425714,11.259697131964026,10.816663314985432,10.447248654076844,10.216374518668465,9.706467888672321,9.06602969095598,8.084893255464115,6.813309076136651,5.3616014958522715,3.753490523658772,2.3205845411130253,1.2655726206124134,0.5878992196225822,0.280175144959685,0.09074758936423949
0.0,54.0,54.0,0.0,120.0,0.0,0.0,0.0,0.0,-107.0,0.0,-45.0,0.0,0.0,0.0,34.27253218749016,17.55503396713325,10.38466727675578,9.611805815448685,9.24267317768773,8.637451252735662,7.9531689896325295,6.990832975967515,5.808772343531776,4.327475450003938,2.9922058486393563,1.7217158521471962,0.818737902887171,0.32852357059396325,0.13470892911807106,0.04187644706867926,-0.01764383257011073,11.24700720857044,10.837456795705062,10.515048327208143,10.128980772263978,9.68954666585174,8.999444293998513,7.97572746169761,6.738730250332564,5.20949556732779,3.598667529438154,2.246780203979687,1.125273718804197,0.48637245826622744,0.21377094990079787,0.0960019018980397
0.0,55.0,55.0,0.0,120.0,0.0,0.0,0.0,0.0,-107.0,0.0,-45.0,0.0,0.0,0.0,34.27253218749016,17.55503396713325,10.492275538707155,9.77937849600729,9.237358797354162,8.678177392055916,7.9257825373072235,7.052128609681546,5.734835222786532,4.27303396879928,2.875390767803538,1.5895783428496948,0.711340351385467,0.3296961664643917,0.12451810076026228,-0.0415911679199839,0.010926231356021866,11.215426953326906,10.797359795607033,10.522067500456375,10.168351886032514,9.674649558523415,8.975761865190478,7.953712604521658,6.663438592815168,5.100269950969227,3.5666339010622723,2.1677628474274178,1.088736276113573,0.5013563261761436,0.23331654428883325,0.0693778863974503
0.0,56.0,56.0,0.0,120.0,0.0,0.0,0.0,0.0,-107.0,0.0,-45.0,0.0,0.0,0.0,34.27253218749016,17.55503396713325,10.43380559784868,9.719536554583263,9.242566067383047,8.741697536861343,8.019171900281762,6.930760163931006,5.643828824813457,4.128926119749369,2.682426418773272,1.5875881152448075,0.8006554379920039,0.34079176383664606,0.10085029800046648,0.05922045874109477,0.013365941762904242,11.200714136262278,10.831605128638751,10.501656051686497,10.124344053664805,9.670196623133203,8.982699683391603,7.9019956675077285,6.518714463621374,4.976981827801427,3.3991375817183043,2.020376629538962,1.0649146268097858,0.4460697804088418,0.2240499255436305,0.078266552548504
0.0,57.0,57.0,0.0,120.0,0.0,0.0,0.0,0.0,-107.0,0.0,-45.0,0.0,0.0,0.0,34.27253218749016,17.55503396713325,10.406527943187191,9.707212135822088,9.264549257568602,8.809770564984401,7.937558975331943,6.982442129014816,5.543143093423913,3.9983494553535808,2.6245034655280093,1.4622769302086764,0.7273383896455803,0.25501927889054726,0.07759247727206924,0.026744098381351535,0.012159000230827888,11.278665798440755,10.855680707865792,10.548693812207038,10.117560917886896,9.62487187390986,8.915023107107336,7.852567000040221,6.378613043466406,4.858151588587252,3.31671260259224,1.9153886610662336,0.971276172990694,0.4398650899097915,0.16491982296381838,0.06289929785502384
0.0,58.0,58.0,0.0,120.0,0.0,0.0,0.0,0.0,-107.0,0.0,-45.0,0.0,0.0,0.0,34.27253218749016,17.55503396713325,10.366651078431696,9.684284663533443,9.244965514485589,8.619054554140092,7.974648858810697,6.801386263687694,5.439526161224458,3.9303047061376972,2.5053274461971666,1.3743913281767337,0.6423853702914419,0.20693103280789757,0.10546099289037947,0.010483520190147597,0.0015057066344107287,11.235939184186286,10.856040361071338,10.5197935979457,10.17722068665093,9.667315182761222,8.831768362466082,7.728438819580333,6.321720300807166,4.745731100850088,3.1624897268541012,1.7859515508113277,0.898271149857328,0.41933442204983823,0.16302244694284276,0.06505358543342536
0.0,59.0,59.0,0.0,120.0,0.0,0.0,0.0,0.0,-107.0,0.0,-45.0,0.0,0.0,0.0,34.27253218749016,17.55503396713325,10.45713615174655,9.757967935513435,9.190194872735454,8.644646585891227,7.888205704548146,6.663440277902135,5.348066480756262,3.818716180156559,2.4631321814140255,1.3320717383852492,0.6451582102137648,0.25876078596087954,0.0832100251344927,0.03002249012200016,0.01239531011105477,11.232238349169014,10.802995013669499,10.505480959372143,10.15375199936563,9.599962859138286,8.80506052591217,7.673297633622683,6.161110509699017,4.5316187430618555,3.0130271935407107,1.706225889712464,0.8277358260441937,0.3584362391178283,0.13957895288377795,0.0751374460575328
0.0,60.0,60.0,0.0,120.0,0.0,0.0,0.0,0.0,-107.0,0.0,-45.0,0.0,0.0,0.0,34.27253218749016,17.55503396713325,10.416352913136022,9.549689547429473,9.180458621464924,8.634615066384566,7.8135349678499155,6.757936619139275,5.2543088129786835,3.6563322131522122,2.269751016845336,1.2472620644697767,0.4792277618748741,0.20506587123139813,0.024164193490930297,-0.011085253603724563,-0.0024919804330238004,11.21673653841181,10.796087598541787,10.522573747382197,10.172173120335994,9.592700329629059,8.717303567353738,7.532129868016543,6.0403222844204425,4.395668410916643,2.8411579678471175,1.6109472193081982,0.7938558782043165,0.36028759276154765,0.11340495638812947,0.04406850650794629
0.0,61.0,61.0,0.0,120.0,0.0,0.0,0.0,0.0,-107.0,0.0,-45.0,0.0,0.0,0.0,34.27253218749016,17.55503396713325,10.44818087000758,9.596677948205638,9.204889322793695,8.591271015105537,7.784558498522357,6.651422978510641,5.066037794315898,3.5854925016575874,2.227464964237168,1.1595108954427742,0.5038774752617876,0.16089408320604257,0.012427477020128912,0.024092604161611294,-0.014091434352384634,11.253782492192768,10.826785394190651,10.512268501278454,10.121708594399083,9.500306527283621,8.651627444243104,7.496240706993933,5.910920138614265,4.247176307890306,2.676354439696525,1.4956115282653726,0.7293780994309196,0.3365845311786234,0.1151259777130134,0.05967994057602085
0.0,62.0,62.0,0.0,120.0,0.0,0.0,0.0,0.0,-107.0,0.0,-45.0,0.0,0.0,0.0,34.27253218749016,17.55503396713325,10.456171740275618,9.61567151094135,9.140974595581028,8.602736438745392,7.691922119275034,6.5388135852956095,4.954462512509191,3.4263205603906126,2.03910847844554,1.0373331536954635,0.3985081547303997,0.20418654862286686,-0.030147334320957828,0.04423026508256848,-0.05052363622057641,11.249710689509598,10.802791068294917,10.514114512641958,10.146334629883164,9.533184320974796,8.542811175242598,7.317789924552583,5.716900373948887,4.058828954368508,2.5234976647136076,1.370411888404538,0.6418275765849636,0.27513733812295993,0.1175476087140899,0.055190255913801146
0.0,63.0,63.0,0.0,120.0,0.0,0.0,0.0,0.0,-107.0,0.0,-45.0,0.0,0.0,0.0,34.27253218749016,17.55503396713325,10.436901154335338,9.690488849325604,9.197903841158533,8.556661315468807,7.580518501500096,6.299717307873457,4.856818757861683,3.193469291509448,1.919650838321401,0.9194460631917334,0.3704529317887696,0.181463261340792,0.03503967282397503,0.015097247520192396,0.03936372454147079,11.314242746264636,10.854625999868567,10.520561260005604,10.116278801884137,9.449536781108996,8.447194224629655,7.173541678012729,5.558999805095761,3.880515029746946,2.391157890014347,1.3371683577135542,0.5817889292989353,0.2543438564144684,0.11832894878453828,0.015810397310308817
0.0,64.0,64.0,0.0,120.0,0.0,0.0,0.0,0.0,-107.0,0.0,-45.0,0.0,0.0,0.0,34.27253218749016,17.55503396713325,10.44342679610819,9.729061714809884,9.147777050034568,8.46096545710133,7.569479186469611,6.234141779164669,4.554101163520143,3.037415044939222,1.8220275288209848,0.8078530420667133,0.3951346839583997,0.12857860991727674,0.03277636246421336,-0.05037962976879855,0.010670507616298692,11.253810012875794,10.840298492283052,10.504495903128667,10.05562451226856,9.422121403995638,8.381362809536016,7.019382619171961,5.388729464420461,3.6891382911417585,2.2061792266521536,1.2028519808704872,0.5351073339885617,0.24354494133928636,0.08590660503096302,0.0236596420728531
0.0,65.0,65.0,0.0,120.0,0.0,0.0,0.0,0.0,-107.0,0.0,-45.0,0.0,0.0,0.0,34.27253218749016,17.55503396713325,10.441071182402048,9.66726145381422,9.11553155675822,8.460379693608358,7.391014589698598,6.130238229202847,4.408776570594773,2.939938028953871,1.5719051508870392,0.7795618607135172,0.3298614159880898,0.1354072333277523,0.0070138035540342515,-0.016435533016314934,-0.017163073473203665,11.250872403252659,10.776474171025955,10.49239905644789,9.992541446467031,9.304542622458658,8.24320764030919,6.830513578660757,5.1306281651639125,3.5118453989577954,2.0769830555188062,1.0533288913198597,0.4911928993956598,0.2265703230497712,0.11634064510750965,0.05011662996038416
0.0,66.0,66.0,0.0,120.0,0.0,0.0,0.0,0.0,-107.0,0.0,-45.0,0.0,0.0,0.0,34.27253218749016,17.55503396713325,10.457360741982148,9.692229650145597,9.12390466044097,8.392996780360507,7.337658131603882,5.828102004860072,4.267776906151402,2.6097271297261995,1.4621858100136074,0.6657129049142146,0.21950028372853292,0.09076811212783477,0.03106839840285999,0.051797751127283444,0.003326752244061266,11.282844499470233,10.792872734898854,10.45440618429453,9.979984657167655,9.21106606696596,8.08512100152226,6.634931663802833,4.8841919784209695,3.2317408597067403,1.9337845903164919,0.9324508850159582,0.44111200672577267,0.2582395057086954,0.09540436137383632,0.019252554869363992
0.0,67.0,67.0,0.0,120.0,0.0,0.0,0.0,0.0,-107.0,0.0,-45.0,0.0,0.0,0.0,34.27253218749016,17.55503396713325,10.43162067949167,9.689145147607682,9.086449539898915,8.30211727280005,7.17024738675425,5.6817111886152505,4.016509557075129,2.4536123524648263,1.3180556343198548,0.5697691223414867,0.2361218741387513,0.06837606356111993,0.0620670664224909,-0.01966793262730643,-0.05305418869377076,11.277708602403063,10.817111019864328,10.47940073355419,9.943511111874843,9.077536376699495,7.960816449834576,6.405400552813426,4.684945643330189,3.0676260906880617,1.7615059242456108,0.8521091359962173,0.3961541011208471,0.1385760469873363,0.03586079020245093,0.043226400251347455
0.0,68.0,68.0,0.0,120.0,0.0,0.0,0.0,0.0,-107.0,0.0,-45.0,0.0,0.0,0.0,34.27253218749016,17.55503396713325,10.443986249422101,9.757408616307009,8.977391295093796,8.28911001396362,6.998242577535383,5.529977760482627,3.8157899580064116,2.287404444248697,1.107639026617652,0.5246561380372571,0.17006937828185856,-0.011323274319312585,0.008403881201723216,-0.01851793756062748,-0.0010825058848747868,11.24421458961515,10.806902979841878,10.356702231890202,9.838274483322861,8.99382758650398,7.7291562024061955,6.141641838707709,4.313866241050776,2.768094909636808,1.5724572645176995,0.7678003254679188,0.34013104159888646,0.14374282647342454,0.040200865604495206,0.0394012348100377
0.0,69.0,69.0,0.0,120.0,0.0,0.0,0.0,0.0,-107.0,0.0,-45.0,0.0,0.0,0.0,34.27253218749016,17.55503396713325,10.426642025597891,9.640909939189386,9.03068298778894,8.011737985512333,6.798652583493897,5.1827392228348215,3.4738598430215766,2.0594929538507385,1.016668631155903,0.4562924072870434,0.22586011096687458,0.04936777890146652,0.009290600775761776,0.023232765868229796,0.00915589125811132,11.275822130870564,10.739431153994342,10.323976408661201,9.730474546216602,8.861678506367992,7.551734360816821,5.89730402173956,4.054035407534238,2.562529452310984,1.3994263319803577,0.7196660232336924,0.3185809410321558,0.1262797455953044,0.054134741229084446,0.033143235976464916
0.0,70.0,70.0,0.0,120.0,0.0,0.0,0.0,0.0,-107.0,0.0,-45.0,0.0,0.0,0.0,34.27253218749016,17.55503396713325,10.390998932981509,9.510391886670611,8.827514543515308,7.8956690364134925,6.53730528009251,4.914509541785239,3.2054897543111434,1.840631062120438,0.871531145105041,0.3338311474349251,0.08523513084651295,0.02545290704759514,-0.02821779901657908,-0.025383338437258384,-0.04908021223449556,11.299156886154258,10.721801217902032,10.272375119353228,9.654162908584164,8.599768898917253,7.235651073998868,5.592328915256421,3.750821984278339,2.297708521041072,1.264910185630207,0.5938029108722453,0.2640686847579946,0.15793799506606226,0.03378292564451499,-0.014080155790297075
0.0,71.0,71.0,0.0,120.0,0.0,0.0,0.0,0.0,-107.0,0.0,-45.0,0.0,0.0,0.0,34.27253218749016,17.55503396713325,10.418032812223922,9.471507885452525,8.702833486387686,7.629045591864949,6.269211084686458,4.592846722867391,2.842077364848788,1.5958046943558317,0.7283150024634056,0.20521476305420044,0.1290862443416484,-0.02565132644205105,0.06417383211522722,0.0032238608020558387,-0.007085161013114886,11.289209746773976,10.710318280866943,10.23328493202936,9.507630733437082,8.40333382326748,6.998092720963563,5.121671266975973,3.4105338205153632,1.9958295649198663,1.04718198033668,0.4976202426079269,0.21791853438561262,0.12388762583611171,0.0482316880264404,0.0390646663663708
0.0,72.0,72.0,0.0,120.0,0.0,0.0,0.0,0.0,-107.0,0.0,-45.0,0.0,0.0,0.0,34.27253218749016,17.55503396713325,10.402496096485601,9.372904087199622,8.535359608337556,7.391351144429162,5.932459758574976,4.164433451047864,2.575051475735558,1.325336272119641,0.6432447058793666,0.23085490855543422,0.0837485517344025,0.06731393906008037,-0.03904897593459768,0.024268657453536072,-0.01013339910699047,11.237006700906393,10.675996055254823,10.07613155730598,9.318494379779892,8.180676929070826,6.615957517220099,4.8332099028223325,3.0316211315859523,1.7080000050378963,0.8993314257862195,0.43959876484789107,0.18995719742045825,0.030947506236778645,0.04640259875623541,0.01987024225454129
0.0,73.0,73.0,0.0,120.0,0.0,0.0,0.0,0.0,-107.0,0.0,-45.0,0.0,0.0,0.0,34.27253218749016,17.55503396713325,10.449439039489045,9.201723646109725,8.33293998213374,6.995885478700712,5.417656093829335,3.64456489526704,2.2486920467536717,0.9893464026673892,0.4978219406784617,0.17143943541435994,0.04983751818800575,0.0687755838423745,0.02656606898411882,0.024427719076048574,0.08778285849277823,11.285327500812947,10.644908089555658,9.897449162832709,9.008326939397163,7.785166028452309,6.1499900587248595,4.311964963810917,2.676449450438661,1.4816728490076871,0.7348452917984902,0.35313216483702536,0.15069492443381619,0.08626593115736962,0.06298141266573723,-0.029272630698049033
0.0,74.0,74.0,0.0,120.0,0.0,0.0,0.0,0.0,-107.0,0.0,-45.0,0.0,0.0,0.0,34.27253218749016,17.55503396713325,10.35029373014106,9.092509697115984,7.927582459146044,6.703437775837977,5.003628446988056,3.270201799811274,1.7511661159523397,0.8146906880710018,0.34111520071318013,0.1655538237625481,0.07473759123760432,0.07566151357602198,0.0019170609504146714,-0.03422816916162859,0.0014417174004855565,11.177066051254286,10.471825126963282,9.689884962220932,8.758807864926679,7.367615770554922,5.593262099443882,3.7591903035661534,2.205491287027821,1.2116239154144806,0.6017185492932665,0.2788738331592062,0.1320467467105341,0.05694857000824426,-0.0050934438084116115,0.003959331679116197
0.0,75.0,75.0,0.0,120.0,0.0,0.0,0.0,0.0,-107.0,0.0,-45.0,0.0,0.0,0.0,34.27253218749016,17.55503396713325,10.217388298498213,8.756509503848832,7.5103324731871055,6.035165870352567,4.306296402831894,2.662327989727802,1.3491282271922462,0.638548245825569,0.29270121846295044,0.07430902702113967,0.048745939625721706,0.04835779214913913,0.07008217163131482,-0.0340308111518945,0.021699411632921647,11.152268585724018,10.265360724371533,9.41439137843337,8.326793639362675,6.734629384503503,4.966963146578143,3.2200511305127018,1.827216930926164,0.9500783190162502,0.43679304028180477,0.22238458789925467,0.11963087388772131,0.07250348221217151,0.037158917245715004,0.01750659002765805
0.0,76.0,76.0,0.0,120.0,0.0,0.0,0.0,0.0,-107.0,0.0,-45.0,0.0,0.0,0.0,34.27253218749016,17.55503396713325,10.039677224911179,8.39210229445636,6.835226702146079,5.318763833974433,3.6285464741297324,2.105808864792332,0.9611983848475926,0.4369054416396373,0.2024021752960416,0.08015907353620844,0.07086008389926896,0.01388720639442264,0.04861928807753749,-0.017687926489913915,-0.017032441231701206,11.102347196764786,9.972746643301711,9.003958635347564,7.739675239643993,5.964027858314983,4.228659024777411,2.538673783424576,1.3831464135907505,0.703652892729439,0.34908242218431856,0.16819346097481563,0.06529696865470867,0.07438856775976395,0.031031712125132317,-0.013610033538811345
0.0,77.0,77.0,0.0,120.0,0.0,0.0,0.0,0.0,-107.0,0.0,-45.0,0.0,0.0,0.0,34.27253218749016,17.55503396713325,9.804887878110277,7.606003258042045,6.07520417697913,4.325410783033095,2.6682635310619105,1.5341688940935605,0.6411907536283376,0.25268042286424713,0.10250745140364112,0.01920681485470236,0.02810896128069742,0.007948669117163392,0.0002579817825955218,0.007523623058792136,0.013961512367844079,10.836694273618143,9.437741479608578,8.286607431274147,6.831845191807333,5.000844372442026,3.346291399434733,1.9053297777632157,1.0072671211962343,0.5162608583772921,0.24791650862113615,0.13883140505984154,0.11137896227274163,0.03589207886574883,-0.007143220125005477,0.031100782599004985
0.0,78.0,78.0,0.0,120.0,0.0,0.0,0.0,0.0,-107.0,0.0,-45.0,0.0,0.0,0.0,34.27253218749016,17.55503396713325,9.227799900743735,6.416064921070181,4.587266945311644,3.0673575848293093,1.689499207721095,0.8299231159377537,0.3479425655672601,0.16420679343672304,0.0006756190987484284,-0.027016161002980776,-0.0035558495616610925,-0.010025524850708185,0.011193364968346792,-0.0722006059838881,0.0558039081332953,10.564263194660082,8.57017340429177,7.122185685984807,5.502367604468794,3.7060433750991733,2.333671532110904,1.3385544295349243,0.6992452836474675,0.37114363027582903,0.18481489815371943,0.11794380718507083,0.06438096911288357,0.033527402224307216,0.05297683096800131,0.003994637232471648
