Line_number,Fiducial,Easting,Northing,Height,Elevation,tx_pitch,tx_roll,tx_yaw,txrx_dx,txrx_dy,txrx_dz,rx_pitch,rx_roll,rx_yaw,PX,PZ,S0X_time_1.086e-05,S0X_time_3.256e-05,S0X_time_5.426e-05,S0X_time_8.680e-05,S0X_time_1.411e-04,S0X_time_2.279e-04,S0X_time_3.689e-04,S0X_time_5.860e-04,S0X_time_9.115e-04,S0X_time_1.411e-03,S0X_time_2.192e-03,S0X_time_3.418e-03,S0X_time_5.339e-03,S0X_time_8.301e-03,S0X_time_1.338e-02,S0Z_time_1.086e-05,S0Z_time_3.256e-05,S0Z_time_5.426e-05,S0Z_time_8.680e-05,S0Z_time_1.411e-04,S0Z_time_2.279e-04,S0Z_time_3.689e-04,S0Z_time_5.860e-04,S0Z_time_9.115e-04,S0Z_time_1.411e-03,S0Z_time_2.192e-03,S0Z_time_3.418e-03,S0Z_time_5.339e-03,S0Z_time_8.301e-03,S0Z_time_1.338e-02
0.0,0.0,0.0,0.0,120.0,0.0,0.0,0.0,0.0,-107.0,0.0,-45.0,0.0,0.0,0.0,34.27253218749016,17.55503396713325,4.500407446420713,2.570686267153717,2.015343363135705,1.737705173981758,1.5636929133205246,1.3528414066782395,1.2051658642557606,1.1085855948490158,0.9479429289319246,0.8287499945108131,0.6142804516906668,0.5350959945539534,0.3325155697518067,0.2967462665752832,0.15444461999837364,6.466673943191882,4.432339322534527,3.8485034827858815,3.4173452021694706,3.097498788714321,2.809006570563294,2.562853014835138,2.362372556899751,2.0934265806584382,1.832382814772896,1.5894045263396996,1.289197328829191,1.0433066649204894,0.7677328822243173,0.5460494459610491
0.0,1.0,1.0,0.0,120.0,0.0,0.0,0.0,0.0,-107.0,0.0,-45.0,0.0,0.0,0.0,34.27253218749016,17.55503396713325,4.45689716526019,2.5587027356327052,2.1005802276896364,1.7975900446676145,1.5088426641212762,1.3120929046861527,1.1110500033160378,1.0237543726332667,0.8807891021996208,0.7563312933519959,0.5553280211507732,0.4429264521917442,0.3514222490203903,0.20453745621480404,0.13367903802745107,6.563959040198213,4.560791959098664,3.9207397554466126,3.4453089695282566,2.992418233574676,2.7145449764715472,2.4361827751316336,2.1856142820501896,1.968452480188051,1.7430541972363693,1.4758882772064041,1.2170370838731608,0.9927438603185339,0.7458467066372446,0.5314959570819263
0.0,2.0,2.0,0.0,120.0,0.0,0.0,0.0,0.0,-107.0,0.0,-45.0,0.0,0.0,0.0,34.27253218749016,17.55503396713325,4.465983065104903,2.5721197398911597,2.072749124715252,1.7857603251656784,1.4475401350378203,1.1601909346968802,1.0469587152425766,0.8795509992099094,0.8172583693159455,0.6841036036532179,0.5569455555595998,0.39273778467332976,0.33269790029652213,0.22398843909073773,0.11891251729544526,6.522768231908004,4.574077211403107,3.9205683097759585,3.453582043571051,3.01822542005032,2.6723017553912607,2.3769587505775154,2.117737752858184,1.8391299954416456,1.6294490284949934,1.394671630195863,1.2000495747434574,0.9106393063474114,0.7156320763834396,0.505748190784736
0.0,3.0,3.0,0.0,120.0,0.0,0.0,0.0,0.0,-107.0,0.0,-45.0,0.0,0.0,0.0,34.27253218749016,17.55503396713325,4.434333366973529,2.638310788873159,2.1663070146222076,1.743673786390046,1.5052952112456763,1.1192414843919023,0.9814354441904822,0.8938386490310254,0.6904484026028307,0.6291113541606875,0.45228217315327973,0.3844156749041363,0.20141902413365975,0.16857992979171627,0.07029198501708393,6.545712264591804,4.580809963192219,3.9588194732188793,3.5002454350809176,2.9766425057647092,2.5985190813790435,2.2933317229538193,2.0028624637014723,1.7578086694358703,1.5298894690982145,1.3165080652953682,1.1187346582989488,0.8830879964388494,0.6943379287055166,0.4984785882500556
0.0,4.0,4.0,0.0,120.0,0.0,0.0,0.0,0.0,-107.0,0.0,-45.0,0.0,0.0,0.0,34.27253218749016,17.55503396713325,4.488458484890584,2.6674375297414876,2.2486084548854097,1.8663956640295185,1.4533299815486769,1.2124781063107783,0.980881141827485,0.8473209115126679,0.7088088540927145,0.5369379969620152,0.4053049980468878,0.382134981978691,0.33626233941999073,0.1588605929328351,0.11240860321117016,6.5497409521382215,4.659632085652091,3.9621492315044176,3.466271707987276,3.026085166629423,2.562232789266673,2.1844162678703687,1.910403004705354,1.7034149440954942,1.4692028489756752,1.239414602515782,1.0270974791608751,0.8560233452844114,0.63183978905392,0.43207873207612024
0.0,5.0,5.0,0.0,120.0,0.0,0.0,0.0,0.0,-107.0,0.0,-45.0,0.0,0.0,0.0,34.27253218749016,17.55503396713325,4.497582427765813,2.694494703553365,2.2553393457285633,1.8444140495470027,1.4525088456409048,1.1844899033580423,0.9544316422665968,0.7604254694558699,0.6383732986011524,0.5432071959614464,0.43019135276090903,0.3461722019900997,0.2127359582614851,0.13403182218899357,0.08238743536359358,6.615043731527709,4.675512258696036,4.086866008273121,3.5571220052215446,3.019106729559922,2.5891617918064167,2.1541269509745433,1.8784692239644563,1.6290176564535803,1.4547876034457419,1.19566733212998,1.0152127831432298,0.8160544470395992,0.6021223033979768,0.4387969447715704
0.0,6.0,6.0,0.0,120.0,0.0,0.0,0.0,0.0,-107.0,0.0,-45.0,0.0,0.0,0.0,34.27253218749016,17.55503396713325,4.445107091709472,2.6411100958832785,2.23630264586419,1.8902495189473993,1.5178163165673149,1.1797248067294313,0.9384190248538624,0.7050313116694349,0.591713648104403,0.5258058350539199,0.4197767737064849,0.3073390470721586,0.2822426259909722,0.11852301655361475,0.08780837309108917,6.610290026628781,4.728153465683381,4.1040766192863245,3.572543369840013,3.091738925347523,2.5990644802503766,2.147438117245558,1.8100025503745982,1.5079179356091197,1.3210657646836277,1.1530512899441685,0.9463601405203906,0.770755367563858,0.5595989430820797,0.42305191106213746
0.0,7.0,7.0,0.0,120.0,0.0,0.0,0.0,0.0,-107.0,0.0,-45.0,0.0,0.0,0.0,34.27253218749016,17.55503396713325,4.4588948923141265,2.651813246268781,2.2698647643820773,1.9164224912501864,1.5217012011589586,1.1721472022056438,0.8363460638457084,0.7363371023267935,0.5672321854215735,0.5393926789621413,0.41228559423517114,0.22183660427273932,0.24723067379208455,0.10513385460321084,0.07340458202151545,6.6307781749671015,4.743901350301716,4.156100686375928,3.619379254367954,3.088113800168624,2.6074046926510186,2.1199704924428575,1.7596685983886269,1.4444376474318232,1.2782008636575726,1.0696450814810052,0.8830198101191954,0.7445508993177274,0.5376921944000321,0.3839579766110166
0.0,8.0,8.0,0.0,120.0,0.0,0.0,0.0,0.0,-107.0,0.0,-45.0,0.0,0.0,0.0,34.27253218749016,17.55503396713325,4.512779605283168,2.7717216162672575,2.2519102477274964,1.9556959962431035,1.5865954334555874,1.1507957787710523,0.8795073028016546,0.650016031644666,0.4792548610035361,0.4511535438477765,0.38104595674325387,0.34971156633901346,0.1738981706467045,0.195394940361866,0.14426179638238384,6.662096104329608,4.799887851244438,4.209892143295359,3.732531839625385,3.1631913559802145,2.616971799033437,2.10082622536794,1.7340207988894851,1.4686211933278526,1.2348571963917936,1.0231509880687963,0.8636477086853308,0.689360814313747,0.5428195813441367,0.3556800785839433
0.0,9.0,9.0,0.0,120.0,0.0,0.0,0.0,0.0,-107.0,0.0,-45.0,0.0,0.0,0.0,34.27253218749016,17.55503396713325,4.55973697649704,2.8045064275916247,2.330269826624767,1.9331940145119426,1.4842233773733036,1.1956515022118859,0.9274187860905165,0.6322642329638508,0.44501861835631756,0.35938908553379695,0.34437002591808874,0.27321258464351084,0.226475909231258,0.13665740290458767,0.036315828598032916,6.653900903466419,4.843858584290062,4.233764896450416,3.74113092825797,3.1989412372890524,2.641630113522854,2.124826801696993,1.7503933063476997,1.4163810692012038,1.1800045641887111,1.005291522777476,0.8282050713262289,0.6153166260727211,0.5284657642968279,0.4145447393477933
0.0,10.0,10.0,0.0,120.0,0.0,0.0,0.0,0.0,-107.0,0.0,-45.0,0.0,0.0,0.0,34.27253218749016,17.55503396713325,4.517387823297255,2.8653915016243143,2.3309958741850476,1.969078559322752,1.6127322504874,1.183724077198605,0.9375795564015775,0.6094494832477786,0.46697152194930497,0.37260319056061963,0.33773195152669644,0.2318439003405762,0.12780585977101877,0.12314969462283465,0.05762997701140758,6.714323323233452,4.853165990528941,4.273776560930147,3.7558820071992303,3.2355918362840494,2.6718869831528065,2.150216023712651,1.6407711196324943,1.3786396611914127,1.1510303338886636,0.9500841537566995,0.8022837108062689,0.6492345530864216,0.5211883298296118,0.36353365446893376
0.0,11.0,11.0,0.0,120.0,0.0,0.0,0.0,0.0,-107.0,0.0,-45.0,0.0,0.0,0.0,34.27253218749016,17.55503396713325,4.483304580434478,2.7481400912864173,2.307216302483318,1.9811931694073102,1.5869288696051418,1.2359367593763302,0.8746680488589293,0.6213095913088048,0.5042897678045615,0.3996062498826772,0.28683789447929475,0.22874065230038562,0.1872779995906741,0.1421746391473361,0.04026793106825416,6.694117248829746,4.869407435005774,4.301119924321841,3.8254460132089525,3.2747276251303528,2.6812279723970582,2.1725597659621956,1.698002562431355,1.3421168974185433,1.0757686480055906,0.9134047617355612,0.7694997631871632,0.5602985166570117,0.4648232660747732,0.3955291671935988
0.0,12.0,12.0,0.0,120.0,0.0,0.0,0.0,0.0,-107.0,0.0,-45.0,0.0,0.0,0.0,34.27253218749016,17.55503396713325,4.600208815903256,2.875424108325922,2.368513669735038,1.9816720376726247,1.6102022815514316,1.3009894975875491,0.9231271712670616,0.6139372998219037,0.5153915417350948,0.3489640562092409,0.34230959986825665,0.19662849389470044,0.12657158836715204,0.12360243176327634,0.11321899328809928,6.759957228537396,4.943211623127904,4.330724882043594,3.8333348475031337,3.249928556646691,2.7165150964826883,2.1776309657478046,1.7076321697585046,1.3285607938732522,1.0751800036361079,0.874937480604648,0.7404455136630698,0.56258947336828,0.4723297444768871,0.376278667945561
0.0,13.0,13.0,0.0,120.0,0.0,0.0,0.0,0.0,-107.0,0.0,-45.0,0.0,0.0,0.0,34.27253218749016,17.55503396713325,4.604664247934699,2.87369798634855,2.4046054663736203,2.0785541917440704,1.5914416703673568,1.2213616395957791,0.872216953762978,0.5992521892097443,0.4254412273497898,0.37479952281562606,0.30657949842822124,0.18006735092616727,0.16162525054778346,0.13863253704554884,0.07748074634800298,6.7250649234267135,4.940926271215204,4.421667297854824,3.8973701651941726,3.3477229188194744,2.743034971512143,2.209710883049233,1.7202984267028403,1.3316899528843806,1.0348776077234916,0.8752330092196862,0.6630175326459211,0.5785052167382635,0.4597551266555501,0.3556890930006996
0.0,14.0,14.0,0.0,120.0,0.0,0.0,0.0,0.0,-107.0,0.0,-45.0,0.0,0.0,0.0,34.27253218749016,17.55503396713325,4.58459465170987,2.8846607428122666,2.4844444456882555,2.0310317683101857,1.6562261300959233,1.2610723441533378,0.8922130179635103,0.6603558037677438,0.4066422643813984,0.35611166227410446,0.2187418471795315,0.13166609391664635,0.14406443933945917,0.12102436999413925,0.09116181579068001,6.79142314363933,4.957622082312713,4.413165100237378,3.9274747429099786,3.406035998417862,2.818217981000808,2.271589663875351,1.7051345042057122,1.324386523766765,1.0064061550019752,0.817495731881738,0.6539917729847151,0.5231985383965615,0.41155177632631146,0.3106642205643262
0.0,15.0,15.0,0.0,120.0,0.0,0.0,0.0,0.0,-107.0,0.0,-45.0,0.0,0.0,0.0,34.27253218749016,17.55503396713325,4.612808218951493,2.9746043790262497,2.488265934579825,2.069928707684732,1.6556086253461606,1.277506165888411,0.9198485888604199,0.6705002450543852,0.48528966601969603,0.37146392954653545,0.21377151428720828,0.20172653876627733,0.08768621101042001,0.11355941668266692,0.10612279489208684,6.784164766864722,5.083756563497833,4.451285877650806,3.942684757388334,3.4021903293328144,2.854703750592646,2.2429765543291023,1.720030730660798,1.2941477121874796,1.0182811444846052,0.8293211039901806,0.6608353683699482,0.5312753472168665,0.399735257705387,0.2875639882851815
0.0,16.0,16.0,0.0,120.0,0.0,0.0,0.0,0.0,-107.0,0.0,-45.0,0.0,0.0,0.0,34.27253218749016,17.55503396713325,4.653313252332027,2.9825863060881304,2.50548424922873,2.142892416941019,1.6887384271501615,1.2737895775245869,0.9813923617783136,0.6605102466009316,0.41362568828393537,0.27674948971357183,0.23642418438084756,0.2605160292178529,0.11698770563406027,0.08286774283839957,0.11894478704351603,6.805573336570679,5.059377014473788,4.4819535679477704,4.033727761892402,3.4568923778276335,2.88087142150717,2.2759831374811506,1.7291029441383996,1.3124508074925687,1.004006449349664,0.7632067336669456,0.6357210842935636,0.4703115776470701,0.38215168298729507,0.2846636632230629
0.0,17.0,17.0,0.0,120.0,0.0,0.0,0.0,0.0,-107.0,0.0,-45.0,0.0,0.0,0.0,34.27253218749016,17.55503396713325,4.612303198242018,2.928725789944418,2.559078914365554,2.105583480555601,1.7672921312652485,1.308508860071194,0.9391260331540083,0.6668885823684033,0.48951883653619704,0.2906506059646802,0.2612233108389242,0.2197005000511612,0.16062316647241676,0.14932124874249647,0.1076197159000606,6.867062866962859,5.176831108992345,4.567849096943893,4.032649149782059,3.4221545616625955,2.861090966464749,2.2919491731477506,1.7534324280512303,1.317942874692942,0.9697773842586765,0.7286195113593581,0.6006158653254613,0.47533388773771934,0.35797555518568075,0.2632519159752528
0.0,18.0,18.0,0.0,120.0,0.0,0.0,0.0,0.0,-107.0,0.0,-45.0,0.0,0.0,0.0,34.27253218749016,17.55503396713325,4.6172660918559885,3.0307847870572777,2.5387511495428434,2.208599825465534,1.7474745681858044,1.301180440134382,0.9604103347783607,0.6267462196783985,0.48871105645889146,0.3568907788946351,0.2623351075494568,0.11838601197045201,0.11536723381186333,0.07150719156623717,0.07839176024748494,6.818445367802484,5.159019446529331,4.594025137912761,4.086266027745458,3.528324409502408,2.914830286782721,2.3424212387557932,1.798045999398982,1.3230193262784435,0.9580090423665769,0.722176582456729,0.5976601433389116,0.45250861488598676,0.3254393395498164,0.2824779588171013
0.0,19.0,19.0,0.0,120.0,0.0,0.0,0.0,0.0,-107.0,0.0,-45.0,0.0,0.0,0.0,34.27253218749016,17.55503396713325,4.676402220680477,3.0234027115605437,2.6476970693686788,2.218751347377029,1.7649211885670548,1.3061973983537962,0.9305306079868231,0.6659612847395096,0.39073650384360153,0.31773786592855124,0.15907914969778975,0.15912778417446258,0.10264237687666984,0.10777396012786128,0.021486291476103994,6.8726926032826485,5.181187522215114,4.666004614988287,4.1190707822564026,3.5588444052865245,2.921836464642276,2.363551636123861,1.804659932555935,1.344064291086595,0.9881917496746162,0.730077503943629,0.5948340982057754,0.4437625060575759,0.3336081973711999,0.2592015058858658
0.0,20.0,20.0,0.0,120.0,0.0,0.0,0.0,0.0,-107.0,0.0,-45.0,0.0,0.0,0.0,34.27253218749016,17.55503396713325,4.648940773834816,3.0928570338247305,2.6260350207166403,2.198820200367127,1.7886956812571044,1.4431709799009544,1.0154829197895883,0.7241446166572922,0.4375416100285736,0.27919937300807207,0.19107570769506177,0.17795042570018726,0.03005751976064086,0.040779576428411096,0.0566786927050656,6.879296477945668,5.307881802688877,4.699251345242874,4.145041616993131,3.544216448631116,2.975077125735189,2.346934565276051,1.8269089490888388,1.3493758609335036,0.9868640367571554,0.7681383481430026,0.5336258201580174,0.42845176985052086,0.311701079591083,0.2501409841297482
0.0,21.0,21.0,0.0,120.0,0.0,0.0,0.0,0.0,-107.0,0.0,-45.0,0.0,0.0,0.0,34.27253218749016,17.55503396713325,4.769411692769071,3.16652659097428,2.6595887511583713,2.249812063447435,1.7569702302978683,1.3720786890427066,1.0093113125662039,0.6960210351534498,0.4031790436113314,0.31105611748469425,0.21028858151251872,0.12779814006007004,0.10328368779652074,0.020925143566729122,-0.002896595831710834,6.909431607146086,5.281813202978461,4.729838233068017,4.2214284843994285,3.613180471064767,2.94703182171544,2.398164139386506,1.8244458176200835,1.351575946889924,1.0000040957745875,0.6802806332003046,0.5447198642852896,0.45251593251645994,0.3129806332451658,0.2536693719777751
0.0,22.0,22.0,0.0,120.0,0.0,0.0,0.0,0.0,-107.0,0.0,-45.0,0.0,0.0,0.0,34.27253218749016,17.55503396713325,4.761855885202765,3.1863890208429635,2.6690397172368856,2.240145040700372,1.8528299095056981,1.4256367752685535,0.9888522326818422,0.6568930506051348,0.4160288989896293,0.35899410458183456,0.1937865214492823,0.22212220366858665,0.11884392997821921,0.08724057218044687,0.059557063405407104,6.953708043344258,5.315794486665217,4.82660954589022,4.2378642751194215,3.6356242575173994,3.0504417709235097,2.451427207570676,1.831586326318078,1.3811617590965695,0.966980065992913,0.6963633362688421,0.5168861468234218,0.42273977704163607,0.29215617761764723,0.2399571789310011
0.0,23.0,23.0,0.0,120.0,0.0,0.0,0.0,0.0,-107.0,0.0,-45.0,0.0,0.0,0.0,34.27253218749016,17.55503396713325,4.72733183743125,3.1794597637579898,2.6805134573050964,2.2486618278867057,1.7847906131785911,1.4537743902425297,1.021003825044166,0.7139819597202092,0.5101058740449427,0.25405908253731413,0.15887116282901548,0.14131513337276172,0.02854454557406852,0.04726456101446229,0.01294592938839493,6.957015944974291,5.371669795081322,4.865327912209519,4.303123651039811,3.6672264459733817,3.064200929220229,2.4427742729418234,1.9479861947609514,1.3477031481942743,0.9906953999904862,0.6569902495953047,0.5164782515124816,0.43550824771518254,0.2970618574212452,0.2518409875629372
0.0,24.0,24.0,0.0,120.0,0.0,0.0,0.0,0.0,-107.0,0.0,-45.0,0.0,0.0,0.0,34.27253218749016,17.55503396713325,4.758191930691269,3.231257508951777,2.7501688471078736,2.300016446287455,1.8452325267222895,1.387134296982801,1.0979119705529616,0.701692344476047,0.48217904027296665,0.26719235919472734,0.23110177695584605,0.11821286447783308,0.08757680788325434,-0.0009069179653401899,0.05879976841099643,7.019109772300773,5.402748483885232,4.845972407364655,4.291645060729906,3.7262349173304314,3.1048662458747174,2.4915148515157473,1.9049049546443915,1.3761630317102207,0.9960402924742984,0.6910561939450406,0.4838407050347831,0.3813519299821278,0.3769943120712,0.2703863962286422
0.0,25.0,25.0,0.0,120.0,0.0,0.0,0.0,0.0,-107.0,0.0,-45.0,0.0,0.0,0.0,34.27253218749016,17.55503396713325,4.787069561258503,3.351939042651517,2.7910169461687806,2.3485790517058405,1.8174915834902883,1.4179806378184756,1.0249034063615952,0.7282076727782065,0.4766066235590729,0.27914206032194366,0.16717149139221665,0.11862031628732783,0.03737255416270184,0.04040971130615768,0.028842016359876634,6.95878134280082,5.459494879475229,4.879358674489378,4.390233839289849,3.7525587013762762,3.128870203431202,2.5095049190635947,1.9240795240269277,1.3690583725728436,0.9888092105208912,0.6761199487731878,0.49586500705555414,0.3627093100869536,0.29077636835134285,0.1939362871379171
0.0,26.0,26.0,0.0,120.0,0.0,0.0,0.0,0.0,-107.0,0.0,-45.0,0.0,0.0,0.0,34.27253218749016,17.55503396713325,4.779710972772701,3.296908800241742,2.8681336647008115,2.3931879993078167,1.928183930811567,1.4603773909547877,1.0518150314631343,0.7530379512993434,0.5093912244176869,0.3023043781004054,0.22856123576472873,0.16777784991832428,0.02393609685111909,0.07562117267168868,0.039365520323069655,7.026367903780578,5.540110608494317,4.92030884843638,4.359602675760529,3.8206972605065532,3.1397147189111023,2.508063151477712,1.9351095480640252,1.4059495186152862,0.9690202223664696,0.6952731390777981,0.47518513834339504,0.37772234114757997,0.2683497270773904,0.19370749468128398
0.0,27.0,27.0,0.0,120.0,0.0,0.0,0.0,0.0,-107.0,0.0,-45.0,0.0,0.0,0.0,34.27253218749016,17.55503396713325,4.816739224519548,3.398707944878714,2.8951723652725345,2.365829435111314,2.0434882386817272,1.4761545983618454,1.035448612874001,0.7732580966265056,0.4726766981173611,0.38207565873363253,0.21686674447497473,0.11170181563916327,0.13837608809329627,0.08839515710841393,-0.005189027508669369,7.063862301569591,5.54186760187268,4.984860408366914,4.443229232337511,3.808073694480892,3.1617790079596886,2.5567173101529086,1.9179940029682039,1.3778129528068488,0.9929310414295166,0.701590898650452,0.48012109579603157,0.3835953206567067,0.2751048560509989,0.18595804897655016
0.0,28.0,28.0,0.0,120.0,0.0,0.0,0.0,0.0,-107.0,0.0,-45.0,0.0,0.0,0.0,34.27253218749016,17.55503396713325,4.830893006108696,3.3386156870386077,2.9364045632111524,2.3838844583945864,1.9253789116380886,1.4997840896374242,1.090609829061675,0.6933437078700455,0.4578410602881372,0.31541472734631626,0.22651389469555144,0.12924596103783412,0.07771735621191476,-0.00111866550741338,0.015392526396672337,7.078576130837989,5.627435488522269,5.053187563332244,4.483833233807697,3.8943105528936623,3.291852738340956,2.558683517438462,1.9509881070860513,1.4825407921623734,1.0242922114596043,0.6977614652549509,0.4892628722102481,0.335094684905371,0.24187512578381057,0.17991383314821097
0.0,29.0,29.0,0.0,120.0,0.0,0.0,0.0,0.0,-107.0,0.0,-45.0,0.0,0.0,0.0,34.27253218749016,17.55503396713325,4.924263300323651,3.3771304219016827,2.9483686493906585,2.44507329625181,1.9704004417379388,1.5513113697638696,1.1342305698438147,0.7695826922640316,0.42755950775272694,0.36536941931479083,0.23281601868163354,0.11792771895421175,0.07658909250267905,0.11854988930659643,0.0705338770003448,7.089067823578501,5.636728806424259,5.069728027803368,4.550320084451178,3.926099668916153,3.2152357047556177,2.6074341649556545,2.0066485135182184,1.4293032582211393,1.0274997315688914,0.658766385685185,0.4795435252942208,0.2977907067976783,0.2424075338769095,0.1778827204096192
0.0,30.0,30.0,0.0,120.0,0.0,0.0,0.0,0.0,-107.0,0.0,-45.0,0.0,0.0,0.0,34.27253218749016,17.55503396713325,4.870280756948862,3.530307031496241,2.985123601826734,2.4810725644084357,1.9720832551632015,1.5321493181210841,1.0769623840216085,0.8010662980453425,0.5744605487278982,0.3490673153349241,0.1973365584933885,0.10693357073324546,0.05933196125069222,0.11456906733034289,0.014051493892781972,7.158632070104497,5.660249887570251,5.111399117209298,4.519168492188132,3.94057004031322,3.253691009751351,2.659513823027259,2.0151535460876553,1.4886518063662608,1.0424994678464525,0.6760005854967023,0.4761738029653217,0.3748518349248565,0.2505101305978844,0.16402626014087185
0.0,31.0,31.0,0.0,120.0,0.0,0.0,0.0,0.0,-107.0,0.0,-45.0,0.0,0.0,0.0,34.27253218749016,17.55503396713325,4.850537906153866,3.4848932962919092,2.9313644008402195,2.558802409527832,2.0613602147583023,1.5261020469538475,1.1505878329424735,0.7522146899232232,0.5049155478511519,0.3269558360316726,0.16949447304252044,0.12670026359445147,0.010950250515940806,0.05384141160415862,0.03231658875438561,7.087603093704139,5.688386200753607,5.116207724512007,4.613291032884197,3.9757621863071417,3.3205325062704865,2.614264015565054,2.050337046392486,1.5124985519147265,1.0285883720667162,0.7280397020876566,0.4656812910608607,0.29241820448852546,0.20964320708852885,0.1959803002040248
0.0,32.0,32.0,0.0,120.0,0.0,0.0,0.0,0.0,-107.0,0.0,-45.0,0.0,0.0,0.0,34.27253218749016,17.55503396713325,4.9501737052080355,3.588656513485832,3.0330135141740313,2.5678524218884795,2.136837784034154,1.6297286349713171,1.1242139704795815,0.7956197396527074,0.5299699302202824,0.34397876774750513,0.18876003011233095,0.09251098135286333,0.0700419780830933,0.030516342688961886,0.09323894642948816,7.20526099843847,5.77637789549245,5.219395830970909,4.640140705245292,4.03809799820021,3.36935726781851,2.682522230491296,2.0629154076131377,1.519250171629576,1.0802456721464506,0.7178104691775572,0.4725205062378126,0.3128472519370584,0.20522751055284427,0.17510101375404158
0.0,33.0,33.0,0.0,120.0,0.0,0.0,0.0,0.0,-107.0,0.0,-45.0,0.0,0.0,0.0,34.27253218749016,17.55503396713325,4.953651716123042,3.597712871219887,3.1179503375295865,2.595360365085326,2.0647339692329445,1.5633114296035013,1.0997570597043425,0.839314255728322,0.4520709691198559,0.28508898023458273,0.10293214342747896,0.09803210298455421,0.056142136232826614,0.03168911815494662,0.028895926808970258,7.17811142252489,5.804695082079079,5.300179566184681,4.677496074534,4.067542129028814,3.3548179066648958,2.7310806407401342,2.096142271995286,1.52356913927103,1.0399053632181265,0.7123821535623902,0.46916513806556115,0.32571114897358866,0.2124644880562219,0.13896723742930617
0.0,34.0,34.0,0.0,120.0,0.0,0.0,0.0,0.0,-107.0,0.0,-45.0,0.0,0.0,0.0,34.27253218749016,17.55503396713325,5.021490192894313,3.6372126280627883,3.1109730609495023,2.659956215924886,2.0492088376134303,1.6520020383653817,1.1381158258199031,0.78395580823715,0.4922180873260467,0.32542356260361727,0.11866621522164109,0.0882023968047947,0.0483927540537224,0.09058530639194642,0.03552638310479214,7.2496120960565,5.875994614533134,5.272590125357962,4.750446407337669,4.0612168272988285,3.3927657816937207,2.7220676332396216,2.1018064932255345,1.5277714329472494,1.1064793650146958,0.7027282327230293,0.4818426283565528,0.31673862459114793,0.26093506702609903,0.1713101438251634
0.0,35.0,35.0,0.0,120.0,0.0,0.0,0.0,0.0,-107.0,0.0,-45.0,0.0,0.0,0.0,34.27253218749016,17.55503396713325,4.970235522249629,3.723833592797709,3.145781953411955,2.630942660604753,2.177396964529581,1.6201199133921318,1.2010549161393969,0.7786197277706046,0.4971682879654546,0.391212520270987,0.16038900667810496,0.08709078244399292,0.003905623878983258,0.10246331728662599,0.04342701483052443,7.268269784163448,5.949202916742792,5.311381898901026,4.756264222481966,4.116462185391381,3.3989677642318976,2.7727238022464222,2.0984335680666617,1.5388365597255524,1.0881483301279666,0.7037084268819335,0.4685861195423921,0.385984942788107,0.2363771386170874,0.19786771537701497
0.0,36.0,36.0,0.0,120.0,0.0,0.0,0.0,0.0,-107.0,0.0,-45.0,0.0,0.0,0.0,34.27253218749016,17.55503396713325,5.066306827478789,3.694703999923864,3.1997858857221724,2.6329073666255898,2.0681722032894356,1.679090766008802,1.2156143229270004,0.8462495276492631,0.5341887328146148,0.4004380462552332,0.18701889770573177,0.08787280969213104,-0.044255352544252655,0.04051071543669043,0.05813229962941313,7.294206845625956,6.001569128700834,5.450709072190416,4.8079192084755675,4.185934130079347,3.4288309641719343,2.7905869117377677,2.118834362496206,1.5548425073703729,1.0889878649809852,0.7217474303571934,0.4615043177185872,0.3144269052827353,0.21561006453086848,0.13433043390273744
0.0,37.0,37.0,0.0,120.0,0.0,0.0,0.0,0.0,-107.0,0.0,-45.0,0.0,0.0,0.0,34.27253218749016,17.55503396713325,5.133201456955499,3.7450412784603557,3.2680385758721555,2.716487431847308,2.1870335914513,1.593289847964581,1.157979666474594,0.8586994316363843,0.5116251141129675,0.3120465915825545,0.18141808026949405,0.15719958101479264,0.07710789668983686,0.08844893881261832,0.01742696485655504,7.333246515309088,5.989561889515401,5.468900128656282,4.857752185235651,4.1940023719274855,3.5058627273826777,2.824745469001976,2.1310283781113615,1.61056752784454,1.0835204091289565,0.7396409205960109,0.5119420495443375,0.29725592366827414,0.22052100515674178,0.17350751294083097
0.0,38.0,38.0,0.0,120.0,0.0,0.0,0.0,0.0,-107.0,0.0,-45.0,0.0,0.0,0.0,34.27253218749016,17.55503396713325,5.1472016928553375,3.7549928947544715,3.225404037235779,2.773765057174534,2.2425116761044235,1.7195500791091545,1.2608481745727174,0.8352548439753736,0.5515373119122111,0.27924520551560866,0.20445434935044596,0.1299375288685919,0.04155052548593617,0.06325443371083889,-0.03944692386981107,7.38256852115687,6.078521847669028,5.540155103547406,4.93370650925559,4.267474669894409,3.5484609955155606,2.8305681362201374,2.127496649472039,1.5796457369986554,1.151804878496,0.7046818662939178,0.46068648457311506,0.275383026633236,0.242362836764625,0.13950724543196785
0.0,39.0,39.0,0.0,120.0,0.0,0.0,0.0,0.0,-107.0,0.0,-45.0,0.0,0.0,0.0,34.27253218749016,17.55503396713325,5.254703480556427,3.8445104688944722,3.2875977081576773,2.834788180676025,2.2709338677957973,1.606900928895068,1.2482961617936514,0.8634153059701207,0.5569953819860207,0.3138283424534596,0.1954482262055915,0.09338814393814242,0.06953304617899964,0.03162702734335138,0.002901756290177304,7.40222906156278,6.141832680919722,5.540897669507498,4.927483124225631,4.276356323267444,3.585796365481361,2.877360004217888,2.200538899756656,1.6127376042943387,1.0992562505004417,0.7123812142197613,0.4676211391593852,0.2738374223852307,0.19171564560814391,0.14449086673679254
0.0,40.0,40.0,0.0,120.0,0.0,0.0,0.0,0.0,-107.0,0.0,-45.0,0.0,0.0,0.0,34.27253218749016,17.55503396713325,5.211305047131107,3.8950767560460724,3.2963783458501528,2.8286226273832344,2.300114439613641,1.7085603656674446,1.2720583413860123,0.9483382228537381,0.5513545206878796,0.36475665264261375,0.20311626983315215,0.14315482811445873,-0.0010032477924913213,-0.00021598802085499857,0.029795238901244296,7.459128411998582,6.174815393766138,5.5385039041787865,4.964363439317976,4.286395750694776,3.600861285104618,2.8468354791644304,2.17598003696432,1.6385526285579102,1.160232336799975,0.738815916019967,0.48296754733623304,0.26240898080376873,0.2094204480377805,0.16998983347625538
0.0,41.0,41.0,0.0,120.0,0.0,0.0,0.0,0.0,-107.0,0.0,-45.0,0.0,0.0,0.0,34.27253218749016,17.55503396713325,5.29459137885922,3.960210710169428,3.37518252808289,2.8294629858485645,2.28240724404649,1.6906434908261552,1.3187415597345513,0.8795751058719798,0.5564025191600201,0.32162010445525197,0.1950161935458817,0.1372214252201294,0.09725782127623656,0.00447707439226331,-0.01134469888244596,7.5302372374909465,6.2526133962516495,5.648305423469297,5.025764631268333,4.367075801183029,3.5924250301796388,2.9253446374091956,2.2092787667338123,1.6455464551256433,1.1546769213729313,0.7508644570927493,0.47234815788946777,0.3271984115418422,0.22411161696392878,0.1044873846935026
0.0,42.0,42.0,0.0,120.0,0.0,0.0,0.0,0.0,-107.0,0.0,-45.0,0.0,0.0,0.0,34.27253218749016,17.55503396713325,5.246541714153776,3.967273064169763,3.3978226499455713,2.846582593412425,2.327395856619248,1.7520245406464448,1.317439768239373,0.9212661914689321,0.5645671811258934,0.40884620598920945,0.20009749519296524,0.09292801682366239,0.06251459818274481,0.07056966516534305,-0.03522511157189675,7.506845934679502,6.282285308885042,5.68831967736981,5.064373575379119,4.394820538625092,3.6619116844910193,2.9003908883883405,2.2785835616178742,1.6512238668522012,1.1427526120156772,0.7473851119409171,0.5005425748414236,0.30266741103550016,0.2537127828801023,0.12981075477734547
0.0,43.0,43.0,0.0,120.0,0.0,0.0,0.0,0.0,-107.0,0.0,-45.0,0.0,0.0,0.0,34.27253218749016,17.55503396713325,5.3101904184339395,4.053780389903318,3.4832002603009045,2.8436474664512805,2.3331744801594594,1.77614011091976,1.272533168841267,0.8531610315405257,0.5218287634459664,0.3783287838093716,0.17968599034264104,0.07204125722179948,0.03227341359712982,0.018584479785432918,0.02642701513794351,7.5719520918135945,6.301569248473645,5.715864806868696,5.084347523871694,4.337390753137662,3.6905951404229453,2.974933250682095,2.2592634167250623,1.6435520600594253,1.1616224616916873,0.7404288510551853,0.47857344046311684,0.29093688473283696,0.17950058665642213,0.1448513240894027
0.0,44.0,44.0,0.0,120.0,0.0,0.0,0.0,0.0,-107.0,0.0,-45.0,0.0,0.0,0.0,34.27253218749016,17.55503396713325,5.51582035527496,4.172318988676222,3.517413307416828,2.9971425452062963,2.4066373120822107,1.7863392595128547,1.3244476448595939,0.8321458355636107,0.5470654534182594,0.3626279219791958,0.1875362365772863,0.1733385917839044,0.08293340762144624,0.021196808039012124,0.00485563252230288,7.600925389044207,6.351809879604945,5.793658794001726,5.1287357726417575,4.476021954283895,3.715022167388646,2.9740421399777324,2.242786112214984,1.6738703581589733,1.2219290380166314,0.762056839512718,0.4907984594228852,0.3317416739755856,0.2115330175965436,0.14284723248325165
0.0,45.0,45.0,0.0,120.0,0.0,0.0,0.0,0.0,-107.0,0.0,-45.0,0.0,0.0,0.0,34.27253218749016,17.55503396713325,5.415318249894614,4.106017319565001,3.5670684874067633,2.9817735842469215,2.401650406051027,1.8396862078280976,1.2893063646241043,0.9127634755155322,0.6503461706974628,0.3203428858414588,0.18727698311884716,0.10846093329061912,0.10052489649205898,-0.008495188204834234,-0.0172338587897275,7.57948287783835,6.421726524085083,5.846235423007018,5.236489655174351,4.50879992860652,3.7368324115477467,3.0060995972674704,2.2893642295784558,1.6388400600292694,1.1513892213553731,0.8107786892742406,0.49387954148513696,0.27062180241081446,0.21088944608318783,0.1537067371503126
0.0,46.0,46.0,0.0,120.0,0.0,0.0,0.0,0.0,-107.0,0.0,-45.0,0.0,0.0,0.0,34.27253218749016,17.55503396713325,5.489914669221431,4.236266367616757,3.4623546387902446,3.075563128442705,2.4768599398123885,1.8105706355429143,1.339523101046813,0.8910990658954923,0.5839483736497618,0.34491595479535747,0.15767480547315857,0.17941951390853372,0.04784398341376646,0.03767175360646385,-0.01577176591615082,7.655648535266104,6.498652287895481,5.893094865314063,5.277749335658896,4.5670768966556885,3.778872760768708,3.004317460965939,2.3205620773522293,1.6810448557213844,1.2069051179041295,0.7923281941918054,0.5147971135791966,0.3142594205023096,0.16960964151749625,0.1108086536433326
0.0,47.0,47.0,0.0,120.0,0.0,0.0,0.0,0.0,-107.0,0.0,-45.0,0.0,0.0,0.0,34.27253218749016,17.55503396713325,5.590892167542111,4.340103358648248,3.6041809914859475,3.0767771891817706,2.4722149424633693,1.8169179569184644,1.3613936684916237,0.909365207578821,0.5163509023109957,0.4228491520824494,0.17648179444818418,0.06509232527171994,0.07418168552630162,0.05356134880304976,0.046838020011233245,7.720095226713767,6.542216649340016,5.9116007658290695,5.268236544464093,4.606497583545776,3.814286808363627,3.035917061840955,2.276353691090502,1.7047958282103504,1.1785718535874083,0.7865937558763432,0.48862656877314875,0.29098589541849657,0.21026119922669884,0.1363407932491084
0.0,48.0,48.0,0.0,120.0,0.0,0.0,0.0,0.0,-107.0,0.0,-45.0,0.0,0.0,0.0,34.27253218749016,17.55503396713325,5.661862053864192,4.264643968859127,3.6778354300185967,3.113207559014658,2.475850796881626,1.893637056268969,1.3139467753152663,0.895582971939476,0.5386695523788659,0.33446592942355663,0.23485110647967727,0.10453802006334431,0.11343212249922072,0.011414146469885606,0.02402363400346917,7.744906065816368,6.667528922054719,5.977882636888159,5.369833623566676,4.630238554899424,3.835644060899341,3.0343804090528086,2.3446889046044075,1.7097704106926548,1.2029875045239198,0.8106056376679458,0.49829865255972666,0.3090786663843376,0.19230551670366733,0.09398253563697877
0.0,49.0,49.0,0.0,120.0,0.0,0.0,0.0,0.0,-107.0,0.0,-45.0,0.0,0.0,0.0,34.27253218749016,17.55503396713325,5.729629629523465,4.420950054568198,3.7062314466399955,3.1740915098972535,2.4965720523614814,1.8904356198496557,1.372873670105065,0.996170395418052,0.6434359369880632,0.39230409243996395,0.169589993129729,0.20565581619937912,0.09055927067751879,-0.052400004841903935,0.03370239498554013,7.814295299976737,6.665091182505838,6.045450597384215,5.372282561806666,4.7062330245601265,3.887965262802704,3.113736998562843,2.391089969571314,1.7191639557671732,1.1956329985586232,0.8269202055493123,0.5298069443190998,0.2726242676603075,0.23051926382482651,0.11805817095589928
0.0,50.0,50.0,0.0,120.0,0.0,0.0,0.0,0.0,-107.0,0.0,-45.0,0.0,0.0,0.0,34.27253218749016,17.55503396713325,5.758940249244428,4.452925712061576,3.7613217480461434,3.1606105158795903,2.472745192540576,1.897505805804795,1.33254846672767,0.9423998183679144,0.6605732882522505,0.3725092889541338,0.2255101955121544,0.14204566076372255,0.0835883356424307,0.018259590242567833,-0.03408975269106098,7.86660986658369,6.712567884933696,6.064949810488913,5.452868110791845,4.694257469757122,3.9317746056586884,3.0983740172253937,2.3578171795935847,1.7890512767663138,1.225581639133323,0.8207111384759684,0.4799570154043507,0.29477125751630157,0.2014867248394892,0.15424808072413262
0.0,51.0,51.0,0.0,120.0,0.0,0.0,0.0,0.0,-107.0,0.0,-45.0,0.0,0.0,0.0,34.27253218749016,17.55503396713325,5.760539441155505,4.455332736282687,3.8484634368695603,3.175475058784253,2.5834334341548524,1.961517096513251,1.4304461138099949,1.002854228500524,0.636946997342013,0.4038579571004553,0.21688833767165924,0.10161066476965863,-0.013171707777817704,-0.0001483623927779898,0.02627591273046521,7.884740815937668,6.774840331628033,6.130764929099889,5.465433078673784,4.731163370421528,3.9681824360780187,3.1643392789583915,2.353504799536688,1.7593454289703614,1.2543006135004613,0.8092347505931139,0.5092833465885401,0.272097443210446,0.17613601450588726,0.15813908530922427
0.0,52.0,52.0,0.0,120.0,0.0,0.0,0.0,0.0,-107.0,0.0,-45.0,0.0,0.0,0.0,34.27253218749016,17.55503396713325,5.82048960192745,4.4881929581851985,3.9055924965535618,3.3076872369598598,2.6626680595884085,1.9673350247009442,1.4270058542623707,0.9802500633730041,0.6456350175574727,0.36011854634723656,0.27903924933994917,0.0905655540154729,0.08483670906192575,0.030846320163898912,-0.003193278309757918,7.966307917166003,6.81060787243192,6.183549167328581,5.51408986366549,4.80219196791385,3.9672919105729814,3.154992193667084,2.4284887097557832,1.7737860078839314,1.2120754045505737,0.8006015349481974,0.5062832812198902,0.2928172405367321,0.20148417231679636,0.10195346628374352
0.0,53.0,53.0,0.0,120.0,0.0,0.0,0.0,0.0,-107.0,0.0,-45.0,0.0,0.0,0.0,34.27253218749016,17.55503396713325,5.877697347298873,4.565360479337193,3.966999932718861,3.337851659455054,2.5843158724219992,2.0340569364942476,1.4665166505024483,0.90712757326719,0.6022321167895118,0.4355682425277717,0.25515679979550787,0.11722693466084552,0.07752616192002454,0.10780110075692421,0.035865875276156776,8.005077185081534,6.922039731947759,6.226906050323757,5.615146910405168,4.8432830159873665,4.040507166793875,3.232444322352048,2.402667747145178,1.7881769063946886,1.2954548507665242,0.8480693882934958,0.5178454292629933,0.2845924221089564,0.18736817026822747,0.09741047131613548
0.0,54.0,54.0,0.0,120.0,0.0,0.0,0.0,0.0,-107.0,0.0,-45.0,0.0,0.0,0.0,34.27253218749016,17.55503396713325,5.923512768994332,4.690662674017111,4.005403281188993,3.3312274464007405,2.6971782126054866,2.014876370672005,1.5167405750751395,0.9784841443174134,0.691394823969784,0.3570540847662541,0.2426838046350018,0.18402979431417266,0.06939515353787896,0.07231222563022899,-0.04550196805142939,8.115640123319588,6.945477813482579,6.325338574768201,5.661515080926724,4.8124244596956265,4.042504091990429,3.206519372795055,2.459278459863803,1.7596265806582363,1.237720157838514,0.8546340196352578,0.5214241554866371,0.2846012217360516,0.17937579022457875,0.13842773291314434
0.0,55.0,55.0,0.0,120.0,0.0,0.0,0.0,0.0,-107.0,0.0,-45.0,0.0,0.0,0.0,34.27253218749016,17.55503396713325,5.976855706926818,4.720745115685433,4.04653417579391,3.4125362356953097,2.7348213303178457,2.130848980303569,1.486692395432988,0.9677459044191976,0.6855680786738827,0.35871289584128796,0.23804870957905674,0.1750349098904022,0.09880835125196952,0.0603742986723456,-0.06364411320802313,8.150810417788918,6.9889021396156785,6.395980245850718,5.7109387153576465,4.918716145566671,4.107686089348725,3.2336828705303113,2.4898119120535767,1.8190141763430416,1.233803478751766,0.8463558496404472,0.5363748051578776,0.3345101493564179,0.19559799268527325,0.13525930079970713
0.0,56.0,56.0,0.0,120.0,0.0,0.0,0.0,0.0,-107.0,0.0,-45.0,0.0,0.0,0.0,34.27253218749016,17.55503396713325,6.052405216883012,4.777386725022011,4.103868688697619,3.4363962429369033,2.7457847612358837,2.0603891844125974,1.5096769288691532,0.9627781209277804,0.6498765845256959,0.3960854018357822,0.229230708055798,0.08458615098903413,0.11071578508522825,0.022716776840402506,-0.03526945321506361,8.235569126534287,7.065613795132425,6.414612915848177,5.737247549259238,4.965390500442455,4.1220763505661075,3.2575991511515747,2.461882763984414,1.8373220832670807,1.2465769703995095,0.8691291602490611,0.5044126457164952,0.2926790555632114,0.163552415359549,0.08418954234585169
0.0,57.0,57.0,0.0,120.0,0.0,0.0,0.0,0.0,-107.0,0.0,-45.0,0.0,0.0,0.0,34.27253218749016,17.55503396713325,6.166018930452469,4.845469796717066,4.071012101250851,3.3978365840174667,2.755909447013329,2.1407724919469158,1.4495052638385182,1.0068250329147073,0.7038449175936513,0.3484485326874228,0.20986838101527966,0.09289332306711796,0.09263037306041495,0.047562279743670624,0.038822428876210555,8.344256310631826,7.1716582213130815,6.471515591704309,5.785587064006874,4.962414978422647,4.116738215052245,3.3018796304622327,2.4842240549976826,1.8582262940425867,1.2717321838591182,0.8381307586984758,0.49519051894536853,0.3571391017956463,0.20027156017919215,0.09689370773967325
0.0,58.0,58.0,0.0,120.0,0.0,0.0,0.0,0.0,-107.0,0.0,-45.0,0.0,0.0,0.0,34.27253218749016,17.55503396713325,6.280468389408475,4.976737451422015,4.1828806527617175,3.615393845069302,2.7785775983359575,2.125322751765538,1.4528582862498836,0.9256689541897669,0.6944219791252133,0.4032861125548637,0.16457469761559468,0.061251531078904756,0.10210046662095904,0.025248767034480694,0.06799834475847182,8.353876620368505,7.1878242279250095,6.532601664946763,5.828006107529626,5.045650560282893,4.19309492644138,3.3502806740887916,2.530182359122709,1.8763862896186632,1.31865111487813,0.8605954131660072,0.5039228455188016,0.31059345879971123,0.14400967917754745,0.08546035509653487
0.0,59.0,59.0,0.0,120.0,0.0,0.0,0.0,0.0,-107.0,0.0,-45.0,0.0,0.0,0.0,34.27253218749016,17.55503396713325,6.382753507734964,5.009862002510151,4.276776699281069,3.574553028685632,2.8254329488005734,2.137876440030304,1.5679031662865945,1.0478931985089448,0.6129382616589875,0.41081349948564244,0.23451464886207266,0.1814136139830049,-0.0026696700839992787,0.002305359958209411,0.05121451585872394,8.367875916400365,7.317923454135738,6.558442791491244,5.895396377386563,5.101896476707566,4.252357723253771,3.3748454510991266,2.5430727296460454,1.8921429725584222,1.2908005632839177,0.8509399361462343,0.545424422120553,0.34777962751822344,0.1795850595661248,0.09123366861615703
0.0,60.0,60.0,0.0,120.0,0.0,0.0,0.0,0.0,-107.0,0.0,-45.0,0.0,0.0,0.0,34.27253218749016,17.55503396713325,6.483167994854505,5.005994484729399,4.40870918361576,3.5947833110387966,2.9151593454125684,2.2186089752418443,1.5780781026424207,1.0490591364832538,0.6713066364969437,0.3465733488488528,0.20284684150897614,0.1488174244730956,0.08529880127689357,-0.006951321547956378,0.02834392834519918,8.47151645702356,7.364510426073533,6.637617032511863,5.933750895512521,5.109170698339978,4.242415858747213,3.394406241037548,2.5573716176579597,1.9095680251669163,1.3027362191686445,0.9016939365004855,0.5481784320856876,0.3229697283051457,0.16030907099072533,0.11610821615015551
0.0,61.0,61.0,0.0,120.0,0.0,0.0,0.0,0.0,-107.0,0.0,-45.0,0.0,0.0,0.0,34.27253218749016,17.55503396713325,6.516311351694933,5.153253165906323,4.372872398027737,3.624155158549126,2.93757228064589,2.2146329178787396,1.5748783725688467,1.0885230084393942,0.6410967459908716,0.3233805357893439,0.25032755040620763,0.1381701827487173,0.044359755828145504,0.03673903801842513,-0.0222825094280313,8.470661548908454,7.334683140269076,6.7094832015584585,6.0368436232291,5.1681285486158295,4.32386100903042,3.3991270492622077,2.5924417455975055,1.917115015600704,1.3286638889825249,0.8624691568740778,0.5242606598204996,0.3173140087802085,0.2098724409872155,0.07535488049016476
0.0,62.0,62.0,0.0,120.0,0.0,0.0,0.0,0.0,-107.0,0.0,-45.0,0.0,0.0,0.0,34.27253218749016,17.55503396713325,6.635556905512621,5.209812496323212,4.414192148688799,3.7299098010379717,2.9561103021368482,2.1994858496361758,1.5627601622113425,1.01515567258316,0.6056764931387252,0.4193617281288406,0.27285486410270543,0.1835888449538387,0.021753658450455036,0.10823795715774648,0.07060821622098234,8.639047196631028,7.424919624364488,6.753415552313985,6.0035670739113405,5.2287748335141355,4.331084751154412,3.4453011782301854,2.5945199660783427,1.9281965820226226,1.3424416005633604,0.8551931073812863,0.5453799226107595,0.3271537530727036,0.22768443132179397,0.1097872152760889
0.0,63.0,63.0,0.0,120.0,0.0,0.0,0.0,0.0,-107.0,0.0,-45.0,0.0,0.0,0.0,34.27253218749016,17.55503396713325,6.646116134728925,5.257338244079434,4.513010082712934,3.775004678134471,2.9300303201104088,2.2499053664147097,1.574544029682677,1.062916437038593,0.7662080233341345,0.3868916554509199,0.2889862037618247,0.16736131975603713,0.08709808069877228,0.030691895218997203,0.03891712529856234,8.654591726728503,7.497637838653154,6.809253252878999,6.116064232599359,5.264853757887109,4.372272230004151,3.5037669510171847,2.6178007676642254,1.9435388779853322,1.3324592195803318,0.851244862807836,0.5193438096552817,0.31251633002103385,0.19897028453742127,0.12068642326215931
0.0,64.0,64.0,0.0,120.0,0.0,0.0,0.0,0.0,-107.0,0.0,-45.0,0.0,0.0,0.0,34.27253218749016,17.55503396713325,6.765273590298915,5.369473258772964,4.579405257730106,3.8204305715810363,3.073600614338412,2.335359338146729,1.656754156110269,1.0720774134165474,0.715392563201839,0.34298178198323487,0.2456116410294185,0.13928051108387446,0.06823349563020448,0.02256964472859091,0.062281313674500474,8.735228980785458,7.575821563602053,6.88446369889926,6.191108421533384,5.309513579273528,4.395258041361396,3.49569013485443,2.694264066032709,1.934088918168651,1.3667695111255036,0.8855558123406856,0.5475043016816064,0.3129153584748706,0.16044476966668406,0.10432008694108176
0.0,65.0,65.0,0.0,120.0,0.0,0.0,0.0,0.0,-107.0,0.0,-45.0,0.0,0.0,0.0,34.27253218749016,17.55503396713325,6.898039437647032,5.4841290624213785,4.657414373034417,3.849676673050485,3.1083603484592444,2.334880069060402,1.6892272730475313,1.172185870253511,0.7455960268570996,0.4099403951153301,0.23455430269254607,0.16909437365246732,0.044737438251447756,0.025572879046514802,0.037902942822997526,8.840470105990324,7.653638984075103,6.874961778869376,6.228419926866911,5.356263815097887,4.429807323894684,3.527659004652301,2.7011807981092564,1.9293563078154015,1.3974910428763028,0.9186200343262225,0.5769774377555915,0.3094082010499855,0.1813631454313932,0.09809304728380265
0.0,66.0,66.0,0.0,120.0,0.0,0.0,0.0,0.0,-107.0,0.0,-45.0,0.0,0.0,0.0,34.27253218749016,17.55503396713325,6.961631940511653,5.492936849461827,4.69092197315345,3.9273943640961675,3.110571432192879,2.3557672580969813,1.5924898092193527,1.1237155741591247,0.7698179987115634,0.46701903456078925,0.20777375647763618,0.1659002182336934,0.1463992434047057,0.02193908423603244,0.040912288815022464,8.949079714117614,7.744678400299184,7.058272255178311,6.246703539826537,5.41806533858666,4.502226234636827,3.569659874570044,2.714179188075174,1.9725687767682496,1.342444656027843,0.9262692661027951,0.5685662901481233,0.3035739549088202,0.20328549826957287,0.11738339998108525
0.0,67.0,67.0,0.0,120.0,0.0,0.0,0.0,0.0,-107.0,0.0,-45.0,0.0,0.0,0.0,34.27253218749016,17.55503396713325,7.081393731042085,5.561624467239637,4.835833609078036,4.0104815549988615,3.1281742026596318,2.3147036177069187,1.6443482307104629,1.0287135189525114,0.704245325754238,0.43608420962064326,0.20008758360601744,0.10915349984012332,0.1201403988687792,0.03466425561578256,0.07024163128521826,8.951926048469579,7.780624474160637,7.020163200212484,6.3518290443695955,5.488571834326028,4.522786874027621,3.5779040850634374,2.7355642474415207,1.9665175879923718,1.3633650942354196,0.9157180152298725,0.550916187357713,0.34350984033413223,0.1684238019045489,0.13716395370037485
0.0,68.0,68.0,0.0,120.0,0.0,0.0,0.0,0.0,-107.0,0.0,-45.0,0.0,0.0,0.0,34.27253218749016,17.55503396713325,7.185837104488917,5.655797058969745,4.80043509926993,3.999453572908368,3.1648397256749727,2.3477714368580784,1.7426593257608194,1.1409786938754722,0.7598291017081269,0.4985143123308412,0.29338525395168075,0.14615401195184968,0.049428912205383535,0.057968707295364755,0.022261823490656123,9.02550713810967,7.841490528492066,7.173772755987696,6.4291962255270585,5.501943094069361,4.559617760797303,3.6316967902631854,2.7227865656333057,2.011124666917333,1.4283706873556201,0.9054586157914697,0.567902032726385,0.3747219545817274,0.18064552921952307,0.1080307264976908
0.0,69.0,69.0,0.0,120.0,0.0,0.0,0.0,0.0,-107.0,0.0,-45.0,0.0,0.0,0.0,34.27253218749016,17.55503396713325,7.218852131259235,5.704927036801178,4.847706819857792,4.213946111276317,3.2639935503354747,2.430332338966375,1.6711354624960564,1.0718317230480139,0.7359292592790431,0.43323225029829,0.26596550491680154,0.15587130597717005,0.10136548599407859,0.029432253822277467,0.03702652059813356,9.098333535256053,7.903241296148932,7.200354041840371,6.4685318217875905,5.573959428202807,4.60978152231265,3.652431190120191,2.7962147641208355,1.970865839462508,1.3713270549883867,0.9199705914610408,0.5858410703165335,0.32977979376390204,0.2083107059051577,0.04146026775855571
0.0,70.0,70.0,0.0,120.0,0.0,0.0,0.0,0.0,-107.0,0.0,-45.0,0.0,0.0,0.0,34.27253218749016,17.55503396713325,7.263204813155555,5.793231645360813,5.082272936377068,4.152790974086931,3.195778239449446,2.447963072367071,1.7536454851785237,1.1872221542683827,0.7510448765226007,0.43353735304888413,0.27425150521505687,0.1735160488776713,0.0450447078452014,0.026588914416919934,0.009535758599790582,9.138958841459955,7.963885636309325,7.212130505360123,6.509084136942012,5.600420789631812,4.641601877837907,3.6738642458605213,2.792106445437525,2.0108710615313976,1.434406187218215,0.8913212988139498,0.5739474261291265,0.33418179062078907,0.20791625898311922,0.09415505064254544
0.0,71.0,71.0,0.0,120.0,0.0,0.0,0.0,0.0,-107.0,0.0,-45.0,0.0,0.0,0.0,34.27253218749016,17.55503396713325,7.517195505964099,5.89152044198064,5.039548233446823,4.203789047892683,3.3541666781464867,2.524840791379395,1.72695787298141,1.1106866427207034,0.7043094950896697,0.45184363598840177,0.25081206304679454,0.137703427325933,0.039287440365449865,0.05995361763842581,0.008006189894581218,9.220684028998186,8.076420810310246,7.357306931361141,6.5701038974796555,5.661830870534485,4.696141564679159,3.6795407154382023,2.8372036545325816,2.0331857733677507,1.4502017315611941,0.9195985378145558,0.598390052773169,0.3432931994526703,0.1928354190832608,0.08463489217489364
0.0,72.0,72.0,0.0,120.0,0.0,0.0,0.0,0.0,-107.0,0.0,-45.0,0.0,0.0,0.0,34.27253218749016,17.55503396713325,7.633039084510535,6.00490888593496,5.111845429165128,4.316312523635775,3.3738356278529884,2.6077700026426625,1.808043756581685,1.162748068764623,0.7973286873296084,0.45169960960773436,0.32626349284917033,0.1364681055951561,0.06308999389234703,0.03468760827386399,0.02876798021499012,9.394721438837612,8.154170596140277,7.406906465156128,6.613161385413362,5.729729589199277,4.7173472060978066,3.707304406475993,2.8009646057282804,2.044581810514427,1.424230770577397,0.9602696466079538,0.5686498272973621,0.3655490201695858,0.15689063822028604,0.15975629474512018
0.0,73.0,73.0,0.0,120.0,0.0,0.0,0.0,0.0,-107.0,0.0,-45.0,0.0,0.0,0.0,34.27253218749016,17.55503396713325,7.624238929906107,6.083494748205591,5.179789921842769,4.295149965476296,3.4413392797276834,2.5944516837809326,1.7831049130891057,1.2321872217419405,0.7565083286463585,0.4142661240897587,0.2522767303860633,0.11528873640103299,0.08303765190812154,0.016975355550089652,0.011587898126159749,9.399970706202556,8.250889734669807,7.468389714204114,6.658479230654523,5.829177355582922,4.7369753017204435,3.778713881120363,2.7941141958835543,2.076788174061933,1.4405074708923578,0.9375484178903302,0.5551468882239265,0.3237577035597395,0.17526165047729036,0.07945244787830082
0.0,74.0,74.0,0.0,120.0,0.0,0.0,0.0,0.0,-107.0,0.0,-45.0,0.0,0.0,0.0,34.27253218749016,17.55503396713325,7.767290921788081,6.225105854540001,5.279406062254922,4.440500492755376,3.42076691962289,2.5685650075973467,1.744152970760133,1.1549159584282263,0.7503590312412222,0.4415106003343535,0.3217100748808046,0.13925433741626453,0.05719660321504591,0.04816558543772263,0.015196424856782428,9.483601007211355,8.278712247404792,7.585958011425108,6.783698379575623,5.819504321639825,4.8397013517038765,3.837388120178268,2.856332351490487,2.088683226141014,1.4506160397887202,0.9307325079951994,0.5973582598272195,0.31959691808385043,0.19529559803853147,0.09845818848131196
0.0,75.0,75.0,0.0,120.0,0.0,0.0,0.0,0.0,-107.0,0.0,-45.0,0.0,0.0,0.0,34.27253218749016,17.55503396713325,7.945721279508021,6.199132464689758,5.317800497443489,4.524015002673556,3.5002599512036747,2.6198653606449946,1.8051330146864633,1.2133165454449149,0.7821047601225951,0.44325004493008757,0.24984986516007596,0.1302125561619312,0.07792241290764565,0.07257681279084871,-0.010013193194539959,9.624341906401012,8.395926452109732,7.624391268470944,6.839996897345904,5.867979490299218,4.858842647040162,3.8247825590663824,2.882438539942556,2.0945062497543243,1.4137995421106255,0.9675002788949507,0.5842039653984091,0.31457736278506404,0.21448710814188243,0.08355380262364906
0.0,76.0,76.0,0.0,120.0,0.0,0.0,0.0,0.0,-107.0,0.0,-45.0,0.0,0.0,0.0,34.27253218749016,17.55503396713325,8.085903866430511,6.318182901053683,5.45635061666274,4.586989638562855,3.4891158389469075,2.6398788372560436,1.8876172538200264,1.2345299533209204,0.785570616635071,0.49792076514678946,0.23211983123656427,0.09062653343399174,0.041791557478348076,0.08006401874707647,-0.013463616429305639,9.641602828485462,8.483627024843265,7.673978160421763,6.861680699141904,5.882150450302488,4.911997629893166,3.8745169161065154,2.8981358698522723,2.0870124410238136,1.4225356349818319,0.972498049155557,0.6502102844297428,0.3562959246648774,0.2076972703541805,0.1071935245440213
0.0,77.0,77.0,0.0,120.0,0.0,0.0,0.0,0.0,-107.0,0.0,-45.0,0.0,0.0,0.0,34.27253218749016,17.55503396713325,8.18792518184455,6.434822034812579,5.507842685186288,4.541088263274311,3.5504219145047364,2.6870398546313448,1.876211795955653,1.1928891891897013,0.7619929014180045,0.455425729664636,0.2887810097511866,0.1438369076524516,0.06198896939345683,-0.025620769823337976,0.023908573459294296,9.790398801598386,8.592001929061608,7.772278124980852,6.962465385493683,5.996777830243957,4.895788283275811,3.889710757431874,2.9295228036982137,2.118708754017652,1.4930811673156101,1.0012670613787151,0.5779281806296588,0.34626245180859583,0.2046967456583768,0.08772918686815781
0.0,78.0,78.0,0.0,120.0,0.0,0.0,0.0,0.0,-107.0,0.0,-45.0,0.0,0.0,0.0,34.27253218749016,17.55503396713325,8.206710950071352,6.53272193122274,5.530332656258,4.559385024862914,3.6833965388490983,2.779576421438185,1.9139837222943274,1.2650114509413328,0.8055680094061471,0.46923185262833944,0.2809949442626841,0.1342354089783526,0.04129027276720313,0.0783413934760441,0.041185658100895084,9.942798543642294,8.585601158582815,7.792169627836363,7.038262032846973,6.02395412251213,5.019278513966005,3.974119158210054,2.9238865326624626,2.1247331623130217,1.4462001365936858,0.9682510480983306,0.585607107813242,0.3101756226135354,0.1987107631579531,0.13120819644028064
