Line_number,Fiducial,Easting,Northing,Height,Elevation,tx_pitch,tx_roll,tx_yaw,txrx_dx,txrx_dy,txrx_dz,rx_pitch,rx_roll,rx_yaw,PX,PZ,S0X_time_1.086e-05,S0X_time_3.256e-05,S0X_time_5.426e-05,S0X_time_8.680e-05,S0X_time_1.411e-04,S0X_time_2.279e-04,S0X_time_3.689e-04,S0X_time_5.860e-04,S0X_time_9.115e-04,S0X_time_1.411e-03,S0X_time_2.192e-03,S0X_time_3.418e-03,S0X_time_5.339e-03,S0X_time_8.301e-03,S0X_time_1.338e-02,S0Z_time_1.086e-05,S0Z_time_3.256e-05,S0Z_time_5.426e-05,S0Z_time_8.680e-05,S0Z_time_1.411e-04,S0Z_time_2.279e-04,S0Z_time_3.689e-04,S0Z_time_5.860e-04,S0Z_time_9.115e-04,S0Z_time_1.411e-03,S0Z_time_2.192e-03,S0Z_time_3.418e-03,S0Z_time_5.339e-03,S0Z_time_8.301e-03,S0Z_time_1.338e-02
0.0,0.0,0.0,0.0,120.0,0.0,0.0,0.0,0.0,-107.0,0.0,-45.0,0.0,0.0,0.0,34.27253218749016,17.55503396713325,4.439934103025927,2.548885196823218,2.0839580209442876,1.779499877004353,1.5483792354921273,1.3763808475804484,1.2233364598062775,1.075176971427988,0.9290281205047732,0.7802800964585052,0.6300496906060319,0.484759700436963,0.3527285379835961,0.2422068136226562,0.15060440443648554,6.48959965870285,4.472854051406144,3.8558267016074574,3.4234720597423824,3.077250993815754,2.811591769032917,2.5728718699780453,2.337638863064728,2.098543130216202,1.845371008612047,1.5765858326581221,1.3000087299164809,1.0289179684675611,0.7806441009172727,0.5508286577646521
0.0,1.0,1.0,0.0,120.0,0.0,0.0,0.0,0.0,-107.0,0.0,-45.0,0.0,0.0,0.0,34.27253218749016,17.55503396713325,4.4507511267197595,2.5731406008234132,2.101093272674565,1.7667474937726737,1.4934199011104212,1.2941182737275898,1.134700693650448,0.9921277361590201,0.8560454474881407,0.719343510012813,0.5819816866543246,0.4492330007567623,0.32832759480867557,0.22667228421684177,0.1418820325393695,6.512611690828447,4.512247711620346,3.89058173213741,3.422866674848811,3.016426686708367,2.7026117958055824,2.444462983354287,2.2098067982875427,1.9799842387337414,1.7404576034711363,1.4880574578840702,1.229160911857299,0.9754811225210893,0.7427343368171121,0.5264964948505203
0.0,2.0,2.0,0.0,120.0,0.0,0.0,0.0,0.0,-107.0,0.0,-45.0,0.0,0.0,0.0,34.27253218749016,17.55503396713325,4.461463676266545,2.5982118962102683,2.1250546636905763,1.7740120844329903,1.466572160478045,1.2352244668417245,1.0615427316703965,0.919980263414644,0.7914826461670681,0.6649217030562637,0.5387326977456226,0.4170370156488953,0.30604561052168583,0.21237119774522514,0.1337775680842773,6.534864578534459,4.551842385910439,3.9321047233265154,3.4463151353189896,2.993890918035803,2.627973477929226,2.3387470358105324,2.0972380573166967,1.8731084213411406,1.6448610664618322,1.4068189603927292,1.1637537792003432,0.9258516145066947,0.7073033561950699,0.5035900915160672
0.0,3.0,3.0,0.0,120.0,0.0,0.0,0.0,0.0,-107.0,0.0,-45.0,0.0,0.0,0.0,34.27253218749016,17.55503396713325,4.472119921054501,2.6235574821315737,2.1510968311009755,1.791198608854806,1.459401876983783,1.1970250045092525,1.0033495926132323,0.8579177882279464,0.7344072581531066,0.6162471040317798,0.49975028661360466,0.38781200175020386,0.28567093728102416,0.1991915281112002,0.12624130999185337,6.5564403034497705,4.591166693931402,3.975254753069535,3.4811259180718093,2.9975183043394393,2.5838151817135753,2.2560312349024327,1.9997095366199487,1.7770897305341353,1.557740215025744,1.3321938350497948,1.1033001497957076,0.8797095183967834,0.6741596951181857,0.48201101714141276
0.0,4.0,4.0,0.0,120.0,0.0,0.0,0.0,0.0,-107.0,0.0,-45.0,0.0,0.0,0.0,34.27253218749016,17.55503396713325,4.482767180486307,2.6491308430049916,2.177712968283056,1.8127909998160658,1.464693253782561,1.1756037736165916,0.9591736043301481,0.8053804525438658,0.6840990340080073,0.5726760195519707,0.4645579676340232,0.3612427180958326,0.26701558268229864,0.18703241293743925,0.11922785064349779,6.577417478146243,4.630213736081498,4.018475973331621,3.5205917580267974,3.0172513051690637,2.5641399538728677,2.195371546225009,1.917208152475112,1.691382613020512,1.4783993972012281,1.263591618848642,1.0473662889652426,0.8367664412369089,0.6431287655943814,0.4616684117456172
0.0,5.0,5.0,0.0,120.0,0.0,0.0,0.0,0.0,-107.0,0.0,-45.0,0.0,0.0,0.0,34.27253218749016,17.55503396713325,4.49345152320826,2.6749574134579346,2.2045210945652554,1.8361581557776336,1.477278359860453,1.1668328636209295,0.9275095149843016,0.7618597310350588,0.6400123116839177,0.5336736722868131,0.43274480503235396,0.3370525535603688,0.24991242704735572,0.17580301954393734,0.11269571256168502,6.597871156182954,4.669039410694265,4.06140833521147,3.561608671182996,3.04607481116803,2.562654217231898,2.1545549552967835,1.8495362068241161,1.615658293740376,1.4062819582537507,1.200499453483286,0.9955659024563264,0.7967622078678678,0.6140512999569115,0.44247839438262443
0.0,6.0,6.0,0.0,120.0,0.0,0.0,0.0,0.0,-107.0,0.0,-45.0,0.0,0.0,0.0,34.27253218749016,17.55503396713325,4.504217900232616,2.7010687101541637,2.23145951736446,1.8601860153153478,1.4938510022146363,1.1670586404531016,0.9064848721741219,0.7267511111808467,0.601719223511033,0.4988010813034039,0.403956898986205,0.3149985476642754,0.23421275721547025,0.16542151109163544,0.10660700817867556,6.617873139529908,4.707702858922165,4.104018156766088,3.602906066407021,3.0796031905818664,2.5738665856758463,2.1305927333199537,1.7960733805100828,1.5496879307288354,1.3409593879645423,1.142475694527122,0.9475551389718166,0.7594619144302229,0.5867819306426184,0.42436351150893675
0.0,7.0,7.0,0.0,120.0,0.0,0.0,0.0,0.0,-107.0,0.0,-45.0,0.0,0.0,0.0,34.27253218749016,17.55503396713325,4.515110355866225,2.7274954030483842,2.258539198647119,1.88445981235674,1.5124710575837534,1.173376543689436,0.8941268002681975,0.6993063183920728,0.5688478435377141,0.4677001161102595,0.3778904189617383,0.2948671639216338,0.2197840980182587,0.15581411077120436,0.10092712445196737,6.637492327242868,4.746260425319508,4.146341271178725,3.644035221494742,3.115317777986175,2.5934787412561686,2.120272287577674,1.7557517623539034,1.4932188031559313,1.2821078999642608,1.0891448925596265,0.9030284069127582,0.7246533409821803,0.5611878968546868,0.40725222626499596
0.0,8.0,8.0,0.0,120.0,0.0,0.0,0.0,0.0,-107.0,0.0,-45.0,0.0,0.0,0.0,34.27253218749016,17.55503396713325,4.5261722146907575,2.754266685001028,2.2857827006860334,1.9088514066274263,1.5320838040100722,1.1836442388887398,0.8885718691753135,0.6786606920110986,0.5410336459497702,0.44007552527652183,0.35428563472990926,0.2764706909194329,0.206508319505393,0.14691425827548465,0.09562443260016196,6.656795018797746,4.78476504184208,4.188422577043088,3.68487515269795,3.151880011887197,2.6183674888470136,2.1205547569913503,1.7271700646917179,1.4458882446798371,1.2294729318465007,1.040192536372337,0.8617148796497951,0.6921447001929016,0.5371478679753937,0.391078448507857
0.0,9.0,9.0,0.0,120.0,0.0,0.0,0.0,0.0,-107.0,0.0,-45.0,0.0,0.0,0.0,34.27253218749016,17.55503396713325,4.537446246886003,2.781410092169382,2.3132129053886294,1.9333369281515738,1.5521578194831849,1.1963718293138084,0.8881876872790784,0.6638932020589585,0.5178928751153118,0.41567586363612835,0.3329212586399475,0.2596441811356854,0.19427998906860697,0.13866185238683035,0.09067002231202138,6.675845183881579,4.823266101023391,4.230305575373236,3.7254202246020838,3.1886343354840623,2.6463918649462506,2.1287913543869164,1.7087533553621963,1.4071904557496002,1.182829864775617,0.9953578354552829,0.8233755781105199,0.6617626778610739,0.5145508791776365,0.3757811032553604
0.0,10.0,10.0,0.0,120.0,0.0,0.0,0.0,0.0,-107.0,0.0,-45.0,0.0,0.0,0.0,34.27253218749016,17.55503396713325,4.548974821479104,2.8089515141403,2.3408517491034204,1.9579254926985332,1.572447516114626,1.210574469716674,0.891621213767035,0.6540878075148809,0.49901597051333657,0.39427635754088936,0.3136086556961005,0.24424283127826993,0.1830049353757356,0.13100257463959256,0.08603745875051272,6.694704710641822,4.861809570284472,4.272031332696587,3.7656993515580965,3.2252911580896946,2.676157012909935,2.1428027950030533,1.6988981264935796,1.3764868001083752,1.141950329247675,0.954423944048769,0.7878008007724046,0.6333507232585789,0.4932953787192661,0.36130373280488254
0.0,11.0,11.0,0.0,120.0,0.0,0.0,0.0,0.0,-107.0,0.0,-45.0,0.0,0.0,0.0,34.27253218749016,17.55503396713325,4.560800049027246,2.836915308623151,2.368720196275932,1.9826346797001626,1.5928523662070913,1.2256312271866847,0.8977988090949157,0.6483812563656943,0.4839741986627599,0.3756659046521629,0.2961859117519031,0.23013968340475863,0.17259899588140948,0.12388728890496853,0.08170256017527361,6.71343363496945,4.900438207784782,4.3136384807901464,3.8057490471216693,3.261742995892641,2.706797260171425,2.1608741354052476,1.6960787228399838,1.353041144650479,1.1065796980992608,0.917206421834947,0.7548075754372939,0.6067675591496616,0.4732883834318213,0.3475941277754254
0.0,12.0,12.0,0.0,120.0,0.0,0.0,0.0,0.0,-107.0,0.0,-45.0,0.0,0.0,0.0,34.27253218749016,17.55503396713325,4.572963912900283,2.8653244320452775,2.396838233074706,2.007483287536927,1.613340219267016,1.2411686250809535,0.9058992719706841,0.6459937914830787,0.47233242126421543,0.35963889361828416,0.28051207120393873,0.21722352732936429,0.16298692437080883,0.11727151037707075,0.07764319427429271,6.732090351190546,4.939191777682915,4.355163240292918,3.8456057862006507,3.297966221516124,2.7378018350593067,2.181705066996263,1.698913251385188,1.3360636270764261,1.076426769947323,0.8835414914626049,0.7242368560765713,0.5818858811171367,0.45444473292293974,0.33460398439852385
0.0,13.0,13.0,0.0,120.0,0.0,0.0,0.0,0.0,-107.0,0.0,-45.0,0.0,0.0,0.0,34.27253218749016,17.55503396713325,4.5855083886972965,2.894200553887117,2.4252248829084198,2.0324896131528374,1.6339086402476521,1.2569731564379698,0.9153147192685869,0.6462447242765101,0.4636628864501531,0.34599132197255245,0.26646194316846117,0.2053969210794016,0.1541014360244425,0.11111493625326868,0.07383909188677387,6.750731804549906,4.978107237136733,4.396639502096891,3.8853043225834805,3.3339724334058363,2.7688864729744824,2.2043418438816116,1.706196378407981,1.3247520149337486,1.0511635368205834,0.8532756218327386,0.6959503547208626,0.5585912032310272,0.436686429338102,0.3222885874988366
0.0,14.0,14.0,0.0,120.0,0.0,0.0,0.0,0.0,-107.0,0.0,-45.0,0.0,0.0,0.0,34.27253218749016,17.55503396713325,4.598475551818848,2.9235641548860767,2.4538982713602753,2.0576711946532433,1.6545668464416439,1.2729300256909895,0.9256087140604954,0.6485565728409891,0.4575571714880971,0.33452009371715097,0.2539217808413391,0.19457429754382508,0.14588236662777784,0.10538103022305242,0.07027167722758798,6.7694136660466375,5.017218900628754,4.438098975087499,3.9248775038206793,3.3697861770346464,2.799904902235943,2.2281064981437417,1.7169083751638856,1.3183253463875264,1.030431698395158,0.826257444089219,0.6698270834834175,0.5367807956995492,0.4199420494426023,0.3106065194559778
0.0,15.0,15.0,0.0,120.0,0.0,0.0,0.0,0.0,-107.0,0.0,-45.0,0.0,0.0,0.0,34.27253218749016,17.55503396713325,4.611907673496956,2.9534346158624203,2.4828757192502793,2.0830448382843523,1.6753279264815464,1.2889826801342315,0.936477077553483,0.6524514174603528,0.4536351085459133,0.32502428802885736,0.24278597006514344,0.18468016884934618,0.13827592283454582,0.10003665354485701,0.06692391382918146,6.7881904903765005,5.056558591141894,4.479571361852594,3.964356351537338,3.405435570696778,2.8307911380557202,2.2525318815002966,1.7302086609175276,1.3160483452918144,1.0138526819401907,0.8023323691137006,0.645759806839374,0.5163626607995291,0.40414621751990015,0.29951939508177733
0.0,16.0,16.0,0.0,120.0,0.0,0.0,0.0,0.0,-107.0,0.0,-45.0,0.0,0.0,0.0,34.27253218749016,17.55503396713325,4.625847305572899,2.9838303016615284,2.512173839473038,2.108626669309596,1.696205794850639,1.3051074102362399,0.9477140952527819,0.6575424727240476,0.4515505560398233,0.3173073853602379,0.23295470458621417,0.1756474635562843,0.13123400327575457,0.09505173645490755,0.06378016529981632,6.807115857723353,5.096155783675099,4.521084531408431,4.003770158569848,3.4409487544661133,2.8615236966998676,2.2773064742232756,1.7454201814185983,1.3172471914138637,1.0010386593406495,0.7813397600877331,0.6236516441986851,0.4972545073832594,0.38923912919288556,0.2889916214822082
0.0,17.0,17.0,0.0,120.0,0.0,0.0,0.0,0.0,-107.0,0.0,-45.0,0.0,0.0,0.0,34.27253218749016,17.55503396713325,4.640337354192898,3.0147686420656163,2.541808625926678,2.13443217821816,1.7172141467046966,1.3212981442552283,0.959185042885148,0.6635231365280735,0.4509943854345227,0.3111797293927352,0.22433251740117616,0.16741603542419542,0.12471357532111131,0.09039898451984606,0.06082606982346734,6.826242500053149,5.136037743331853,4.562664676989459,4.043146584187057,3.4763527402488394,2.892104422404387,2.3022300444796233,1.7620091654037897,1.3213181086907366,0.9916029224096103,0.7631122049397179,0.6034130330948407,0.4793827058722206,0.3751661170603656,0.27899018120273233
0.0,18.0,18.0,0.0,120.0,0.0,0.0,0.0,0.0,-107.0,0.0,-45.0,0.0,0.0,0.0,34.27253218749016,17.55503396713325,4.6554211425486,3.046266210287651,2.5717955323717456,2.160476268935523,1.738366174963066,1.337557752372119,0.9708048717315024,0.6701551293801943,0.45169523510056847,0.3064607810505059,0.21682748582518901,0.15993137257869558,0.11867609803606739,0.08605361520586338,0.05804842720559432,6.84562241246397,5.176229658856693,4.6043364584161806,4.082511755415687,3.511673148290346,2.9225465276688243,2.3271795868512246,1.7795633656125682,1.3277304252182318,0.9851687260328545,0.7474763149718859,0.5849591951824116,0.46268122741127976,0.36187724937226556,0.26948443651795756
0.0,19.0,19.0,0.0,120.0,0.0,0.0,0.0,0.0,-107.0,0.0,-45.0,0.0,0.0,0.0,34.27253218749016,17.55503396713325,4.671142462755607,3.0783387993596727,2.60214954282953,2.186773311518264,1.7596745398749465,1.353893299225875,0.9825223135516,0.6772568165681684,0.45341859423141273,0.30298093677554777,0.21035092057889848,0.15314351994757575,0.11308698697051972,0.08199312046293664,0.05543509723228075,6.8653069499010275,5.216754772121087,4.646123132093492,4.121890374492889,3.5469342235594863,2.9528681563590724,2.35208413872867,1.7977708070987208,1.3360256230165974,0.981376249117266,0.7342544906453572,0.5682081697010026,0.44709058726759116,0.3493269535244119,0.2604459525849994
0.0,20.0,20.0,0.0,120.0,0.0,0.0,0.0,0.0,-107.0,0.0,-45.0,0.0,0.0,0.0,34.27253218749016,17.55503396713325,4.687545616855483,3.111001496738767,2.632885235572878,2.213337197015769,1.781151404596734,1.3703135787258505,0.9943084328836159,0.6846924006308285,0.45596471761590185,0.300582829909831,0.20481736948881374,0.14700621170587264,0.1079151200447941,0.078197051623608,0.05297490814285017,6.8853469091656985,5.257634503932008,4.688046671332699,4.16130582733737,3.582158918618758,2.983089101302335,2.376906783860687,1.8164002663815817,1.345813644887991,0.979887663643412,0.7232671833477505,0.5530794113237133,0.4325568212703619,0.3374736573662727,0.2518483372057702
0.0,21.0,21.0,0.0,120.0,0.0,0.0,0.0,0.0,-107.0,0.0,-45.0,0.0,0.0,0.0,34.27253218749016,17.55503396713325,4.704675446790452,3.144268757470899,2.6640168421038406,2.2401813913213733,1.8028084795921653,1.3868279067856621,1.006148639679896,0.6923623647681415,0.45916578726699175,0.29912212238574937,0.2001447995206312,0.1414761975922663,0.103132385749655,0.07464682345532526,0.050657574089947865,6.9057925958143365,5.298888576412124,4.730127878380697,4.200780287964615,3.617368981583498,3.013229238021774,2.4016321887517207,1.8352841260121024,1.3567674629793616,0.9803904874856463,0.7143352966158596,0.5394929003148653,0.41903052541190605,0.3262794431933301,0.2436670950327976
0.0,22.0,22.0,0.0,120.0,0.0,0.0,0.0,0.0,-107.0,0.0,-45.0,0.0,0.0,0.0,34.27253218749016,17.55503396713325,4.722577353108157,3.178154476214351,2.6955583018275524,2.2673189858781018,1.8246570635545833,1.4034455737867635,1.0180372794356751,0.7001953237426334,0.46288265238810034,0.29846784035895146,0.19625485644505572,0.13651273861515167,0.0987132753671879,0.07132553478547723,0.04847362055303259,6.926693875386784,5.340535132094813,4.772386488536792,4.240334815753753,3.6525850378006575,3.0433078446773827,2.4262582237859713,1.8543038417474278,1.368616679508959,0.9825994775087794,0.7072824824999717,0.5273686840916217,0.4064659845115245,0.3157097115439233,0.23587949416291165
0.0,23.0,23.0,0.0,120.0,0.0,0.0,0.0,0.0,-107.0,0.0,-45.0,0.0,0.0,0.0,34.27253218749016,17.55503396713325,4.7412973021196745,3.212672058354836,2.72752331272183,2.2947627443493657,1.8467080807882812,1.4201756244214092,1.0299740725462294,0.7081412837932275,0.4670014032078623,0.2985023269421099,0.19307313349870303,0.1320772437213059,0.09463452037642515,0.06821780369898506,0.04641431676815147,6.948100208423536,5.382590849836164,4.814841266292342,4.279989444366025,3.687826666068415,3.0733433529916714,2.4507904918782026,1.8733779868130738,1.381140734541748,0.9862573375473007,0.7019371836894008,0.5166267577431574,0.3948204084072533,0.30573285413562046,0.22846444319430453
0.0,24.0,24.0,0.0,120.0,0.0,0.0,0.0,0.0,-107.0,0.0,-45.0,0.0,0.0,0.0,34.27253218749016,17.55503396713325,4.760881821232822,3.2478344903680054,2.7599253781405237,2.322525145194272,1.8689721165872937,1.4370267894953106,1.0419618366645755,0.7161662142388756,0.4714299687820597,0.2991208891218645,0.19052940633848717,0.12813301858913653,0.0908747750933489,0.06530961583834517,0.04447161433341902,6.970060668858336,5.425071057672955,4.857510093402673,4.319763262323531,3.7231124710108876,3.1033532934688126,2.4752388594087877,1.8924526695936137,1.3941621366730066,0.9911345007306592,0.6981343447116897,0.5071871922238409,0.38405328559365404,0.2963199371138507,0.22140237699138485
0.0,25.0,25.0,0.0,120.0,0.0,0.0,0.0,0.0,-107.0,0.0,-45.0,0.0,0.0,0.0,34.27253218749016,17.55503396713325,4.781377982200862,3.2836544095110156,2.7927778498715274,2.3506184204790257,1.8914594513319356,1.4540074821884177,1.0540050720524599,0.7242477783942729,0.476094873696292,0.3002312117609186,0.1885578109441678,0.12464509973736163,0.08741434329906958,0.06258818477378729,0.04263809124455617,6.992623945556344,5.467989842819442,4.900410048989992,4.359674485863347,3.7584601519888308,3.1333543191042024,2.499615324008133,1.9114940316526712,1.407540004744781,0.9970282157737712,0.6957167667644653,0.4989704281371987,0.3741258561227453,0.2874443970401488,0.21467514961913364
0.0,26.0,26.0,0.0,120.0,0.0,0.0,0.0,0.0,-107.0,0.0,-45.0,0.0,0.0,0.0,34.27253218749016,17.55503396713325,4.802833372066816,3.3201441728562036,2.826093967613355,2.3790545913687025,1.9141800932622117,1.4711258179753541,1.0661091104966753,0.7323720485866462,0.48093824294577264,0.3017526037875681,0.18709695460714437,0.12158015058135424,0.08423494640825406,0.06004182373539639,0.040906900707847305,7.015838326975501,5.511360159060807,4.943557482025758,4.399740524921887,3.793886568179269,3.163362255076913,2.5239327485895373,1.9304824998736627,1.421164107193134,1.0037611327490341,0.6945361140401951,0.4918976663502981,0.36500069887115766,0.2790817526650363,0.20826593317029077
0.0,27.0,27.0,0.0,120.0,0.0,0.0,0.0,0.0,-107.0,0.0,-45.0,0.0,0.0,0.0,34.27253218749016,17.55503396713325,4.825296051652083,3.357315925616276,2.859886895088951,2.407845500725507,1.9371438095983893,1.488389640810101,1.0782796216728159,0.7405310292812617,0.4859151073474544,0.3036151326903434,0.18608995892564306,0.11890640010192538,0.08131952978218947,0.0576598282082881,0.039271724168003376,7.039751669135838,5.5551939318365715,4.98696807676151,4.4399780431618545,3.8294077993929423,3.193392153062637,2.548204140170338,1.9494084710078396,1.4349495061973947,1.0111795506862111,0.6944535990405835,0.4858913012395402,0.35664142336042376,0.2712093355735218,0.20215912149762544
0.0,28.0,28.0,0.0,120.0,0.0,0.0,0.0,0.0,-107.0,0.0,-45.0,0.0,0.0,0.0,34.27253218749016,17.55503396713325,4.84881450153277,3.3951816686505016,2.8941697530614072,2.4370028431817055,1.960360155713747,1.5058065491156847,1.0905223395647854,0.7487208252356877,0.4909910329012978,0.30575869445862314,0.18548443902867154,0.11659360883592203,0.07865210316266906,0.055432369000250115,0.037726728073950784,7.064411347266179,5.59950216129311,5.030656911829931,4.480403012931842,3.865039202485997,3.223458342987894,2.572442260903023,1.9682691341146799,1.4488318531906572,1.019151459258072,0.6953403843593382,0.480875356286222,0.34901245322575425,0.263806042392006,0.19634023815577575
0.0,29.0,29.0,0.0,120.0,0.0,0.0,0.0,0.0,-107.0,0.0,-45.0,0.0,0.0,0.0,34.27253218749016,17.55503396713325,4.8734375555625435,3.433753324982207,2.9289556495467846,2.466538192998126,1.9838385022239986,1.5233839197739383,1.1028429201292802,0.7569403118019067,0.49614007575683183,0.30813205766002205,0.18523242613643104,0.11461305059673944,0.07621761089259092,0.05335039542094822,0.036266523984321335,7.08986419164672,5.644295023512089,5.074638513813198,4.521030765989218,3.9007954635660926,3.2535744808289313,2.596659435094661,1.9870661751220906,1.4627633376903775,1.0275644803855912,0.6970777420249261,0.4767758939546458,0.34207888695101557,0.25685211055962276,0.1907958481292259
0.0,30.0,30.0,0.0,120.0,0.0,0.0,0.0,0.0,-107.0,0.0,-45.0,0.0,0.0,0.0,34.27253218749016,17.55503396713325,4.899214322133386,3.47304280509759,2.9642577075338346,2.4964630299743114,2.0075880600189953,1.5411289300194337,1.1152468745182647,0.7651901874175078,0.5013430489618028,0.3106919126158417,0.18529024186450538,0.1129375015029515,0.07400182755474509,0.051405548187857,0.03488613168450319,7.116156408282774,5.6895819699947,5.118926906081234,4.561876040734629,3.9366906464428983,3.283753592992624,2.6208674676470634,2.0058041502249297,1.4767092602572116,1.0363237927356763,0.6995570111969198,0.47352138184448883,0.3358064212972104,0.2503289188427234,0.1855134731559946
0.0,31.0,31.0,0.0,120.0,0.0,0.0,0.0,0.0,-107.0,0.0,-45.0,0.0,0.0,0.0,34.27253218749016,17.55503396713325,4.9261940935166315,3.513062070736151,3.0000890905212656,2.526788763642794,2.031617903375455,1.5590485775982665,1.12773954402051,0.773472310984097,0.5065860769979706,0.3134019496865677,0.18561833299370137,0.11154123047682792,0.07199127484073871,0.04959008161963253,0.03358094504721565,7.143333485144778,5.7353718253153705,5.1635356536538275,4.602953026606141,3.972738237889541,3.314008118174024,2.645077623131545,2.024489356075214,1.490645180269399,1.0453501024640917,0.702679392513628,0.4710430049629335,0.3301613235933365,0.24421881292905492,0.18048151063920712
0.0,32.0,32.0,0.0,120.0,0.0,0.0,0.0,0.0,-107.0,0.0,-45.0,0.0,0.0,0.0,34.27253218749016,17.55503396713325,4.954426243801518,3.553823196827775,3.036463026173315,2.557526755953107,2.055936991347641,1.577149699554609,1.1403260968422606,0.7817892474731565,0.5118594082430146,0.316231984522981,0.18618107516431356,0.11039998739308603,0.07017315579220579,0.04789679461185652,0.03234670041817356,7.171440084814917,5.78167288267348,5.208477904756159,4.644275406168089,4.008951190283641,3.3443499474118727,2.6693006360827223,2.04312906184379,1.5045545778321987,1.0545777068356188,0.7063556138113936,0.46927491979821184,0.3251104404015749,0.23850495566474184,0.17568915626681555
0.0,33.0,33.0,0.0,120.0,0.0,0.0,0.0,0.0,-107.0,0.0,-45.0,0.0,0.0,0.0,34.27253218749016,17.55503396713325,4.983960116151776,3.595338431186708,3.073392828376681,2.588688342627567,2.0805541876481297,1.595438989895655,1.153011535484898,0.7901439628795595,0.5171564529669577,0.3191571427743139,0.18694655337372904,0.10949098657712945,0.06853530297651926,0.04631896982689412,0.03117944734780231,7.20051992451113,5.828492996889532,5.253766429633778,4.6858563953107,4.04534196212281,3.374790462790555,2.6935467361596297,2.0617309999420916,1.5184269644441646,1.0639526832413058,0.71050549796057,0.4681544499988768,0.3206212317368969,0.23317120084589085,0.17112633053543447
0.0,34.0,34.0,0.0,120.0,0.0,0.0,0.0,0.0,-107.0,0.0,-45.0,0.0,0.0,0.0,34.27253218749016,17.55503396713325,5.014844900335773,3.6376202515438956,3.110891917958931,2.6202848533486542,2.105478279218945,1.6139230162815532,1.165800708646077,0.798539624321446,0.5224730143898215,0.32215711216378223,0.187886326418367,0.108792884455044,0.06706613761959075,0.044850320478327786,0.030075521519952304,7.23061564462908,5.875839674232947,5.299413657084124,4.727708781859628,4.081922556797748,3.4053405750106065,2.717825679517361,2.080303038199258,1.532256377177427,1.073431224385524,0.7150574595765713,0.4676222262103127,0.3166618218007937,0.22820198897278898,0.1667836094038182
0.0,35.0,35.0,0.0,120.0,0.0,0.0,0.0,0.0,-107.0,0.0,-45.0,0.0,0.0,0.0,34.27253218749016,17.55503396713325,5.047129496073441,3.680681422886905,3.1489738478446774,2.652327627030029,2.1307179951858775,1.6326082354042024,1.17869832462563,0.8069794727913769,0.5278066819266284,0.32521546602452445,0.1889751816172215,0.10828575093047761,0.06575463718098894,0.04348494405586547,0.029031519742748334,7.261768668216032,5.923720167912253,5.345431707644116,4.76984495901578,4.1187045615123274,3.436010759638523,2.7421467820491627,2.098852976951336,1.5460401945395912,1.0829781308232769,0.7199479535668881,0.46762227431525694,0.313201058928806,0.22358226302219647,0.16265215930508853
0.0,36.0,36.0,0.0,120.0,0.0,0.0,0.0,0.0,-107.0,0.0,-45.0,0.0,0.0,0.0,34.27253218749016,17.55503396713325,5.0808623873700824,3.7245350389268546,3.187652308954385,2.68482803952172,2.1562820203667687,1.6515010086949444,1.1917089644651253,0.8154667451606649,0.5331563584105287,0.3283190592936753,0.1901908853386072,0.1079510345836666,0.06459030929530055,0.04221728232055558,0.0280442769211192,7.294019053216604,5.972141550232304,5.3918324499310515,4.812276990249729,4.155699180019832,3.4668110786955606,2.7665189598992703,2.1173884277827955,1.5597782183464457,1.0925654642428337,0.7251208949777568,0.46810205724758336,0.3102085790533887,0.2192974020826035,0.15872367679796923
0.0,37.0,37.0,0.0,120.0,0.0,0.0,0.0,0.0,-107.0,0.0,-45.0,0.0,0.0,0.0,34.27253218749016,17.55503396713325,5.116091487082733,3.769194570437498,3.2269411534043595,2.7177975171897475,2.1821790180533185,1.6706076144916813,1.2048370946204034,0.8240046288652636,0.538521896309442,0.3314574955428396,0.19151393405181166,0.10777152212181758,0.06356317040173864,0.04104208690192524,0.02711084485625128,7.327405374957269,6.021110907288826,5.43862767911324,4.855016788849974,4.192917275111822,3.497751105681379,2.790950816338797,2.1359167315431775,1.5734719754587594,1.1021713583989483,0.7305270664797754,0.4690124759248367,0.30765486839240364,0.21533317061068863,0.15499033388982827
0.0,38.0,38.0,0.0,120.0,0.0,0.0,0.0,0.0,-107.0,0.0,-45.0,0.0,0.0,0.0,34.27253218749016,17.55503396713325,5.15286400720257,3.8146739221258747,3.266854419866927,2.751247545429077,2.2084176267575173,1.6899342669519273,1.2180870790722302,0.8325962379368639,0.543903821018237,0.3346226619811904,0.19292730980987416,0.10773129272274812,0.06266372773043015,0.03995438984616049,0.026228472816878613,7.361964427344403,6.070635024614528,5.485828596506116,4.898075597229932,4.230369383587559,3.5288403587847106,2.815450471807186,2.154445000626433,1.5871241677828969,1.11177898657829,0.7361235260180431,0.47030783496783574,0.3055113222833811,0.21167568105486692,0.1514447228347775
0.0,39.0,39.0,0.0,120.0,0.0,0.0,0.0,0.0,-107.0,0.0,-45.0,0.0,0.0,0.0,34.27253218749016,17.55503396713325,5.191226295397385,3.8609874556155006,3.3074063429345357,2.7851896939588756,2.235006492973499,1.7094871224832207,1.2314631904772877,0.8412446021202137,0.5493031236916914,0.337808327644435,0.1944162434755781,0.10781566798840322,0.06188296361770986,0.0389494784949249,0.0253945897740985,7.397731204820314,6.12072084957106,5.533446412660767,4.941464596570245,4.268065766732475,3.5600879154718093,2.8400258033924786,2.1729800413257587,1.6007382970049286,1.121375663502087,0.7418730271425011,0.47194577839397517,0.30375029802523795,0.20831136774588835,0.1480798140431854
0.0,40.0,40.0,0.0,120.0,0.0,0.0,0.0,0.0,-107.0,0.0,-45.0,0.0,0.0,0.0,34.27253218749016,17.55503396713325,5.231223697182423,3.908150027569212,3.348611371427055,2.819635629474799,2.26195427817144,1.7292722938707672,1.2449696205245258,0.8499526644688132,0.5547211076627727,0.34100979985064017,0.19596798813594415,0.10801115831790561,0.06121232135982555,0.03802287411434544,0.024606788205395486,7.434738692620892,6.171375410399395,5.581492181725795,4.985194743729658,4.306016434789014,3.591502582847269,2.864684402877295,2.19152838648617,1.6143183687925953,1.1309520827414572,0.7477434585973363,0.4738872005237146,0.3023451604277752,0.20522697000388923,0.1448889129082049
0.0,41.0,41.0,0.0,120.0,0.0,0.0,0.0,0.0,-107.0,0.0,-45.0,0.0,0.0,0.0,34.27253218749016,17.55503396713325,5.27290041745086,3.9561770189160717,3.3904841846351372,2.8545971305630404,2.2892696716050263,1.749295861498482,1.2586104897228012,0.8587232836434606,0.5601592765102295,0.3442236330613864,0.1975716046770657,0.108305406476499,0.060643692022438016,0.03717031374055085,0.023862809378397094,7.473017710925982,6.222605863142946,5.62997682738131,5.02927680024905,4.344231176080214,3.6230929263242073,2.8894336039074435,2.2100963112114744,1.6278686849407704,1.1405016704284898,0.7537073104853503,0.4760961366364528,0.3012703193316941,0.2024095226608097,0.1418656225854503
0.0,42.0,42.0,0.0,120.0,0.0,0.0,0.0,0.0,-107.0,0.0,-45.0,0.0,0.0,0.0,34.27253218749016,17.55503396713325,5.316299391089548,4.005084359880813,3.43303970827898,2.890086102120678,2.3169614025423035,1.7695638839326313,1.2723898566055771,0.8675592388308311,0.565619253762529,0.347447384378085,0.19921776087252607,0.10868712912775283,0.060169401780216396,0.03638773475852926,0.023160530020707146,7.512596767875413,6.274419530581754,5.678911167331236,5.073721359743847,4.382719584526927,3.6548672966726454,2.9142805077606364,2.228689852278642,1.641393697106404,1.1500200435014063,0.7597411714189065,0.47853963760017987,0.30050125883489265,0.19984635236594758,0.13900381109801474
0.0,43.0,43.0,0.0,120.0,0.0,0.0,0.0,0.0,-107.0,0.0,-45.0,0.0,0.0,0.0,34.27253218749016,17.55503396713325,5.361462166357754,4.054888551157142,3.476293130203686,2.926114589325777,2.3450382519511797,1.7900824079029434,1.2863117263948791,0.8764632359348141,0.571102726381731,0.3506794099734063,0.2008985448540597,0.1091460570526382,0.05978219948656146,0.035671261782966354,0.02249795028296122,7.553501925578479,6.326823933322411,5.728305936286552,5.11853887362305,4.421491085483574,3.686833855384298,2.9392320076487226,2.2473148289319202,1.6548979065391645,1.1595045596306586,0.7658252597209098,0.4811876322461249,0.30001455828952994,0.19752507825197585,0.13629758253675442
0.0,44.0,44.0,0.0,120.0,0.0,0.0,0.0,0.0,-107.0,0.0,-45.0,0.0,0.0,0.0,34.27253218749016,17.55503396713325,5.40842880381296,4.105606681289062,3.5202599160536043,2.9626947923221456,2.3735090656115005,1.8108574784737586,1.3003800578581348,0.8854379148151926,0.576611405690336,0.3539186970866729,0.20260729339158767,0.10967287472929232,0.05947524426965185,0.035017195460875276,0.021873182917952053,7.59575669167648,6.379826834442466,5.778171838992429,5.1637397160547875,4.460554995785272,3.7190005865913105,2.9642947928343912,2.265976875530871,1.6683857934895363,1.1689539475555357,0.7719429902843952,0.4840127808545785,0.299787905369425,0.19543361573694726,0.1337412525341618
0.0,45.0,45.0,0.0,120.0,0.0,0.0,0.0,0.0,-107.0,0.0,-45.0,0.0,0.0,0.0,34.27253218749016,17.55503396713325,5.457237792066615,4.157256439596507,3.5649558250711144,2.9998390837944906,2.402382772828304,1.8318951513932265,1.3145987655453366,0.894485858339739,0.5821470005867673,0.357164726660962,0.2043384350308335,0.11025915989165792,0.05924209302376031,0.03442200286497104,0.021284443614931262,7.639381959034008,6.433436345593266,5.828519704763849,5.2093343811436394,4.499920699968575,3.7513752693532316,2.9894752898461396,2.284681512308446,1.6818617574672459,1.1783680086826456,0.7780805774178828,0.4869903227393076,0.2998001016660119,0.19356018242537829,0.13132932872900593
0.0,46.0,46.0,0.0,120.0,0.0,0.0,0.0,0.0,-107.0,0.0,-45.0,0.0,0.0,0.0,34.27253218749016,17.55503396713325,5.507926010768031,4.20985613690141,3.6103969213113505,3.037560001820843,2.431668361500143,1.8532014873205849,1.3289717504720981,0.903609588249001,0.5877112045399135,0.36041736056232204,0.20608734818935306,0.11089732355723682,0.059076687727698494,0.033882309196436124,0.020730042017410872,7.684395786984362,6.487660555875915,5.879359930162258,5.255332757728399,4.539597015924658,3.783965710702412,3.014780021985832,2.303433947700476,1.6953301682894393,1.1877473541571162,0.7842266773618362,0.49009792014471315,0.30003106129842405,0.19189330535315732,0.1290564845215356
0.0,47.0,47.0,0.0,120.0,0.0,0.0,0.0,0.0,-107.0,0.0,-45.0,0.0,0.0,0.0,34.27253218749016,17.55503396713325,5.5605286824259474,4.263424709048087,3.656599593166828,3.075870284786362,2.4613749262709548,1.8747825745189606,1.343502881310169,0.9128115827132732,0.5933056815720861,0.3636767527258798,0.2078502329832052,0.11158055115145221,0.058973342537678226,0.03339489054691132,0.02020837425108369,7.7308135243558125,6.542507950585688,5.930703116937104,5.301744953096869,4.5795929198256475,3.816779533488374,3.0402152609324604,2.322239328846034,1.708795271908027,1.1970932275927515,0.7903720604444276,0.4933155015493998,0.3004618032925123,0.19042182866309512,0.12691755250828313
0.0,48.0,48.0,0.0,120.0,0.0,0.0,0.0,0.0,-107.0,0.0,-45.0,0.0,0.0,0.0,34.27253218749016,17.55503396713325,5.615079380715245,4.317981730041777,3.7035805660971377,3.114782875852302,2.491511664668689,1.8966445313886697,1.358196009416782,0.9220942779548492,0.5989320621984335,0.3669432768939099,0.2096239969501543,0.1123027450012886,0.058926730666658,0.03295666752409906,0.01971791588944047,7.778647747501076,6.59798727179475,5.982559874479486,5.3485810353422805,4.619917322299675,3.849824272057209,3.0657871679744644,2.341102677625154,1.7222612137744615,1.20640734201275,0.7965093211148119,0.4966251053807583,0.3010744381942386,0.1891349214014084,0.12490750887297623
0.0,49.0,49.0,0.0,120.0,0.0,0.0,0.0,0.0,-107.0,0.0,-45.0,0.0,0.0,0.0,34.27253218749016,17.55503396713325,5.671610064396937,4.373547422517458,3.7513569170819956,3.1543109350615994,2.5220878860678484,1.918793513487035,1.3730549746819907,0.9314600734207105,0.6045919411197441,0.3702174697063328,0.2114061534653065,0.11305846863426172,0.0589318710556633,0.032564699566285125,0.01925721579146889,7.827908289612505,6.654107517165523,6.03494083309006,5.395851048945081,4.660579083879018,3.8831073873497566,3.0915018087323762,2.360028904771512,1.7357320396031939,1.2156917564437093,0.8026326190215635,0.5000107262280771,0.30185214962883966,0.18802208488912917,0.1230214630597922
0.0,50.0,50.0,0.0,120.0,0.0,0.0,0.0,0.0,-107.0,0.0,-45.0,0.0,0.0,0.0,34.27253218749016,17.55503396713325,5.730151144665971,4.4301426685428655,3.7999460890232846,3.1944678512789624,2.5531130202808248,1.9412357201579884,1.3880836109664223,0.940911336541415,0.6102868769806287,0.37349998603933116,0.21319473205936026,0.11384289316500854,0.058984114868279286,0.032216179806032724,0.018824890628716645,7.878602307057931,6.710877936730589,6.0878566558515494,5.44356502880073,4.701587028884014,3.9166362804433765,3.117365166357451,2.379022822501416,1.7492116993357112,1.2249487794557439,0.8087374500306664,0.5034581648082409,0.30277917140370647,0.18707315937540434,0.12125464946885224
0.0,51.0,51.0,0.0,120.0,0.0,0.0,0.0,0.0,-107.0,0.0,-45.0,0.0,0.0,0.0,34.27253218749016,17.55503396713325,5.790731593088672,4.487789029540974,3.849365914628813,3.235267264115902,2.5845966346718847,1.9639774030018107,1.40328574259587,0.9504504086001153,0.6160183940597028,0.37679156404863423,0.21498819970575078,0.11465174602986038,0.05907913183943247,0.031908430370700354,0.018419620156509508,7.930734411777061,6.768308096043653,6.1413181525160105,5.491733159418005,4.742950140617192,3.950418438309406,3.1433830548372743,2.398089116404327,1.7627040911616438,1.2341808813984454,0.8148204474087438,0.5069548825538883,0.30384076070253513,0.18627832980533407,0.11960242373537673
0.0,52.0,52.0,0.0,120.0,0.0,0.0,0.0,0.0,-107.0,0.0,-45.0,0.0,0.0,0.0,34.27253218749016,17.55503396713325,5.8533789717529165,4.546508691516205,3.899634650886469,3.276723121953181,2.61654837845162,1.9870248829565815,1.4186652029181674,0.9600796060711733,0.6217879828659936,0.38009299891222875,0.216785392158428,0.11548126216403498,0.059212896558172336,0.03163889801534236,0.018040142440069566,7.984306727231216,6.826407798925747,6.195336172145157,5.540365462476914,4.784677187658061,3.984461180262441,3.169561329154819,2.417232434030007,1.7762129908886677,1.2433906635053047,0.8208792007574381,0.5104898626270132,0.3050231681151133,0.18562813029999237,0.11806025207373434
0.0,53.0,53.0,0.0,120.0,0.0,0.0,0.0,0.0,-107.0,0.0,-45.0,0.0,0.0,0.0,34.27253218749016,17.55503396713325,5.918119801858324,4.606324614738203,3.9507709273586538,3.3188495312779196,2.6489780955828044,2.0103845212550295,1.4342258454647419,0.9698012234066309,0.6275971026015825,0.38340512247966557,0.21858545432353366,0.1163281378805888,0.05938167468703732,0.031405150028086484,0.017685250588895876,8.039319156369542,6.885186958433019,6.249921400702082,5.58947187759946,4.826776822136625,4.018771674862972,3.195905874424607,2.436457387303582,1.7897420658301122,1.2525808119375967,0.8269121034139039,0.5140534768342404,0.30631360479707803,0.18511344757568854,0.11662370772691907
0.0,54.0,54.0,0.0,120.0,0.0,0.0,0.0,0.0,-107.0,0.0,-45.0,0.0,0.0,0.0,34.27253218749016,17.55503396713325,5.984979668031266,4.667260477727205,4.002793790420939,3.3616608764700193,2.681895797569566,2.0340627449639,1.4499715289601833,0.9796175398099652,0.6334471845369252,0.38672878760619095,0.22038778880136847,0.11718948749985107,0.05958200918147,0.03120487034539476,0.01735378926623224,8.09576955650914,6.944655764739996,6.305084680577771,5.639062513804386,4.8692578523674275,4.0533571867604135,3.2224224479951618,2.4557684937632174,1.8032949454716414,1.2617540432809982,0.8329182242193891,0.5176373590852625,0.30770020729675274,0.1847255232092907,0.11528847302152584
0.0,55.0,55.0,0.0,120.0,0.0,0.0,0.0,0.0,-107.0,0.0,-45.0,0.0,0.0,0.0,34.27253218749016,17.55503396713325,6.053983381622124,4.729340667276883,4.05572273725094,3.4051718524621397,2.715311640250815,2.0580660580317267,1.4659061266492415,0.9895308212119945,0.6393396339612573,0.39006485703371446,0.22219201171332775,0.1180628026974065,0.05981070659102171,0.031035855820081275,0.01704465147375348,8.153653937893035,7.004824655982354,6.360836967825404,5.689147513640533,4.9121290928090025,4.088224971333083,3.2491167707235857,2.47517021619073,1.8168751949511437,1.2709130914963604,0.8388971913794954,0.5212342866642147,0.3091720006890214,0.18445595449487542,0.11405033508776949
0.0,56.0,56.0,0.0,120.0,0.0,0.0,0.0,0.0,-107.0,0.0,-45.0,0.0,0.0,0.0,34.27253218749016,17.55503396713325,6.125155247854208,4.792590317008095,4.109577718236186,3.4493974481144916,2.749235949237835,2.0824010398473676,1.4820335314011694,0.9995433228472823,0.6452758325953778,0.39341419516558374,0.22399791495576696,0.11894591464935843,0.060064823465687055,0.030896012614901415,0.016756775941836232,8.21296671953446,7.065704287496305,6.417189301050839,5.7397370689447,4.955399378143578,4.123382278128381,3.2759945328644933,2.4946669685450367,1.8304863202959538,1.2800606902989267,0.84484909477153,0.524838068723117,0.31071886029612816,0.18429669411890265,0.11290518450829182
0.0,57.0,57.0,0.0,120.0,0.0,0.0,0.0,0.0,-107.0,0.0,-45.0,0.0,0.0,0.0,34.27253218749016,17.55503396713325,6.19851915620462,4.857035233494386,4.164379167948933,3.4943531017825706,2.7836792443747296,2.1070743071338556,1.4983576719812761,1.0096572906819214,0.6512571404795151,0.39677766240089224,0.22580543406144316,0.11983695894174655,0.06034165292143884,0.030783352691458054,0.016489144529980918,8.273701000120415,7.127305636895036,6.474152961676639,5.790841505620416,4.9990774486225105,4.158836398217895,3.3030613843313756,2.514263126276405,1.84413177167944,1.2891995607463418,0.8507744025843416,0.5284434422660381,0.31233147243053966,0.18424004864277574,0.111849015199256
0.0,58.0,58.0,0.0,120.0,0.0,0.0,0.0,0.0,-107.0,0.0,-45.0,0.0,0.0,0.0,34.27253218749016,17.55503396713325,6.274099228519882,4.922702184155212,4.22014803910195,3.540054377289032,2.8186521609021487,2.132092640708542,1.5148824777680232,1.0198749687946318,0.657284898495341,0.4001561107165323,0.22761462119556777,0.12073434312267585,0.060638711427191926,0.030695990372536442,0.01624078073035601,8.335848841753107,7.189639761230683,6.531739099295076,5.842471031943517,5.043172243542241,4.194594585488172,3.33032296966605,2.533963017388092,1.8578149511391275,1.298332401493711,0.8566738907345857,0.5320459755486059,0.3140012945255841,0.1842786758549442,0.1108779224324615
0.0,59.0,59.0,0.0,120.0,0.0,0.0,0.0,0.0,-107.0,0.0,-45.0,0.0,0.0,0.0,34.27253218749016,17.55503396713325,6.351919827361206,4.989618714551743,4.276905762902513,3.5865171570620906,2.8541655440360767,2.1574628893271184,1.531611898963849,1.0301986007303505,0.6633604347854296,0.40355037830589774,0.22942562314601395,0.12163671674298746,0.06095372584694385,0.03063213897845275,0.016010746771878644,8.399401452122568,7.252717941387579,6.589959068039598,5.894636105479045,5.087692940213424,4.230664353631261,3.3577850873668247,2.5537707647303076,1.8715391844318237,1.3074619234996032,0.8625485706140456,0.5356419806003717,0.31572051516784033,0.1844055807160365,0.10998810975909701
0.0,60.0,60.0,0.0,120.0,0.0,0.0,0.0,0.0,-107.0,0.0,-45.0,0.0,0.0,0.0,34.27253218749016,17.55503396713325,6.4320057684773,5.057813154373589,4.334674291767876,3.6337577004769237,2.8902304582882756,2.183191999204541,1.5485499401961116,1.0406304208569135,0.6694850548253031,0.40696129555089616,0.23123865982231068,0.12254294456988075,0.06128462072782687,0.030590107458215103,0.01579814255282556,8.464349460570938,7.316551597323356,6.648824245004203,5.947347072302633,5.132648381929414,4.267052808473162,3.3854532413603975,2.5736907357408323,1.88530780100539,1.3165907391227563,0.8683996714653767,0.5392284264581059,0.31748201346256233,0.18461411155363155,0.10917587298172034
0.0,61.0,61.0,0.0,120.0,0.0,0.0,0.0,0.0,-107.0,0.0,-45.0,0.0,0.0,0.0,34.27253218749016,17.55503396713325,6.514382581148749,5.127314659823571,4.393476161385952,3.681792700461959,2.926858248718175,2.2092869450998323,1.565700655374229,1.0511726577710712,0.6756600548194232,0.41038967737634213,0.23305401036534715,0.12345208129315065,0.061629505995898184,0.030568297129597622,0.015602103919973518,8.53068326659939,7.381152436096923,6.708346245376686,6.000614466455213,5.178047477150153,4.303767127796572,3.413333014303947,2.593727196214027,1.8991240794501956,1.325721440435491,0.8742285733210592,0.542802867470425,0.31927931955241395,0.18489795377543125,0.10843761306792427
0.0,62.0,62.0,0.0,120.0,0.0,0.0,0.0,0.0,-107.0,0.0,-45.0,0.0,0.0,0.0,34.27253218749016,17.55503396713325,6.599076911783318,5.198153301703191,4.453334513101844,3.7306391926599685,2.964060400046317,2.235754818365747,1.58306813351673,1.0618275430876765,0.6818867191324601,0.4138363243107167,0.23487199958281466,0.12436334901255354,0.06198666496971608,0.03056519841997599,0.015421800839866781,8.598393227392151,7.446532319974909,6.768536763544471,6.054448876978459,5.223899214321958,4.340814635034355,3.4414300028142635,2.613884344214284,1.9129912475688993,1.3348565948696485,0.880036772793804,0.5463633744716361,0.3211065752816385,0.18525112346499417,0.10776983480408354
0.0,63.0,63.0,0.0,120.0,0.0,0.0,0.0,0.0,-107.0,0.0,-45.0,0.0,0.0,0.0,34.27253218749016,17.55503396713325,6.686116844656148,5.27036003871645,4.51427302035653,3.7803144342879733,3.001848482486721,2.262602938020678,1.6006564610213845,1.0725973274177878,0.6881663155553486,0.4173020243955183,0.23669298662215246,0.12527611687920132,0.06235454277370202,0.030579387635504808,0.015256435260135124,8.667469751053687,7.5127031145244905,6.829407447264984,6.108860919674572,5.2702127478727485,4.378202720465333,3.4697497519773752,2.634166364799726,1.9269124921359635,1.3439987324670917,0.885825857491132,0.5499084718089389,0.322958495564108,0.185667960309374,0.10716914487546732
0.0,64.0,64.0,0.0,120.0,0.0,0.0,0.0,0.0,-107.0,0.0,-45.0,0.0,0.0,0.0,34.27253218749016,17.55503396713325,6.775532049046257,5.3439666830458155,4.576316003323008,3.8308361758044245,3.0402343838817596,2.2898386667048465,1.618469781538846,1.083484259801549,0.6945001047103598,0.42078755116410105,0.2385173565573209,0.12618988256143893,0.06273173519243332,0.03060952377292325,0.015105241112162326,8.737903735038621,7.579676970169719,6.890970150095496,6.163861389733728,5.316997246106987,4.415938738501384,3.4982978359730255,2.654577405709557,1.9408909655631836,1.353150344823829,0.8915974817850251,0.5534370808437472,0.32483033069516654,0.18614311978337383,0.10663225361335275
0.0,65.0,65.0,0.0,120.0,0.0,0.0,0.0,0.0,-107.0,0.0,-45.0,0.0,0.0,0.0,34.27253218749016,17.55503396713325,6.867354202310885,5.41900594815882,4.639488418523744,3.882222595696444,3.079230221686572,2.3174694804754465,1.6365122792365838,1.094490596617396,0.700889338163654,0.4242936649008303,0.2403455129446105,0.12710425572721307,0.06311697794374449,0.030654345357337125,0.014967482916137809,8.809686669225817,7.647466252436848,6.9532368077874,6.219461184132022,5.364261939743849,4.454030060027344,3.5270798262755454,2.675121589567825,1.954929784430186,1.362313885279742,0.8973533468661818,0.5569484689258201,0.3267178297593273,0.18667156475390242,0.10615597418944092
0.0,66.0,66.0,0.0,120.0,0.0,0.0,0.0,0.0,-107.0,0.0,-45.0,0.0,0.0,0.0,34.27253218749016,17.55503396713325,6.961617347242181,5.495511519594191,4.70381590303977,3.934492370547802,3.1188483787092793,2.345502939344887,1.6547881719068165,1.1056186124455503,0.7073352560568006,0.42782111379299126,0.24217787191667095,0.1280189432078306,0.06350913642248436,0.03071266731070135,0.014842455259693767,8.882810776715417,7.716083621034439,7.016219435192604,6.275671276228084,5.412016083071716,4.492484042075444,3.5561013252123024,2.695803002232678,1.9690320346517887,1.3714917676220573,0.9030951847233227,0.560442203455376,0.32861720524959287,0.18724855659537773,0.1057372219243681
0.0,67.0,67.0,0.0,120.0,0.0,0.0,0.0,0.0,-107.0,0.0,-45.0,0.0,0.0,0.0,34.27253218749016,17.55503396713325,7.058358171543061,5.573518138184128,4.769324759831841,3.9876646772007724,3.1591014829568356,2.373946669404258,1.6733017356279745,1.1168705919154396,0.7138390912725153,0.431370633525509,0.24401485769582046,0.12893373573191896,0.06390719591010847,0.03078337786114855,0.014729481461795431,8.957269047747587,7.785542076968728,7.079930093928184,6.332502657519089,5.460268933100681,4.531308050665698,3.5853679774793767,2.716625684766609,1.9832007752781453,1.3806863656046087,0.9088247448556698,0.5639181107891,0.33052509898448484,0.18786964588860464,0.10537301312592913
0.0,68.0,68.0,0.0,120.0,0.0,0.0,0.0,0.0,-107.0,0.0,-45.0,0.0,0.0,0.0,34.27253218749016,17.55503396713325,7.157615961652055,5.6530614946957,4.836041664844356,4.041758936746941,3.2000023008659113,2.4028085572671105,1.6920573377992072,1.1282487843618998,0.7204020868595022,0.4349429450279437,0.24585689884423398,0.12984849629831993,0.0643102521986336,0.030865435508382975,0.014627909703854965,9.033055134121716,7.855854920150599,7.14438091028322,6.389966438405025,5.509030034292287,4.570509623373657,3.6148852724003735,2.737593717053609,1.9974390105209727,1.3899000217166428,0.9145437814229048,0.5673762399364627,0.3324385493741185,0.1885306627547589,0.10506046610565437
0.0,69.0,69.0,0.0,120.0,0.0,0.0,0.0,0.0,-107.0,0.0,-45.0,0.0,0.0,0.0,34.27253218749016,17.55503396713325,7.259432869354046,5.734178718807564,4.9039939931290935,4.096795144299606,3.2415639588453775,2.432096540127148,1.711059362340529,1.1397554853108216,0.7270254710018054,0.43853875766661743,0.2477044261339641,0.1307631492999514,0.0647175028805552,0.03095786599134448,0.014537114867557955,9.110163919865952,7.92703596417943,7.209584270739256,6.448073784310458,5.5583089759392434,4.610096332215138,3.6446588784008336,2.7587111804565994,2.011749638089884,1.3991350434955536,0.9202540536878699,0.5708168277858763,0.3343549598753474,0.18922770750709922,0.10479680237680307
0.0,70.0,70.0,0.0,120.0,0.0,0.0,0.0,0.0,-107.0,0.0,-45.0,0.0,0.0,0.0,34.27253218749016,17.55503396713325,7.363854058105839,5.816908538194007,4.973209761890573,4.152793715151487,3.2837998791791656,2.4618186762350236,1.7303122429435887,1.1513930037584441,0.7337104670943548,0.4421587702968163,0.24955786925330165,0.13167767171035424,0.06512823889913108,0.03105975932173541,0.01445649583958515,9.188592007004482,7.99909929251747,7.275552876507493,6.506835892451752,5.608115422482538,4.6500757980555925,3.674694477579386,2.779982143072844,2.0261355105105983,1.4083937022600441,0.9259573122715988,0.5742402717156853,0.3362720696078316,0.18995714002941835,0.10457934414154625
0.0,71.0,71.0,0.0,120.0,0.0,0.0,0.0,0.0,-107.0,0.0,-45.0,0.0,0.0,0.0,34.27253218749016,17.55503396713325,7.470928356366981,5.90129143765703,5.043717796026028,4.20977545789745,3.3267237989495433,2.4919831517107576,1.7498204550220526,1.1631636461067807,0.7404582926914592,0.4458036802973123,0.2514176510267512,0.13259208622114482,0.06554183643546406,0.03117026683061009,0.014385475106007191,9.26833851175221,8.072058825947254,7.34229977000985,6.566263883070535,5.658458878988219,4.690455389141122,3.704997415694303,2.8014104992765128,2.040599705347872,1.417678215273248,0.9316552710524215,0.5776471093091341,0.3381879265471109,0.1907155676394096,0.10440550321643771
0.0,72.0,72.0,0.0,120.0,0.0,0.0,0.0,0.0,-107.0,0.0,-45.0,0.0,0.0,0.0,34.27253218749016,17.55503396713325,7.580709524922941,5.987369452706704,5.115547963484289,4.267761531064295,3.3703497531476057,2.5225982841562646,1.769588528905199,1.175069745540734,0.7472701632804197,0.44947417025473085,0.25328419255109913,0.1335064521439366,0.06595774987930353,0.03128859834928694,0.014323500486623326,9.349405698701705,8.145927872307459,7.409838500267083,6.626369098272037,5.709349007433981,4.731242713596216,3.735573254238036,2.823000221868215,2.055145102781028,1.4269907741342907,0.937349638072868,0.5810379874271422,0.34010085878752866,0.19149983761329528,0.10427279879639512
0.0,73.0,73.0,0.0,120.0,0.0,0.0,0.0,0.0,-107.0,0.0,-45.0,0.0,0.0,0.0,34.27253218749016,17.55503396713325,7.693258038505736,6.07518549630917,5.188731491737096,4.326773479431356,3.414692043521048,2.553672505975227,1.7896210406047184,1.1871136689958577,0.7541472825990655,0.4531709169762638,0.2551579088417882,0.13442086015605753,0.06637550471217948,0.031414019369245615,0.01427004639672386,9.431798557459782,8.22071867810012,7.478182836520994,6.687163093136738,5.760795440027958,4.772445433929749,3.7664275965516647,2.8447552529272926,2.069774550169486,1.43633353447128,0.9430420984418231,0.5844136455480373,0.34200945034256597,0.19230702562737223,0.10417884682562153
0.0,74.0,74.0,0.0,120.0,0.0,0.0,0.0,0.0,-107.0,0.0,-45.0,0.0,0.0,0.0,34.27253218749016,17.55503396713325,7.808642220220992,6.164782252196325,5.2633010995533756,4.386833323378963,3.4597651640480462,2.585214352561809,1.8099226361083645,1.1992978245762451,0.7610908352774198,0.45689459471258925,0.2570392076046243,0.13533542693511946,0.06679469102722324,0.0315458482745807,0.014224612069486163,9.515522679978867,8.296442773200075,7.547346239654537,6.748657715121635,5.8128077560302565,4.814071291313302,3.797566132677273,2.866679478646842,2.084490869284365,1.445708614076143,0.9487343124551022,0.5877748981895307,0.34391251766933034,0.1931344253476629,0.1041213544249544
0.0,75.0,75.0,0.0,120.0,0.0,0.0,0.0,0.0,-107.0,0.0,-45.0,0.0,0.0,0.0,34.27253218749016,17.55503396713325,7.92693652138189,6.256201414712711,5.3392907130297935,4.447963855426684,3.5055839607650063,2.6172327484897373,1.83049803200319,1.2116245212630727,0.7681020646986823,0.46064584994036223,0.25892849508644133,0.13625028929683117,0.06721495759735532,0.03168345372594926,0.014186719374613597,9.600581463583431,8.373113056307025,7.617341566802334,6.810865508771669,5.865395782061252,4.856128088867647,3.8289943067188763,2.888776838768893,2.099296853721623,1.455118092950605,0.9544279110452011,0.5911226210588841,0.3458090872822781,0.19397953815987,0.10409812047080891
0.0,76.0,76.0,0.0,120.0,0.0,0.0,0.0,0.0,-107.0,0.0,-45.0,0.0,0.0,0.0,34.27253218749016,17.55503396713325,8.048216352195622,6.349485005116194,5.416734624439572,4.510188855260501,3.5521634066485257,2.6497367017532674,1.851351966859147,1.224096151546451,0.7751821817777756,0.46442533210523645,0.26082616783041457,0.13716560173472403,0.06763600604502955,0.03182625196053063,0.014155903352641832,9.686975830956449,8.450746081459876,7.688180208785976,6.873799116651591,5.918569289588846,4.898623634005607,3.8607177131924533,2.911051226743915,2.1141952585418635,1.4645640185277433,0.9601244959094315,0.5944577366933178,0.3476983756110831,0.1948400628074344,0.10410703459557338
0.0,77.0,77.0,0.0,120.0,0.0,0.0,0.0,0.0,-107.0,0.0,-45.0,0.0,0.0,0.0,34.27253218749016,17.55503396713325,8.172554786769947,6.444679330506228,5.4956661099878605,4.573533188556625,3.599518656147746,2.6827354151827723,1.8724892392569212,1.2367151245538273,0.7823323968140503,0.46823368371631247,0.2627326152578306,0.138081532346648,0.06805758570525411,0.03197370425973264,0.014131715252665268,9.774712995457657,8.529363495196595,7.759872807772569,6.93747104433167,5.9723382080491,4.941565731333117,3.8927419732377357,2.9335065190803893,2.1291888071392644,1.4740484033222843,0.965825638053045,0.5977812034639726,0.3495797697646746,0.1957138853098082,0.10414609006071142
0.0,78.0,78.0,0.0,120.0,0.0,0.0,0.0,0.0,-107.0,0.0,-45.0,0.0,0.0,0.0,34.27253218749016,17.55503396713325,8.300032578713385,6.541839856953701,5.576116723322705,4.638022547971004,3.6476650899283873,2.716238265726665,1.8939147203294588,1.249483866315386,0.7895539194664054,0.4720715408685772,0.26464821953988754,0.1389982598501386,0.06847948879860397,0.03212531446590454,0.014113741610189934,9.863816893781399,8.60898825030808,7.832431447794114,7.001893187056045,6.026712720265973,4.984962145719417,3.925072739267553,2.9561465769161215,2.1442801916111853,1.4835732252248108,0.9715328770081091,0.6010940057699687,0.35145280981349764,0.1965990690096001,0.10421338760914038
