Line_number,Fiducial,Easting,Northing,Height,Elevation,tx_pitch,tx_roll,tx_yaw,txrx_dx,txrx_dy,txrx_dz,rx_pitch,rx_roll,rx_yaw,PX,PZ,S0X_time_1.086e-05,S0X_time_3.256e-05,S0X_time_5.426e-05,S0X_time_8.680e-05,S0X_time_1.411e-04,S0X_time_2.279e-04,S0X_time_3.689e-04,S0X_time_5.860e-04,S0X_time_9.115e-04,S0X_time_1.411e-03,S0X_time_2.192e-03,S0X_time_3.418e-03,S0X_time_5.339e-03,S0X_time_8.301e-03,S0X_time_1.338e-02,S0Z_time_1.086e-05,S0Z_time_3.256e-05,S0Z_time_5.426e-05,S0Z_time_8.680e-05,S0Z_time_1.411e-04,S0Z_time_2.279e-04,S0Z_time_3.689e-04,S0Z_time_5.860e-04,S0Z_time_9.115e-04,S0Z_time_1.411e-03,S0Z_time_2.192e-03,S0Z_time_3.418e-03,S0Z_time_5.339e-03,S0Z_time_8.301e-03,S0Z_time_1.338e-02
0.0,0.0,0.0,0.0,120.0,0.0,0.0,0.0,0.0,-107.0,0.0,-45.0,0.0,0.0,0.0,34.27253218749016,17.55503396713325,4.555070913783929,2.6614780984778004,2.166128208132217,1.7385015607716636,1.2569695911398855,0.7925545774770887,0.41893806610374806,0.18669652518984783,0.07214521208115038,0.02389503806165892,0.0067756254251081045,0.0016995695378235285,0.00039581386076638,7.957390596070312e-05,-7.888196591802039e-05,6.94309820696241,4.923554299800357,4.272214195324317,3.677741694239269,2.944567685197243,2.130389386365052,1.3481631023444047,0.7469236829993159,0.3693182944186922,0.16154840972344614,0.062436156213363764,0.021718673757460085,0.006969608305367914,0.002094630273612379,0.00038614509653894075
0.0,1.0,1.0,0.0,120.0,0.0,0.0,0.0,0.0,-107.0,0.0,-45.0,0.0,0.0,0.0,34.27253218749016,17.55503396713325,4.559648192402374,2.681545426187949,2.200746145752874,1.8069740651197297,1.3644580009228917,0.9129996532238435,0.519367668126208,0.25085697961838355,0.1049139399785853,0.03740833659605011,0.011306267469209343,0.00296965381434092,0.0007056311742729487,0.0001474790323585626,-7.224155900931148e-05,6.947091422900398,4.945938276140526,4.314535895453641,3.7712144161809866,3.1140515030287133,2.3546013892130824,1.575679227875564,0.9289157295144441,0.48835583589933745,0.2262023928223743,0.09189838597934594,0.03324746030251377,0.010965349346157765,0.0033606504539581174,0.0007140719335214864
0.0,2.0,2.0,0.0,120.0,0.0,0.0,0.0,0.0,-107.0,0.0,-45.0,0.0,0.0,0.0,34.27253218749016,17.55503396713325,4.5645280479486114,2.701081435017793,2.2257250170337737,1.8491399810371296,1.4372155724732294,1.0051510533856662,0.6052788551990801,0.3118975227123078,0.13935872942266062,0.052994420115576646,0.01698525254131757,0.004675256639942293,0.0011441286719848368,0.000247415172457436,-5.882941669397706e-05,6.951303971133037,4.967792853361733,4.3454627854715255,3.827930212094178,3.225436752533213,2.5194989699071098,1.7603056249745934,1.0907434925967419,0.6035958405039711,0.29390610197426975,0.12497762539611357,0.0469615097474676,0.015934479494033017,0.004987183818027274,0.0011520566587858298
0.0,3.0,3.0,0.0,120.0,0.0,0.0,0.0,0.0,-107.0,0.0,-45.0,0.0,0.0,0.0,34.27253218749016,17.55503396713325,4.569729253348667,2.7210184454756696,2.2479997150347226,1.8781969233207445,1.4868289307154825,1.0749837781173017,0.677285409051654,0.3679905667401294,0.17386815579684872,0.06994686549190927,0.023649229693013238,0.006812080178181022,0.0017228393261193122,0.0003846569679994576,-3.719371106770458e-05,6.955748101859414,4.990046323684712,4.373280430345677,3.866933781162703,3.2997833926162854,2.6408051020305345,1.9090796824141436,1.2320332560595206,0.711945721939553,0.36215855318445506,0.1605181021311843,0.06252243982345188,0.021822981832284333,0.0069789246725289016,0.0017068803807466812
0.0,4.0,4.0,0.0,120.0,0.0,0.0,0.0,0.0,-107.0,0.0,-45.0,0.0,0.0,0.0,34.27253218749016,17.55503396713325,4.575270385303931,2.7415006771194554,2.2698714551183,1.9014138967215466,1.5217101387511933,1.1276070787178916,0.7368581990514563,0.41839914051153715,0.2073407402530913,0.08764117171113556,0.03110372385241159,0.009354251818702235,0.0024471062387630294,0.0005633999385304332,-5.991459903753729e-06,6.96043706173284,5.012834114578936,4.40061287597066,3.898233002003497,3.3513181368604132,2.7300962108011855,2.028450330384316,1.3540268495851546,0.811882019664771,0.42917418573508276,0.1975096767741377,0.07957157584278135,0.02855153628661836,0.009330226828822794,0.0023825197296597606
0.0,5.0,5.0,0.0,120.0,0.0,0.0,0.0,0.0,-107.0,0.0,-45.0,0.0,0.0,0.0,34.27253218749016,17.55503396713325,4.581170892056875,2.762552619661769,2.2919752953477897,1.9223880972991263,1.5477890378594958,1.1673042990537166,0.7856887051673039,0.4630149635300074,0.23907903555667073,0.10556592920546477,0.039149585953437496,0.012261199861686372,0.003316756731684528,0.000786659057633971,3.5957355162235696e-05,6.96538602754499,5.036177435480633,4.428150003917068,3.9265940142266818,3.3895621893022434,2.796184360821371,2.123894889531178,1.4585874542094626,0.9028559780412775,0.4937437311842159,0.23511331833501656,0.09775835312827823,0.036025382213280076,0.012027237822160424,0.003180479376002118
0.0,6.0,6.0,0.0,120.0,0.0,0.0,0.0,0.0,-107.0,0.0,-45.0,0.0,0.0,0.0,34.27253218749016,17.55503396713325,4.587451273615125,2.784185475065829,2.3144562951944843,1.9427122401174852,1.568982630263869,1.1976259104043594,0.8254494674012121,0.5020699778218871,0.2686814927028401,0.1233241123211085,0.047599206985994943,0.015483670330917305,0.004327035786289517,0.0010562619365967238,8.96389945725288e-05,6.970612111088216,5.060085359404655,4.4560399477924815,3.9540567087689835,3.420559919094724,2.8458967271944897,2.200004884653233,1.5477203204744447,0.9848993002652096,0.5550954417155438,0.2726576130747694,0.11675720040025007,0.044142003168410604,0.015049854683218757,0.004100128835925413
0.0,7.0,7.0,0.0,120.0,0.0,0.0,0.0,0.0,-107.0,0.0,-45.0,0.0,0.0,0.0,34.27253218749016,17.55503396713325,4.594133096624296,2.80640862531225,2.3373436264759078,1.9630197701163858,1.5876887509241082,1.2214249210355386,0.8577172489525531,0.5359678575081875,0.29595321940707564,0.1406208076924902,0.05628514798047458,0.01896850526332505,0.005469617895876753,0.0013729117964197536,0.00015583138077112033,6.97613422977889,5.084565450059429,4.484309475748618,3.9814063794857004,3.4478942884010886,2.8844556195952684,2.260665620538059,1.6233626513736898,1.0583727773295133,0.6127778892006447,0.30962171859792637,0.13627635981851322,0.05279688589979482,0.018373455655468822,0.005139029513654471
0.0,8.0,8.0,0.0,120.0,0.0,0.0,0.0,0.0,-107.0,0.0,-45.0,0.0,0.0,0.0,34.27253218749016,17.55503396713325,4.60123901671466,2.829230755080495,2.3606456388322883,1.9835379216135423,1.605269579874738,1.2408896893994263,0.8839424183898112,0.5651925966242011,0.32083849384701246,0.15724642640593928,0.06506366557003393,0.022662172293405128,0.006733580852250755,0.0017362968131146822,0.00023510115008159706,6.981973003225222,5.109625018701654,4.512965068647572,4.0089153180673796,3.4735455974082576,2.915719675816518,2.309188722008523,1.6873121202358659,1.123809843880294,0.6665682271299878,0.34561342096855613,0.15606134094921895,0.06188765954774001,0.02197038810546924,0.006293243935368156
0.0,9.0,9.0,0.0,120.0,0.0,0.0,0.0,0.0,-107.0,0.0,-45.0,0.0,0.0,0.0,34.27253218749016,17.55503396713325,4.608792811712343,2.8526603118482043,2.384368115102746,2.00434117295678,1.6224465616425188,1.2576138268490877,0.9054240859157312,0.5902615693320726,0.34337252422445524,0.1730598124358457,0.07381507638761779,0.026513201988254798,0.008106275779314564,0.002145226301614649,0.000327809071993953,6.988150664724379,5.135271593992124,4.542011008363202,4.036669504852811,3.498537255161682,2.9424167833454558,2.3483797354745533,1.7412178091281352,1.1818225991421805,0.7164031205095157,0.38034688495676877,0.17589497747298682,0.07131692617364097,0.025811213103656958,0.00755762213031961
0.0,10.0,10.0,0.0,120.0,0.0,0.0,0.0,0.0,-107.0,0.0,-45.0,0.0,0.0,0.0,34.27253218749016,17.55503396713325,4.616819410497578,2.876705699619422,2.408516521253129,2.0254533818760034,1.639577514736617,1.2726999753874348,0.9232883059399338,0.6117001642288761,0.3636487443629931,0.18797309943676468,0.0824423440272426,0.03047374173664243,0.009574064464646906,0.002597778419522338,0.00043412129668711827,6.994690974021234,5.161512994772241,4.571451407727616,4.064695553576588,3.523365485324834,2.966388879921915,2.380570637548398,1.7865894144719692,1.2330488804714625,0.7623278522477029,0.4136223078893753,0.19559545943817658,0.0809940702677275,0.029865720162444546,0.008926062154243894
0.0,11.0,11.0,0.0,120.0,0.0,0.0,0.0,0.0,-107.0,0.0,-45.0,0.0,0.0,0.0,34.27253218749016,17.55503396713325,4.625344914375637,2.9013752939300357,2.4330961832092783,2.0468839866302226,1.6568293906345926,1.2868753400067636,0.938476243975932,0.6300248025430488,0.381797644684645,0.20193896427062372,0.0908687916783568,0.034500435232006556,0.01112291833108274,0.0030914479309711,0.0005540245023815191,7.001619136146008,5.188357221260343,4.601290433425597,4.093004021169413,3.5482570197143195,2.9888257946413717,2.407648082504381,1.8248042123633499,1.2781251290225006,0.8044595230303526,0.4453083114575179,0.21501327404182172,0.09083629496384628,0.03410373303032992,0.010391743502103413
0.0,12.0,12.0,0.0,120.0,0.0,0.0,0.0,0.0,-107.0,0.0,-45.0,0.0,0.0,0.0,34.27253218749016,17.55503396713325,4.63439661218297,2.926677408724076,2.4581124429325,2.0686391002614593,1.6742761029047712,1.3005987189620196,0.9517460899748093,0.6457288856369389,0.3979732992064714,0.21494039728780384,0.09903548411093024,0.03855481415586417,0.01273888629070747,0.0036232860983146185,0.0006873435359822245,7.008961730485758,5.215812340531578,4.631532534467849,4.1216020834460965,3.5733104843527363,3.0104647989557605,2.4310928078249847,1.8571070323153025,1.3176737189784888,0.8429611286531322,0.47532717015887055,0.2340276741537498,0.10076908748146263,0.03849573142065835,0.01194733337652728
0.0,13.0,13.0,0.0,120.0,0.0,0.0,0.0,0.0,-107.0,0.0,-45.0,0.0,0.0,0.0,34.27253218749016,17.55503396713325,4.644002992887495,2.9526202713689926,2.4835708012882702,2.0907243205927504,1.6919494794533096,1.3141479578446462,0.9636874202279734,0.6592707272534278,0.4123444232066539,0.22698283193797308,0.10689858973574322,0.042603355466123004,0.01440844521770311,0.004190027867456774,0.000833760474656623,7.016746554638805,5.243886180180993,4.662182347796574,4.150496466428295,3.5985681944350527,3.0317453409849477,2.452031819873957,1.8846061266429641,1.3522968923331544,0.8780239393775805,0.5036426559691789,0.25254306712804425,0.11072627444895902,0.04301331514462477,0.013585165236463116
0.0,14.0,14.0,0.0,120.0,0.0,0.0,0.0,0.0,-107.0,0.0,-45.0,0.0,0.0,0.0,34.27253218749016,17.55503396713325,4.654193752801618,2.979212016209546,2.5094769930122496,2.1131452699886095,1.7098637918894517,1.3276851009455644,0.9747437933088944,0.6710642124100892,0.42508778424958077,0.23808829555971134,0.1144268986496649,0.0466173212935677,0.016118749764805533,0.004788203948007738,0.0009928342654386812,7.025002636021612,5.2725864537333,4.693244940751614,4.179694010446559,3.6240495089697773,3.0529202912184594,2.4712978372422807,1.9082695517419879,1.3825726618885845,0.9098559828657841,0.5302501928186791,0.2704855529609154,0.12064979288303634,0.04762953664446348,0.015297394112744432
0.0,15.0,15.0,0.0,120.0,0.0,0.0,0.0,0.0,-107.0,0.0,-45.0,0.0,0.0,0.0,34.27253218749016,17.55503396713325,4.664999800389398,3.0064606847710236,2.5358370018694107,2.1359076636097476,1.7280266637046517,1.3413015289408197,0.9852388677537934,0.681472949472586,0.43638276129498604,0.24829114361139207,0.12159959580611457,0.050572465282276775,0.01785779913855585,0.005414237058983378,0.0011640201657275079,7.0337601315016,5.301920617007265,4.7247256722194555,4.2092016763151445,3.649765383041999,3.0741307690460102,2.489489207043847,1.9289253225840346,1.4090506520064956,0.9386747209474963,0.5551690215310962,0.2877997290570762,0.13048927434486168,0.05231912583990079,0.017076126510581952
0.0,16.0,16.0,0.0,120.0,0.0,0.0,0.0,0.0,-107.0,0.0,-45.0,0.0,0.0,0.0,34.27253218749016,17.55503396713325,4.67645325650665,3.0343742298252514,2.562657055801249,2.159017332077124,1.746443512101864,1.355047400937068,0.9954022475601332,0.6908080925138224,0.4464065729661876,0.2576349279701254,0.1284043386894642,0.05444866320760189,0.01961453781547157,0.006064522622140335,0.0013466884351580324,7.04305026067915,5.331895809934102,4.75663012538708,4.239026544414978,3.675724057721379,3.0954538277815637,2.5070248381889937,1.9472666098672784,1.4322475217243957,0.9647023491692128,0.5784360948894682,0.3044458100859945,0.14020151649374113,0.05705862819495663,0.0189135286656374
0.0,17.0,17.0,0.0,120.0,0.0,0.0,0.0,0.0,-107.0,0.0,-45.0,0.0,0.0,0.0,34.27253218749016,17.55503396713325,4.688587450184322,3.0629605211167115,2.5899436205965385,2.18248024965227,1.765119174497183,1.3689498715530706,1.0053926386121037,0.6993294189541751,0.45533011592629474,0.266170010563509,0.13483565094806166,0.058229507545178374,0.021378905431094043,0.006735494756052447,0.0015401418887672368,7.052905241894289,5.3625188076559045,4.78896405179001,4.26917581850473,3.7019330410642777,3.1169313483663084,2.524191062126965,1.9638615986855084,1.4526424409113416,0.9881625449109953,0.6001014292912461,0.32039707451760807,0.1497498966749407,0.06182647374981884,0.020801914891983492
0.0,18.0,18.0,0.0,120.0,0.0,0.0,0.0,0.0,-107.0,0.0,-45.0,0.0,0.0,0.0,34.27253218749016,17.55503396713325,4.701436909592386,3.0922273529879116,2.617703398048422,2.2063025573671875,1.7840584245506756,1.3830238294800972,1.0153171617714947,0.7072488889908142,0.4633145209248544,0.2739516334115791,0.14089361373227932,0.06190189375123464,0.023141848685824473,0.007423678753463155,0.0017436320913615665,7.063358229796286,5.393795981115538,4.821733330529591,4.299656818829783,3.7283996835550237,3.138586738948222,2.541179374238086,1.9791667268123934,1.4706732897900416,1.0092778947302665,0.620224639212873,0.33563763234963095,0.1591037659502419,0.06660299201527402,0.022733818318976758
0.0,19.0,19.0,0.0,120.0,0.0,0.0,0.0,0.0,-107.0,0.0,-45.0,0.0,0.0,0.0,34.27253218749016,17.55503396713325,4.715037347698008,3.122182454581348,2.645943328124052,2.23049057485881,1.8032661031295636,1.397277939028847,1.0252465895784082,0.7147358045797741,0.4705085414721364,0.28103826160566453,0.14658281601817216,0.06545561803268841,0.024895305579127513,0.00812573143094407,0.001956374094717516,7.07444325329164,5.425733267648624,4.854943939392992,4.330476960919568,3.7551312940852246,3.1604341459083543,2.5581154243893627,1.9935417487743148,1.4867341098920437,1.0282675816558975,0.6388723869628212,0.35016050099149904,0.16823784915552079,0.07137038526141491,0.024702046306900732
0.0,20.0,20.0,0.0,120.0,0.0,0.0,0.0,0.0,-107.0,0.0,-45.0,0.0,0.0,0.0,34.27253218749016,17.55503396713325,4.729425642152087,3.1528335031651165,2.674670593191223,2.2550508027740293,1.8227471399025252,1.411717882520583,1.035226832305916,0.7219227554431217,0.4770468236839511,0.28749010416368614,0.15191151485301474,0.0688830004378235,0.026632169984842774,0.008838470867061184,0.002177559691979055,7.086195152807013,5.4583361517977815,4.888601933878234,4.361643726010865,3.7821351394152196,3.182483293458935,2.5750804045892313,2.0072652061205543,1.5011740682177788,1.0453451717581186,0.6561165011580523,0.36396597169087513,0.17713166711090386,0.07611267078305507,0.02669972267568527
0.0,21.0,21.0,0.0,120.0,0.0,0.0,0.0,0.0,-107.0,0.0,-45.0,0.0,0.0,0.0,34.27253218749016,17.55503396713325,4.74463980895423,3.1841881408784602,2.703892622802664,2.2799899201035854,1.8425065546819213,1.4263480152577859,1.045287266796244,0.7289117034066633,0.4830490237225764,0.29336777942643844,0.1568909552909483,0.07217854211520368,0.028346242710042123,0.009558897096383802,0.0024063691979544243,7.098649515793906,5.491609656180091,4.92271343138227,4.393164630199022,3.8094184296252154,3.2047418945054855,2.592126277076277,2.0205492132999407,1.514297938752607,1.0607165000238026,0.6720325531474118,0.37706024441370684,0.1857689906543892,0.08081560104544559,0.028720318639078656
0.0,22.0,22.0,0.0,120.0,0.0,0.0,0.0,0.0,-107.0,0.0,-45.0,0.0,0.0,0.0,34.27253218749016,17.55503396713325,4.760718969400807,3.2162539949796027,2.7336170982947063,2.3053147799686395,1.8625494597018564,1.4411721638924557,1.055446571962667,0.7357797481231403,0.488619672273162,0.2987311268953561,0.16153480533487277,0.07533862121821787,0.030032173766652032,0.01028420529798033,0.002641981777846898,7.111842609312332,5.525558341952732,4.957284599057339,4.425047196905758,3.8369883095587585,3.2272167794032116,2.60928627325143,2.0335528439629234,1.5263679167182624,1.074577733117768,0.6866987257830941,0.38945430440214607,0.19413733207792191,0.08546656908542852,0.030757674078212616
0.0,23.0,23.0,0.0,120.0,0.0,0.0,0.0,0.0,-107.0,0.0,-45.0,0.0,0.0,0.0,34.27253218749016,17.55503396713325,4.777703309773381,3.2490387015413513,2.763851956980325,2.331032405794659,1.8828810640063753,1.4561939863735864,1.0657166910712497,0.7425842955625866,0.4938486447058984,0.303638181647593,0.16585867047495098,0.07836122822827879,0.03168539955205679,0.011011792914421222,0.0028835843562623996,7.125811308505303,5.560186318288715,4.992321644597668,4.457298934533156,3.864851854667076,3.2499143850551895,2.626581917953683,2.0463937398670473,1.5376064740130657,1.0871137049076907,0.7001948562526962,0.40116300958337153,0.20222747707127925,0.09005450511255891,0.03280601056362148
0.0,24.0,24.0,0.0,120.0,0.0,0.0,0.0,0.0,-107.0,0.0,-45.0,0.0,0.0,0.0,34.27253218749016,17.55503396713325,4.795634033226481,3.2825499324641556,2.794605395971417,2.3571499885928224,1.9035066777136822,1.4714171206271252,1.076105443814454,0.7493674953511129,0.49881208051696846,0.30814432776081535,0.16987966274840233,0.08124573859785746,0.033302077867146715,0.011739261979540705,0.0031303791516984632,7.14059301984263,5.595497260239186,5.027830809561874,4.48992731943795,3.893016067621191,3.27284094561379,2.6440275955957215,2.0591578273013535,1.5481999278339704,1.0984966036680874,0.7126015778806766,0.4122043555517491,0.21003305875161432,0.09456976893103024,0.03485993736294258
0.0,25.0,25.0,0.0,120.0,0.0,0.0,0.0,0.0,-107.0,0.0,-45.0,0.0,0.0,0.0,34.27253218749016,17.55503396713325,4.814553303377102,3.3167954256257044,2.8258858757462324,2.383674885419223,1.92443171483204,1.486845238724702,1.0866181996727087,0.7561599184462722,0.503573600602887,0.312301639944771,0.17361600874204391,0.08399271867872604,0.03487902309203561,0.012464417745713169,0.003381589900580545,7.156225598112839,5.631494434340831,5.0638183649364965,4.522939783582025,3.921487874178459,3.2960025557047135,2.661633435325948,2.071907207529505,1.5583024083042112,1.1088850569507325,0.7239995209490543,0.42259888454211325,0.2175501742809393,0.09900404162545408,0.036914451548197544
0.0,26.0,26.0,0.0,120.0,0.0,0.0,0.0,0.0,-107.0,0.0,-45.0,0.0,0.0,0.0,34.27253218749016,17.55503396713325,4.834504179154978,3.3517830179326147,2.8577021235733726,2.410614618837856,1.945661694504827,1.5024820628675026,1.0972589196923903,0.7629835155327493,0.508185688858665,0.3161584126171523,0.17708668856582452,0.0866037598795345,0.036413643317685235,0.01318526450952022,0.0036364668562785417,7.172747256229813,5.668180731282587,5.100290608637549,4.556343706025758,3.950274118511803,3.319405185942621,2.6794070824540794,2.084686397517281,1.5680399548179869,1.118423624390507,0.734468558147165,0.43236920665785444,0.22477704365882337,0.10335021896156023,0.0389649332245237
0.0,27.0,27.0,0.0,120.0,0.0,0.0,0.0,0.0,-107.0,0.0,-45.0,0.0,0.0,0.0,34.27253218749016,17.55503396713325,4.85553054053071,3.3875206809742733,2.890063136871218,2.4379768771796133,1.9672022411780796,1.5183313682739767,1.1080307862463088,0.769853935617415,0.5126911291537748,0.31975886606280507,0.1803111031905239,0.08908133575673469,0.037903880758171166,0.013899999357764582,0.0038942906681733057,7.19019646699778,5.705558704872982,5.137253864613894,4.590146407505077,3.979381558859017,3.343054684612063,2.6973547541617617,2.097527150841136,1.5775145283454384,1.127242677811664,0.7440870965795212,0.4415396051970112,0.23171370940370264,0.10760230816752803,0.04100713682271069
0.0,28.0,28.0,0.0,120.0,0.0,0.0,0.0,0.0,-107.0,0.0,-45.0,0.0,0.0,0.0,34.27253218749016,17.55503396713325,4.877677001824598,3.424016557574566,2.922978187170633,2.4657695185112356,1.9890590878197396,1.5343969806055426,1.1189365726126428,0.7767823010955535,0.5171244151845173,0.32314301169213805,0.18330877079556596,0.0914286770840394,0.039348156333484145,0.014607004405317927,0.004154375272485232,7.208611894619714,5.743630720028979,5.174714629129436,4.624355292670225,4.008816867184862,3.366956672883256,2.7154819022238033,2.1104520842390713,1.5868077915176975,1.1354586243258444,0.752931426946252,0.45013570258482377,0.23836177499612912,0.11175532918213103,0.043037180403380504
0.0,29.0,29.0,0.0,120.0,0.0,0.0,0.0,0.0,-107.0,0.0,-45.0,0.0,0.0,0.0,34.27253218749016,17.55503396713325,4.900988825364446,3.4612790043332975,2.9564568215368014,2.494000564230593,2.0112380672032457,1.550682781779924,1.129978850228119,0.783776539073896,0.5215130750212863,0.326346653601114,0.18609905424202294,0.09364966066487582,0.04074531892056629,0.01530483797565555,0.004416069865266732,7.228032183314016,5.7823987476029926,5.212679214262593,4.658977493488899,4.0385866208890535,3.3911168042072832,2.7337934231538057,2.1234774239518694,1.5959845356721345,1.1431744195209659,0.7610751424672073,0.45818416861628464,0.24472417922070827,0.11580522102980029,0.04505152890833209
0.0,30.0,30.0,0.0,120.0,0.0,0.0,0.0,0.0,-107.0,0.0,-45.0,0.0,0.0,0.0,34.27253218749016,17.55503396713325,4.925511814561692,3.4993166313363524,2.9905088675729723,2.5226782058468764,2.033745116681083,1.5671927068980933,1.1411601035031638,0.7908423587384831,0.525878874972647,0.3294015008688647,0.18870092210682526,0.09574870852118195,0.04209459943787289,0.015992225083375326,0.004678760184057104,7.2484958873284935,5.821864566980737,5.251153960782818,4.694020079335534,4.0686973063382865,3.4155406169047717,2.752293918022816,2.1366149438597555,1.6050957384825366,1.1504803003723034,0.7685886405683485,0.46571245753064744,0.25080500291786395,0.11974875375757359,0.04704698001394299
0.0,31.0,31.0,0.0,120.0,0.0,0.0,0.0,0.0,-107.0,0.0,-45.0,0.0,0.0,0.0,34.27253218749016,17.55503396713325,4.951292199514008,3.538138342963985,3.0251444369435747,2.551810808585991,2.056586280450049,1.5839307443950867,1.1524827891604374,0.7979839563181019,0.5302388835109054,0.332335365180689,0.1911327450549652,0.09773069502011496,0.04339556965640293,0.016668047508275646,0.004941869147541726,7.270041352301183,5.862029869527246,5.290145308888738,4.729490127297353,4.099155322146961,3.4402334899852196,2.7709878123121388,2.1498733601347406,1.6141812106876563,1.1574546795366414,0.7755387152476596,0.47274856507000107,0.25660930428839795,0.12358344615342377,0.049020647864352174
0.0,32.0,32.0,0.0,120.0,0.0,0.0,0.0,0.0,-107.0,0.0,-45.0,0.0,0.0,0.0,34.27253218749016,17.55503396713325,4.978376516079916,3.577753380211387,3.0603739285722975,2.5814069126034664,2.079767708924768,1.6009009385309108,1.163949364984505,0.8052045143959567,0.5346063898099688,0.33517241962796396,0.19341212835425686,0.09960086032339026,0.044648105431773,0.0173313336984841,0.0052048569719916945,7.292706550674386,5.902896266909816,5.329659733065308,4.765394658076172,4.129966980988075,3.4652006974878753,2.7898793789304372,2.1632593245912397,1.6232718407965243,1.1641651425089907,0.7819882443602088,0.47932080029091256,0.2621429787055098,0.1273074893710447,0.05096994519650139
0.0,33.0,33.0,0.0,120.0,0.0,0.0,0.0,0.0,-107.0,0.0,-45.0,0.0,0.0,0.0,34.27253218749016,17.55503396713325,5.006811474691643,3.61817136196658,3.096208032352555,2.611475236038886,2.103295660145151,1.6181073907797556,1.1755623031259683,0.8125065490407636,0.5389916809477133,0.3379334970218841,0.19555578019605324,0.10136472923235981,0.04585235392171972,0.017981248698763604,0.005467220879553925,7.316528925205823,5.9444653476749,5.369703744595725,4.801740639943039,4.1611385137576935,3.4904474143338238,2.8089727618587217,2.176778104016131,1.6323914707761975,1.1706694950956336,0.7879959718538768,0.48545756970916176,0.26741263902318,0.13091967650875644,0.05289256574430267
0.0,34.0,34.0,0.0,120.0,0.0,0.0,0.0,0.0,-107.0,0.0,-45.0,0.0,0.0,0.0,34.27253218749016,17.55503396713325,5.0366438209889575,3.6594023251702605,3.1326577330619108,2.6420246784168215,2.127176501569407,1.6355542611527165,1.1873240956803945,0.8198921468806599,0.5434026877612125,0.3406364092573843,0.19757941437401236,0.10302803503170067,0.04700870428440616,0.018617084264938504,0.005728494477183723,7.341545223291276,5.986738732955845,5.410283894083084,4.838534993377923,4.192676074564909,3.515978722135336,2.8282719885770993,2.1904340407797522,1.641558436807405,1.1770168191119417,0.7936163808449802,0.49118717338298135,0.27242551259618103,0.13441933811131396,0.05478646670529839
0.0,35.0,35.0,0.0,120.0,0.0,0.0,0.0,0.0,-107.0,0.0,-45.0,0.0,0.0,0.0,34.27253218749016,17.55503396713325,5.067920183619997,3.7014567666699745,3.1697343201057877,2.6730643204699067,2.1514167137188243,1.6532457690385698,1.1992372569038472,0.8273631240560362,0.5478455129094213,0.34329627262588647,0.19949768494771736,0.10459664829876397,0.04811776133623784,0.019238249293791195,0.005988246870298105,7.36779132416297,6.029718139827786,5.451406772551997,4.8757845924578,4.224585747957895,3.541799614689197,2.84778097780413,2.204230859879834,1.650786816402582,1.1832485027327526,0.7988996504037454,0.4965376137941247,0.27718935158962404,0.13780628349344531,0.05664985149734751
0.0,36.0,36.0,0.0,120.0,0.0,0.0,0.0,0.0,-107.0,0.0,-45.0,0.0,0.0,0.0,34.27253218749016,17.55503396713325,5.1006869196405535,3.7443456813885687,3.2074493947520257,2.704603428291069,2.176022895291655,1.6711861944837145,1.2113043228199318,0.8349211314417597,0.5523248560263618,0.34592582735491517,0.20132414980598162,0.10607651086755604,0.04918032167077174,0.019844260667831997,0.006246081604613249,7.395302070519309,6.073405458748584,5.493079051897863,4.913496322333548,4.256873599551013,3.567914988974824,2.867503522479852,2.218171884990639,1.6600874189838364,1.1893992217100104,0.8038916865482054,0.5015364190570727,0.2817123536167873,0.14108074770517728,0.05848115349939521
0.0,37.0,37.0,0.0,120.0,0.0,0.0,0.0,0.0,-107.0,0.0,-45.0,0.0,0.0,0.0,34.27253218749016,17.55503396713325,5.134989992360501,3.788080574342106,3.245814841772411,2.736651484265614,2.2010017595576445,1.689379882675651,1.2235278492773567,0.8425677230998737,0.5568443513462624,0.34853574263403525,0.20307125960225075,0.10747357523504161,0.05019735179104311,0.020434734586389613,0.006501635517605218,7.424111091233004,6.117802786187791,5.535307559272238,4.951677186317412,4.289545743509248,3.594329629420398,2.8874432594729464,2.232260191320384,1.6694685627603523,1.1954978536158662,0.8086342168965039,0.5062104821511921,0.28600309024409,0.14424334389134685,0.06027902058774401
0.0,38.0,38.0,0.0,120.0,0.0,0.0,0.0,0.0,-107.0,0.0,-45.0,0.0,0.0,0.0,34.27253218749016,17.55503396713325,5.1708747763514324,3.83267351352913,3.2848428665788,2.7692181460063408,2.2263601266384754,1.7078312397454734,1.2359104263395038,0.8503043920453416,0.5614068350934961,0.3511349003773696,0.20475036844271427,0.1087937496859347,0.05116996787632039,0.021009378430083124,0.0067545771427002365,7.454250511681283,6.162912264181613,5.578098859228667,4.99033375281641,4.322607896615328,3.6210483652374963,2.907603916290164,2.246498534691131,1.6789367397627724,1.201568299084021,0.813164940135391,0.5105859175198514,0.2900704413751143,0.1472950207834358,0.0620422938699107
0.0,39.0,39.0,0.0,120.0,0.0,0.0,0.0,0.0,-107.0,0.0,-45.0,0.0,0.0,0.0,34.27253218749016,17.55503396713325,5.2083859088435895,3.878137151441907,3.3245459979217724,2.8023132815019554,2.252104947991991,1.7265447375825262,1.2484546636280733,0.8581326044306157,0.5660145480579364,0.3537306560510777,0.206371762128508,0.11004284944455325,0.05209941687275519,0.021567983173795297,0.007004605570093367,7.485750890255661,6.2087364097489415,5.621459737766672,5.029472789852856,4.35606592056914,3.648075898322716,2.9279890378657845,2.2608895819616115,1.6884970241290043,1.2076302469204059,0.8175177127533676,0.5146879368468077,0.29392353416057054,0.1502370247848604,0.06376999940715623
0.0,40.0,40.0,0.0,120.0,0.0,0.0,0.0,0.0,-107.0,0.0,-45.0,0.0,0.0,0.0,34.27253218749016,17.55503396713325,5.247567136969463,3.924484747020574,3.364937089982203,2.8359469669202126,2.278243300686192,1.745524914766223,1.261163196662591,0.8660538125886442,0.5706692937392285,0.3563290723658932,0.20794470072594198,0.11122655393739406,0.052987058680130386,0.022110416355085427,0.00725144891051587,7.518640988316769,6.255278032960918,5.665397036766308,5.06910105359736,4.389925638244344,3.6754168726694334,2.9486020917632763,2.2754358806372172,1.6981534526291775,1.2136998345425678,0.8217227697282931,0.5185407440812846,0.2975716852845649,0.15307086640234482,0.0654613316977885
0.0,41.0,41.0,0.0,120.0,0.0,0.0,0.0,0.0,-107.0,0.0,-45.0,0.0,0.0,0.0,34.27253218749016,17.55503396713325,5.28846116974864,3.9717301852663924,3.406029328997359,2.8701294920577367,2.3047823907482474,1.7647763782842556,1.2740386879671959,0.8740694643682387,0.5753725572918298,0.3589351266325301,0.20947747179419357,0.1123503702439088,0.05383434926871161,0.022636615577590422,0.007494862826914112,7.5529475917066975,6.302540261366915,5.709917657502923,5.109225294989676,4.424192840553241,3.7030758806528223,2.9694464747759333,2.290139879614873,1.70790929484419,1.2197902311543714,0.825806965631668,0.5221674503101758,0.30102434604124356,0.1557982904721257,0.06711564029425153
0.0,42.0,42.0,0.0,120.0,0.0,0.0,0.0,0.0,-107.0,0.0,-45.0,0.0,0.0,0.0,34.27253218749016,17.55503396713325,5.331109539899124,4.019887993402524,3.447836240347916,2.9048713660635475,2.3317295566627694,1.7843038053834248,1.2870838282576722,0.882181008537875,0.5801255945371777,0.36155289215864417,0.21097745121039183,0.11341960265092564,0.05464282462267953,0.023146582520188225,0.00773462906658887,7.588695342806798,6.350526558156695,5.755028564448532,5.149852266423321,4.458873293352738,3.7310574694035292,2.9905255194735365,2.3050039428703655,1.7177672547715563,1.2259121428736104,0.8297940283509804,0.5255900081517813,0.30429104984103456,0.15842124973283547,0.06873241722242869
0.0,43.0,43.0,0.0,120.0,0.0,0.0,0.0,0.0,-107.0,0.0,-45.0,0.0,0.0,0.0,34.27253218749016,17.55503396713325,5.37555247909318,4.068973353882221,3.4903716960904383,2.940183323436823,2.359092273010759,1.8041119455456356,1.3003013376756136,0.8903898979020011,0.5849294978468496,0.3641856950736952,0.21245116885503282,0.11443932812171781,0.0554140854553159,0.023640377412785397,0.007970554010729538,7.625906587292944,6.39924073424543,5.800736789337115,5.190988728455837,4.493972744361469,3.7593661472319675,3.0118425006365808,2.320030359100361,1.7277296198603749,1.2320742457248466,0.8337048180323214,0.5288291649760211,0.3073813620341105,0.16094188128286915,0.07031128521367837
0.0,44.0,44.0,0.0,120.0,0.0,0.0,0.0,0.0,-107.0,0.0,-45.0,0.0,0.0,0.0,34.27253218749016,17.55503396713325,5.421828816373845,4.1190021214419135,3.5336499301357223,2.9760763375516888,2.3868781598997484,1.8242056228208003,1.3136939605712072,0.8986975930304025,0.5897852444429731,0.36683624841200657,0.21390437677579727,0.11541437741406517,0.05614978267226226,0.02411811393585212,0.008202467333624109,7.664601262491712,6.448687010176115,5.84704952126589,5.232641579522848,4.529497084562929,3.7880065044646622,3.0334005595496416,2.3352213147879386,1.737798403002942,1.2382835420711304,0.8375575872269564,0.5319044336761893,0.31030483207193377,0.16336248553313842,0.0718519891528886
0.0,45.0,45.0,0.0,120.0,0.0,0.0,0.0,0.0,-107.0,0.0,-45.0,0.0,0.0,0.0,34.27253218749016,17.55503396713325,5.469975878739487,4.169990816940665,3.5776855314289504,3.01256161202639,2.4150949751924475,1.8445897378197933,1.3272644804082325,0.9071055593410042,0.5946937313003131,0.36950676575394237,0.21534211803883277,0.11634932138497175,0.05685160362139321,0.024579954490257044,0.00843022046504535,7.70479673981347,6.498869902876512,5.893973933823168,5.274817608398714,4.565452035840761,3.816982983493605,3.0552028795470187,2.3505789714306835,1.7479753542875904,1.2445456930397398,0.8413682284760987,0.5348340804675787,0.31307094831960314,0.16568550703617013,0.07335438096468937
0.0,46.0,46.0,0.0,120.0,0.0,0.0,0.0,0.0,-107.0,0.0,-45.0,0.0,0.0,0.0,34.27253218749016,17.55503396713325,5.520029356695171,4.221956616836505,3.6224935113720815,3.04965063394136,2.443750581325345,1.8652692830229824,1.3410157157918448,0.9156152692221867,0.599655800097765,0.37219905653393265,0.21676879445968555,0.117248462177354,0.05752125911888604,0.025026105800328872,0.008653685173432896,7.746507754779076,6.549794314108047,5.941517285813237,5.3175234928151776,4.601843206191663,3.8462999204264894,3.077252668430904,2.3661054599262297,1.7582620286422113,1.250865273187827,0.8451505171997296,0.5376351270156645,0.31568909555156127,0.16791351711004224,0.0748184111925635
0.0,47.0,47.0,0.0,120.0,0.0,0.0,0.0,0.0,-107.0,0.0,-45.0,0.0,0.0,0.0,34.27253218749016,17.55503396713325,5.572023482266222,4.274917436236536,3.668089185397228,3.0873550654320123,2.472853063893064,1.886249309275202,1.3549505196675167,0.9242282048585203,0.6046722550870496,0.3749146052652647,0.21818823203530513,0.11811582878781733,0.05816047129535723,0.02545681480535266,0.008872752764987333,7.78974639373824,6.601465415311151,5.989686856724971,5.360766114249754,4.638676349731121,3.875961728862593,3.0995530301283933,2.3818028333536256,1.7686598787780696,1.2572459665378786,0.8489163446289807,0.5403233654142269,0.318168515416165,0.1700491978842345,0.07624412368547977
0.0,48.0,48.0,0.0,120.0,0.0,0.0,0.0,0.0,-107.0,0.0,-45.0,0.0,0.0,0.0,34.27253218749016,17.55503396713325,5.625990851522887,4.328891863218674,3.714488281042402,3.1256868559762814,2.5024106442267233,1.907534957975342,1.3690717791679277,0.9329458582041891,0.609743875566526,0.37765463692912377,0.21960374332820287,0.11895517642256244,0.05877096232921925,0.02587236479382091,0.009087332498674907,7.8345220390321035,6.653888754864734,6.038490065860535,5.404552376779239,4.675957229869756,3.9059728176062207,3.1221070407779066,2.39767309905891,1.7791702581100888,1.263690751416941,0.8526759308506695,0.5429133849883341,0.32051827023949236,0.17209532731058633,0.07763164614655153
0.0,49.0,49.0,0.0,120.0,0.0,0.0,0.0,0.0,-107.0,0.0,-45.0,0.0,0.0,0.0,34.27253218749016,17.55503396713325,5.681962485717746,4.383899181119648,3.7617069313006857,3.1646582261469285,2.532431700684395,1.929131457763157,1.3833824183614585,0.9417697315737783,0.6148714246037726,0.3804201705075409,0.22101818598840878,0.11976998921916454,0.05935444407712503,0.026273071752460186,0.009297350511070907,7.880841398044301,6.707070216222194,6.087934434876944,5.4488892274875855,4.713691631371262,3.9363375941454826,3.144917753805376,2.413718224058842,1.7897944420467438,1.2702020438255228,0.8564380236783268,0.5454186084841316,0.3227472102519435,0.17405476509430115,0.07898118285777928
0.0,50.0,50.0,0.0,120.0,0.0,0.0,0.0,0.0,-107.0,0.0,-45.0,0.0,0.0,0.0,34.27253218749016,17.55503396713325,5.739967902373889,4.439959378188768,3.8097616787487807,3.2042816696368255,2.5629247779959745,1.951044125341251,1.3978853999603826,0.9507013384265404,0.620055655069549,0.38321206248216255,0.22243401704562502,0.1205634858081855,0.05991260863686822,0.026659280900335168,0.009502748748079194,7.928708561437687,6.761015997906047,6.138027583214266,5.493783667847372,4.751885366497318,3.967060470162427,3.167988204853926,2.4299401400484535,1.8005336434837496,1.2767818136508708,0.8602100809703512,0.547851336075427,0.3248639444210407,0.1759304393367547,0.08029300809557105
0.0,51.0,51.0,0.0,120.0,0.0,0.0,0.0,0.0,-107.0,0.0,-45.0,0.0,0.0,0.0,34.27253218749016,17.55503396713325,5.80003517421063,4.497093139807321,3.8586694993369774,3.2445700011303344,2.593898588927721,1.9732783600769135,1.4125837289649568,0.9597422042519661,0.6252973136314209,0.38603104199105,0.22385334273106117,0.12133862723430451,0.06044711986037056,0.027031363385589986,0.009703483938107197,7.978125114410478,6.815732637998342,6.188777272843776,5.539242771808336,4.790544247297791,3.9981458808444015,3.1913214118609163,2.446340749658441,1.8113890238545847,1.2834316783417268,0.8639984362800863,0.5502227955372333,0.3268768149858909,0.17772533376882613,0.08156746034647909
0.0,52.0,52.0,0.0,120.0,0.0,0.0,0.0,0.0,-107.0,0.0,-45.0,0.0,0.0,0.0,34.27253218749016,17.55503396713325,5.8621910824094305,4.555321881958266,3.908447826376109,3.2855363500685955,2.625362005092689,1.995839656961026,1.4274804506224217,0.9688938681285512,0.6305971435613077,0.3888777389486015,0.22527796379920836,0.12209812676922879,0.06095960582613648,0.027389713127745074,0.009899526716791555,8.029090288042939,6.871226996772219,6.240191386708128,5.585273660713647,4.829674108114598,4.02959828881297,3.214920380397859,2.4629219301988785,1.8223617019604748,1.2901529777922796,0.8678084481705154,0.5525431970436119,0.32879387572806607,0.17944247549308953,0.08280493678035065
0.0,53.0,53.0,0.0,120.0,0.0,0.0,0.0,0.0,-107.0,0.0,-45.0,0.0,0.0,0.0,34.27253218749016,17.55503396713325,5.926461425108471,4.614667809749467,3.9591144880523754,3.3271939917686004,2.657324088683455,2.0187336308109303,1.4425786401340022,0.9781578850609673,0.6359558890333791,0.3917527050709425,0.2267094167879611,0.12284446111915728,0.06145165227058411,0.027734743800303004,0.010090860514876747,8.081601043354995,6.927506105356641,6.292277815051049,5.631883554983832,4.869281049847175,4.061422250583339,3.2387882116312126,2.4796854493271763,1.8334527480078788,1.2969468532837962,0.8716446278191532,0.554821792034856,0.3306228740449407,0.18108492302144616,0.0840058904639519
0.0,54.0,54.0,0.0,120.0,0.0,0.0,0.0,0.0,-107.0,0.0,-45.0,0.0,0.0,0.0,34.27253218749016,17.55503396713325,5.992870990567083,4.675153834260493,4.010687788924673,3.369556584237922,2.689794090896272,2.0419659804863617,1.4578814253976797,0.9875358223683851,0.641374293298316,0.39465643379136284,0.22814900988319034,0.1235798829293351,0.06192479694310306,0.028066885920864447,0.010277480856779408,8.135652341452735,6.984577316668846,6.345044618407921,5.679079741461294,4.909371083557172,4.093622280477368,3.262927939398417,2.496633118693777,1.8446632108866259,1.303814261493032,0.8755107678671645,0.5570669317626075,0.33237123640234784,0.18265575519418986,0.08517082176570029
0.0,55.0,55.0,0.0,120.0,0.0,0.0,0.0,0.0,-107.0,0.0,-45.0,0.0,0.0,0.0,34.27253218749016,17.55503396713325,6.061443842981765,4.736803622361836,4.063186506803589,3.412638100193588,2.7227814588055104,2.065542513052871,1.4733919857886681,0.9970292592360138,0.6468530990521537,0.39758937479038,0.2295978551659313,0.12430643393370468,0.06238052487949808,0.028386584070094995,0.010459394664942754,8.191237348948219,7.042448212107509,6.3984999189049345,5.72686949589748,4.949950128184317,4.126202736507399,3.287342483501612,2.5137668549793,1.8559941331830085,1.3107559973242981,0.8794100514681613,0.559286127533752,0.3340460573741824,0.18415806037294427,0.08630027162630573
0.0,56.0,56.0,0.0,120.0,0.0,0.0,0.0,0.0,-107.0,0.0,-45.0,0.0,0.0,0.0,34.27253218749016,17.55503396713325,6.132203543956275,4.799641612231465,4.1166299231453625,3.4564528609689673,2.756295850743028,2.0894691127893297,1.489113549691398,1.0066397911452922,0.652393053724817,0.40055194184836157,0.23105689813567962,0.12502595833354802,0.06282026455741399,0.02869429425216212,0.010636619331558853,8.248347721546688,7.101126681121484,6.452652036960522,5.775260273015806,4.991024258862684,4.159168150272554,3.312034875170568,2.5310884648785335,1.867446518447521,1.3177727744416585,0.8833451283368654,0.5614861137056106,0.33565409232181465,0.18559492552586976,0.08739482574529009
0.0,57.0,57.0,0.0,120.0,0.0,0.0,0.0,0.0,-107.0,0.0,-45.0,0.0,0.0,0.0,34.27253218749016,17.55503396713325,6.2051733980511,4.863693048700592,4.171037881241376,3.501015598195755,2.7903471583558366,2.113751713757179,1.505049417078,1.0163690219926182,0.6579949102019615,0.4035445222033534,0.23252694244479769,0.12574011658462128,0.06324538487192446,0.028990481351768613,0.01080918246197027,8.306973916286912,7.160620935210914,6.507509476084539,5.824259626324414,5.032599539670875,4.1925230894242365,3.33700816878713,2.548599743862208,1.8790213505537783,1.324865225191786,0.8873182017578568,0.5636729065862172,0.337201752832132,0.18696942641066613,0.08845510761973924
0.0,58.0,58.0,0.0,120.0,0.0,0.0,0.0,0.0,-107.0,0.0,-45.0,0.0,0.0,0.0,34.27253218749016,17.55503396713325,6.280376824209367,4.92898396427031,4.2264306347816705,3.546341176134516,2.8249453357818046,2.1383965172692503,1.5212028803530153,1.0262185943444286,0.6636594176471999,0.4065674854859785,0.23400867125875977,0.1264503991578612,0.06365719288182119,0.029275616714697722,0.01097711956265997,8.367105175513792,7.220939202836094,6.563080674624881,5.873875134112158,5.074682264217278,4.226272210693756,3.362265380367119,2.566302499034973,1.8907195934015768,1.3320339181658216,0.891331098165022,0.5658518626846152,0.33869510517288737,0.18828461805770522,0.08948177389909787
0.0,59.0,59.0,0.0,120.0,0.0,0.0,0.0,0.0,-107.0,0.0,-45.0,0.0,0.0,0.0,34.27253218749016,17.55503396713325,6.35783747362928,4.995541196301478,4.282829024942511,3.5924449170052277,2.860100627145787,2.1634097613059797,1.5375773076073425,1.0361901597037724,0.6693873324243715,0.40962118606166953,0.2355026667130359,0.1271581398712522,0.0640569323002642,0.02955017586559053,0.011140475060221566,8.428730081664998,7.282090057395141,6.6193743034791925,5.924114534058539,5.117278729228271,4.2604201762007445,3.387809572931678,2.5841985254734157,1.9025421981169028,1.3392793716523224,0.8953853268261854,0.5680277350203699,0.3401398713328431,0.18954352579228384,0.09047551298866581
0.0,60.0,60.0,0.0,120.0,0.0,0.0,0.0,0.0,-107.0,0.0,-45.0,0.0,0.0,0.0,34.27253218749016,17.55503396713325,6.437579567846269,5.063392409229033,4.340254449203529,3.639342512329293,2.895823492813879,2.188797799279564,1.5541761180201221,1.0462853889286559,0.6751794151184098,0.41270596776726937,0.2370094260144595,0.1278645289792103,0.06444578262863569,0.029814636346811377,0.011299301178659217,8.491836718345107,7.3440823092362635,6.676399161270614,5.9749856739031015,5.160395308202546,4.294971691750856,3.4136438295699083,2.602289618108183,1.9144901033799315,1.3466020643594836,0.8994821312031956,0.5702047268533186,0.34154143245326807,0.19074913680950972,0.09143704147943682
0.0,61.0,61.0,0.0,120.0,0.0,0.0,0.0,0.0,-107.0,0.0,-45.0,0.0,0.0,0.0,34.27253218749016,17.55503396713325,6.5196281825071285,5.132566114368461,4.39872887559648,3.6870500371303163,2.9321246153107037,2.214567101906625,1.5710027832521773,1.0565059728741255,0.6810364309535675,0.41582216683331824,0.2385293754000345,0.12857062572179384,0.06482485889410464,0.030069475691312596,0.01145365736493011,8.55641290413893,7.406925013207246,6.734164172168172,6.026496512819553,5.204038455145614,4.329931509228689,3.439771256193195,2.6205775737350585,1.9265642374502758,1.3540024435516225,0.9036225327691475,0.5723865426379324,0.3429048343450584,0.1919043923384931,0.0923671013019772
0.0,62.0,62.0,0.0,120.0,0.0,0.0,0.0,0.0,-107.0,0.0,-45.0,0.0,0.0,0.0,34.27253218749016,17.55503396713325,6.604009531531777,5.2030917011538085,4.458274859631384,3.7355839692781383,2.9690149082339885,2.240724254700237,1.5880608282352402,1.066853623983203,0.6869591498409566,0.4189701141608665,0.2400628820395404,0.12927737027886282,0.06519521192394517,0.030315169530040976,0.011603609767744948,8.622446406801204,7.470627485362463,6.792678384962249,6.078655118070398,5.24821470236703,4.365304425557126,3.466194988204393,2.639064191138295,1.9387655205923249,1.3614809311360045,0.9078073682759642,0.5745764359678952,0.344234794830132,0.19301218041716683,0.09326645691249487
0.0,63.0,63.0,0.0,120.0,0.0,0.0,0.0,0.0,-107.0,0.0,-45.0,0.0,0.0,0.0,34.27253218749016,17.55503396713325,6.690751321382232,5.274999578736452,4.518915664348719,3.7849613023609647,3.006505559399788,2.2672758719855426,1.6053538293945224,1.0773300920074276,0.6929483413225443,0.42215013775794996,0.24161026422894977,0.12998559500021398,0.06555782911661176,0.030552189829573893,0.011749231543643074,8.689925205222591,7.535199360181066,6.851950971240156,6.131469599105728,5.292930541527313,4.401095227262775,3.4929182764215585,2.6577512364542404,1.951094879261739,1.3690379248322129,0.9120373220637309,0.5767772542453129,0.34553571266189814,0.19407532930239713,0.09413589166816111
0.0,64.0,64.0,0.0,120.0,0.0,0.0,0.0,0.0,-107.0,0.0,-45.0,0.0,0.0,0.0,34.27253218749016,17.55503396713325,6.779882733895329,5.348320897630973,4.580674900761097,3.8351992098288465,3.0446078837578097,2.294228865037411,1.6228854518723836,1.0879371043803356,0.6990047963825494,0.42536256043709036,0.24317179987232307,0.13069603518978712,0.06591363552258547,0.03078100330235788,0.011890598941304661,8.758837399346131,7.600650456593954,6.911991205264092,6.184948265434378,5.338192801376422,4.437308908983838,3.5199442251747004,2.6766405543625718,1.9635532098992583,1.3766738132184249,0.9163129498927721,0.5789914808555765,0.34681167765461535,0.19509660148943114,0.09497620769421947
0.0,65.0,65.0,0.0,120.0,0.0,0.0,0.0,0.0,-107.0,0.0,-45.0,0.0,0.0,0.0,34.27253218749016,17.55503396713325,6.871434888204816,5.423087938800745,4.643576897043865,3.88631540614684,3.083333512173142,2.3215901937743655,1.6406593964559064,1.0986764344680213,0.7051293037585705,0.4286077051372243,0.24474773351535353,0.13140933884440664,0.06626349542284331,0.031002069901756333,0.012027793940608962,8.829171683528385,7.666990972319875,6.972808541767902,6.2390994928219214,5.38400829824188,4.473950444237033,3.5472760479153127,2.6957339679700456,1.9761414151747845,1.3843889679203927,0.9206347037522926,0.5812212731132156,0.34806648203263757,0.19607868841703743,0.09578822114763852
0.0,66.0,66.0,0.0,120.0,0.0,0.0,0.0,0.0,-107.0,0.0,-45.0,0.0,0.0,0.0,34.27253218749016,17.55503396713325,6.965440970572175,5.499334094603698,4.707646588750786,3.938328023178844,3.1226943304601575,2.34936694533387,1.6586794282782902,1.1095498893800793,0.711322659157186,0.43188588896450625,0.24633828490278528,0.13212607508941865,0.06660821424862808,0.031215841516256407,0.012160902437158127,8.900917502596934,7.734231447591636,7.034412676670664,6.293931841948353,5.430384079798375,4.511025060671486,3.574917207367781,2.71503341016563,1.9888602267214723,1.392183760826278,0.9250029633858244,0.5834684945311831,0.3493036316562012,0.19702420694144016,0.09657276766647452
0.0,67.0,67.0,0.0,120.0,0.0,0.0,0.0,0.0,-107.0,0.0,-45.0,0.0,0.0,0.0,34.27253218749016,17.55503396713325,7.061936512678946,5.577093993195233,4.772909574559528,3.9912556286598107,3.1627025022359323,2.377566339276498,1.67694936171945,1.120559280115323,0.7175856639259575,0.4351974381260597,0.24794364706028038,0.13284674473389338,0.06694854023795395,0.031422760704838654,0.012290013088958128,8.974065325179218,7.802382618249525,7.096813428694788,6.349453816631339,5.477327048450725,4.548537709274645,3.6028708116260084,2.734540649366168,2.0017106727612948,1.4000585335630797,0.929418013331555,0.5857347561862108,0.3505263611350547,0.19793569210660394,0.09733068025969756
0.0,68.0,68.0,0.0,120.0,0.0,0.0,0.0,0.0,-107.0,0.0,-45.0,0.0,0.0,0.0,34.27253218749016,17.55503396713325,7.160959726117053,5.656403555081557,4.839392151470725,4.045117203962446,3.2033704631616833,2.406195728382418,1.6954730750392166,1.1317064484791421,0.7239191267823527,0.43854267594427604,0.24956399643076352,0.13357178615997659,0.06728516700941219,0.031623259686345946,0.012415217133565647,9.048607054933344,7.871455394705966,7.160020913808912,6.405674083526011,5.524844278314784,4.586493524228148,3.6311401320264896,2.754257525357797,2.014693681563038,1.4080136264823377,0.9338800883857277,0.5880214384297311,0.35173764498086674,0.19881559645685676,0.09806280444377999
0.0,69.0,69.0,0.0,120.0,0.0,0.0,0.0,0.0,-107.0,0.0,-45.0,0.0,0.0,0.0,34.27253218749016,17.55503396713325,7.2625520467640365,5.737300012962798,4.907121403476716,4.099932146328306,3.2447109275500856,2.4352626032801883,1.7142545087831176,1.1429932630113155,0.7303238637650443,0.44192192539980946,0.2511994952601943,0.13430158268825187,0.06761873588676043,0.03181775939689735,0.012536608212570828,9.124536407021338,7.941460691014176,7.224045545692761,6.462601459861674,5.572942956530826,4.6248977495913355,3.6597285171842167,2.7741859103408357,2.027810150023867,1.4160493751552992,0.9383893785713066,0.59032971885208,0.35294021139640464,0.1996662867692624,0.09876999348191069
0.0,70.0,70.0,0.0,120.0,0.0,0.0,0.0,0.0,-107.0,0.0,-45.0,0.0,0.0,0.0,34.27253218749016,17.55503396713325,7.36675888454215,5.819821816354291,4.97612531071464,4.1557202796578885,3.2867368901563387,2.464774597795145,1.7332976654287846,1.1544216173912263,0.7368006983727341,0.4453355103836078,0.25285029396046743,0.13503646911255296,0.06794983836222368,0.032006668680564204,0.01265428261038731,9.201849146100315,8.012409251499093,7.288898007843066,6.520244931977207,5.621630353627016,4.663755706867371,3.688639353979715,2.794327691160781,2.041060976155098,1.4241661091752258,0.9429460351991237,0.5926605969452484,0.3541365559956218,0.20049004161708694,0.09945310485033683
0.0,71.0,71.0,0.0,120.0,0.0,0.0,0.0,0.0,-107.0,0.0,-45.0,0.0,0.0,0.0,34.27253218749016,17.55503396713325,7.47363050709744,5.904008410375994,5.04643285941714,4.2125018706914235,3.3294615878508314,2.4947394459549823,1.7526066085621583,1.1659934569375672,0.7433504477128704,0.44878376060323094,0.2545165322624325,0.13577673769522758,0.068279018630408,0.0321903835947052,0.012768338912219136,9.280542931131496,8.084311506735913,7.354589103892361,6.578613630564631,5.670913770058392,4.703072797083918,3.7178761299000227,2.8146847518300864,2.054447059858081,1.432364153263063,0.9475501783491874,0.5950149155069534,0.3553289554071955,0.2012890496927671,0.10011299672134527
0.0,72.0,72.0,0.0,120.0,0.0,0.0,0.0,0.0,-107.0,0.0,-45.0,0.0,0.0,0.0,34.27253218749016,17.55503396713325,7.5832226550395925,5.989899864066348,5.118074072038203,4.270297682997994,3.372898538278895,2.52516507263941,1.7721854845675844,1.1777107286033406,0.7499739468909684,0.45226700382438273,0.25619834324405194,0.13652264292009617,0.0686067762421284,0.03236928686494747,0.01287887838087427,9.360616809551063,8.15717781968116,7.4211297077100244,6.6377169824935445,5.720800635993524,4.742854520596203,3.7474423370904164,2.8352589951008214,2.0679693089955995,1.4406438259361898,0.9522019024532151,0.5973933802724886,0.35651948057968974,0.2020654087054868,0.10075052607209158
0.0,73.0,73.0,0.0,120.0,0.0,0.0,0.0,0.0,-107.0,0.0,-45.0,0.0,0.0,0.0,34.27253218749016,17.55503396713325,7.695596540168609,6.077536645274034,5.191079981849238,4.329129096580721,3.4170615871092096,2.556059643106277,1.7920384973125556,1.1895753669905034,0.7566720615392971,0.4557855618570136,0.25789585571841245,0.13727440605756158,0.06893356869505851,0.03254374745297907,0.012986004170822118,9.44207032663977,8.231019059720222,7.488530621392775,6.69756478329966,5.771298552411196,4.78310645055573,3.7773414157212875,2.8560523751581455,2.0816286327319458,1.4490054424656909,0.9569012800229203,0.5997965775164887,0.357710009871605,0.20282112475568623,0.10136654631286983
0.0,74.0,74.0,0.0,120.0,0.0,0.0,0.0,0.0,-107.0,0.0,-45.0,0.0,0.0,0.0,34.27253218749016,17.55503396713325,7.810817787744668,6.166959817866427,5.2654824269667655,4.389018160595353,3.4619648042294937,2.587431432485911,1.8121699079118545,1.2015893662154455,0.7634456489296244,0.4593397636919213,0.2596091922579091,0.13803221992832845,0.06925981395031061,0.03271412017484791,0.01308981735747649,9.524902779653258,8.305847267001345,7.55680221250968,6.758166979741068,5.822415167744362,4.8238342296263115,3.8075769245327655,2.87706684680726,2.0954259424305604,1.4574493160737831,0.961648366626821,0.6022249888141172,0.3589022420760557,0.20355811212639185,0.1019619045963504
0.0,75.0,75.0,0.0,120.0,0.0,0.0,0.0,0.0,-107.0,0.0,-45.0,0.0,0.0,0.0,34.27253218749016,17.55503396713325,7.928954595565387,6.25821190113626,5.341313670332174,4.449987668008665,3.5076225236314063,2.619288887760519,1.832584045659301,1.213754746875166,0.7702955749931486,0.46292994007916816,0.2613384716557299,0.13879625231829654,0.06958589300870516,0.032880745470361815,0.01319041648935645,9.609114496985226,8.381676550048198,7.625954498098288,6.819533659033805,5.874158267851703,4.865043571525553,3.8381524735907804,2.898304384729392,2.1093621542718464,1.465975757674478,0.9664432037321239,0.6046790048856813,0.36009770880429376,0.2042781935672057,0.10253744465612424
0.0,76.0,76.0,0.0,120.0,0.0,0.0,0.0,0.0,-107.0,0.0,-45.0,0.0,0.0,0.0,34.27253218749016,17.55503396713325,8.05007752791214,6.351338481738572,5.418606013950935,4.512061156773104,3.5540493575861296,2.6516406272488022,1.853285311565681,1.22607355632581,0.7772227144135689,0.4665564236856153,0.26308380974492124,0.13956664926248408,0.0699121523932325,0.0330439492510835,0.013287899933270415,9.694710698961604,8.458523141840628,7.69599749939563,6.881674910710919,5.92653580410406,4.906740254285665,3.869071727006267,2.919766984624153,2.123438189987589,1.4745850764669437,0.9712858212819795,0.6071589376364346,0.3612977864972271,0.20498310095583003,0.10309401031343964
0.0,77.0,77.0,0.0,120.0,0.0,0.0,0.0,0.0,-107.0,0.0,-45.0,0.0,0.0,0.0,34.27253218749016,17.55503396713325,8.174263764301543,6.446389787873251,5.497391692561538,4.575262806155313,3.6012602226314057,2.6844954348690684,1.874278182715826,1.238547869026597,0.7842279507049265,0.47021954924283016,0.26484532006043726,0.14034353794766882,0.07023890655880162,0.03320404283425058,0.013382373474240438,9.781705356199456,8.536403864341391,7.766942010187271,6.94460069589509,5.979555918141443,4.948930113920565,3.90033840444989,2.941456664469209,2.13765497762842,1.4832775805056617,0.976176239812963,0.6096650307692731,0.362503707949647,0.2056744763213351,0.10363244632968009
0.0,78.0,78.0,0.0,120.0,0.0,0.0,0.0,0.0,-107.0,0.0,-45.0,0.0,0.0,0.0,34.27253218749016,17.55503396713325,8.301604132500842,6.543420632444717,5.577703433127289,4.639617236146454,3.649270375079245,2.717862248186619,1.8955672168828661,1.2511797870200814,0.7913121762869704,0.4739196536820871,0.2666231143757207,0.14112702926969817,0.07056644021741143,0.033361322955588336,0.013473957663316534,9.870119074210075,8.615333062433827,7.838800541285394,7.008320822565563,6.033226957740374,4.99161904197498,3.9319562807567983,2.9633754658755027,2.1520134523777608,1.4920535772530692,0.9811144722058864,0.6121974691152909,0.3637165733154419,0.20635387319411083,0.10415358756207554
