Line_number,Fiducial,Easting,Northing,Height,Elevation,tx_pitch,tx_roll,tx_yaw,txrx_dx,txrx_dy,txrx_dz,rx_pitch,rx_roll,rx_yaw,PX,PZ,S0X_time_1.086e-05,S0X_time_3.256e-05,S0X_time_5.426e-05,S0X_time_8.680e-05,S0X_time_1.411e-04,S0X_time_2.279e-04,S0X_time_3.689e-04,S0X_time_5.860e-04,S0X_time_9.115e-04,S0X_time_1.411e-03,S0X_time_2.192e-03,S0X_time_3.418e-03,S0X_time_5.339e-03,S0X_time_8.301e-03,S0X_time_1.338e-02,S0Z_time_1.086e-05,S0Z_time_3.256e-05,S0Z_time_5.426e-05,S0Z_time_8.680e-05,S0Z_time_1.411e-04,S0Z_time_2.279e-04,S0Z_time_3.689e-04,S0Z_time_5.860e-04,S0Z_time_9.115e-04,S0Z_time_1.411e-03,S0Z_time_2.192e-03,S0Z_time_3.418e-03,S0Z_time_5.339e-03,S0Z_time_8.301e-03,S0Z_time_1.338e-02
0.0,0.0,0.0,0.0,120.0,0.0,0.0,0.0,0.0,-107.0,0.0,-45.0,0.0,0.0,0.0,34.27253218749016,17.55503396713325,4.439934103025927,2.548885196823218,2.0839580209442876,1.779499877004353,1.5483792354921273,1.3763808475804487,1.2233364598062775,1.075176971427988,0.9290281205047733,0.7802800964585053,0.6300496906060319,0.4847597004369629,0.3527285379835961,0.24220681362265617,0.1506044044364856,6.489599658702851,4.472854051406144,3.8558267016074574,3.4234720597423824,3.077250993815754,2.8115917690329177,2.5728718699780453,2.3376388630647273,2.098543130216202,1.845371008612047,1.5765858326581221,1.3000087299164809,1.0289179684675611,0.7806441009172728,0.5508286577646522
0.0,1.0,1.0,0.0,120.0,0.0,0.0,0.0,0.0,-107.0,0.0,-45.0,0.0,0.0,0.0,34.27253218749016,17.55503396713325,4.450751126719759,2.5731406008234132,2.101093272674565,1.766747493772674,1.4934199011104217,1.2941182737275898,1.134700693650448,0.9921277361590201,0.8560454474881406,0.719343510012813,0.5819816866543246,0.44923300075676215,0.3283275948086756,0.22667228421684188,0.14188203253936954,6.512611690828447,4.512247711620346,3.89058173213741,3.4228666748488106,3.0164266867083676,2.702611795805583,2.4444629833542875,2.2098067982875427,1.9799842387337414,1.7404576034711359,1.4880574578840702,1.229160911857299,0.9754811225210892,0.7427343368171122,0.5264964948505204
0.0,2.0,2.0,0.0,120.0,0.0,0.0,0.0,0.0,-107.0,0.0,-45.0,0.0,0.0,0.0,34.27253218749016,17.55503396713325,4.461463676266545,2.5982118962102687,2.125054663690576,1.77401208443299,1.466572160478045,1.235224466841724,1.0615427316703965,0.919980263414644,0.7914826461670681,0.6649217030562639,0.5387326977456227,0.41703701564889534,0.30604561052168583,0.21237119774522506,0.13377756808427732,6.534864578534459,4.551842385910439,3.9321047233265154,3.44631513531899,2.9938909180358038,2.6279734779292254,2.338747035810532,2.0972380573166967,1.8731084213411406,1.6448610664618322,1.4068189603927295,1.1637537792003432,0.925851614506695,0.7073033561950699,0.5035900915160675
0.0,3.0,3.0,0.0,120.0,0.0,0.0,0.0,0.0,-107.0,0.0,-45.0,0.0,0.0,0.0,34.27253218749016,17.55503396713325,4.472119921054501,2.6235574821315737,2.1510968311009755,1.7911986088548058,1.459401876983783,1.1970250045092523,1.003349592613232,0.8579177882279461,0.7344072581531065,0.6162471040317796,0.4997502866136046,0.3878120017502038,0.2856709372810241,0.1991915281112003,0.1262413099918534,6.556440303449771,4.591166693931402,3.975254753069534,3.4811259180718093,2.9975183043394393,2.5838151817135757,2.2560312349024327,1.9997095366199489,1.7770897305341358,1.557740215025744,1.3321938350497948,1.1033001497957073,0.8797095183967834,0.6741596951181856,0.4820110171414127
0.0,4.0,4.0,0.0,120.0,0.0,0.0,0.0,0.0,-107.0,0.0,-45.0,0.0,0.0,0.0,34.27253218749016,17.55503396713325,4.482767180486307,2.6491308430049916,2.177712968283056,1.8127909998160658,1.464693253782561,1.175603773616592,0.9591736043301479,0.8053804525438658,0.6840990340080073,0.5726760195519706,0.4645579676340232,0.36124271809583247,0.2670155826822985,0.1870324129374391,0.11922785064349778,6.577417478146243,4.630213736081498,4.01847597333162,3.520591758026797,3.0172513051690637,2.5641399538728677,2.1953715462250085,1.9172081524751114,1.691382613020512,1.478399397201228,1.2635916188486418,1.0473662889652424,0.8367664412369087,0.643128765594381,0.46166841174561724
0.0,5.0,5.0,0.0,120.0,0.0,0.0,0.0,0.0,-107.0,0.0,-45.0,0.0,0.0,0.0,34.27253218749016,17.55503396713325,4.49345152320826,2.6749574134579337,2.204521094565255,1.8361581557776336,1.477278359860453,1.1668328636209295,0.9275095149843016,0.7618597310350588,0.6400123116839177,0.533673672286813,0.4327448050323541,0.33705255356036884,0.24991242704735578,0.17580301954393743,0.11269571256168505,6.597871156182955,4.669039410694265,4.06140833521147,3.561608671182996,3.04607481116803,2.562654217231898,2.1545549552967835,1.8495362068241161,1.6156582937403758,1.4062819582537507,1.200499453483286,0.9955659024563264,0.7967622078678678,0.6140512999569115,0.44247839438262443
0.0,6.0,6.0,0.0,120.0,0.0,0.0,0.0,0.0,-107.0,0.0,-45.0,0.0,0.0,0.0,34.27253218749016,17.55503396713325,4.504217900232616,2.701068710154164,2.23145951736446,1.8601860153153476,1.4938510022146358,1.1670586404531018,0.9064848721741215,0.726751111180847,0.601719223511033,0.4988010813034037,0.40395689898620496,0.3149985476642754,0.23421275721547033,0.1654215110916354,0.1066070081786756,6.617873139529908,4.707702858922165,4.104018156766088,3.6029060664070216,3.0796031905818664,2.5738665856758463,2.1305927333199537,1.7960733805100835,1.5496879307288356,1.3409593879645423,1.1424756945271217,0.9475551389718165,0.7594619144302229,0.5867819306426184,0.4243635115089368
0.0,7.0,7.0,0.0,120.0,0.0,0.0,0.0,0.0,-107.0,0.0,-45.0,0.0,0.0,0.0,34.27253218749016,17.55503396713325,4.5151103558662244,2.7274954030483842,2.258539198647119,1.88445981235674,1.5124710575837534,1.173376543689436,0.8941268002681975,0.6993063183920728,0.5688478435377141,0.4677001161102596,0.3778904189617383,0.2948671639216337,0.21978409801825874,0.15581411077120436,0.1009271244519674,6.637492327242868,4.746260425319508,4.146341271178725,3.6440352214947414,3.115317777986175,2.5934787412561673,2.1202722875776736,1.7557517623539032,1.4932188031559313,1.2821078999642608,1.0891448925596268,0.9030284069127581,0.7246533409821803,0.561187896854687,0.40725222626499613
0.0,8.0,8.0,0.0,120.0,0.0,0.0,0.0,0.0,-107.0,0.0,-45.0,0.0,0.0,0.0,34.27253218749016,17.55503396713325,4.526172214690758,2.754266685001028,2.285782700686034,1.9088514066274263,1.5320838040100722,1.1836442388887398,0.8885718691753134,0.6786606920110986,0.5410336459497701,0.4400755252765218,0.35428563472990926,0.2764706909194329,0.20650831950539295,0.14691425827548465,0.09562443260016205,6.656795018797746,4.784765041842082,4.188422577043088,3.68487515269795,3.151880011887197,2.6183674888470145,2.1205547569913503,1.7271700646917179,1.4458882446798371,1.2294729318465007,1.0401925363723372,0.8617148796497954,0.6921447001929016,0.5371478679753936,0.391078448507857
0.0,9.0,9.0,0.0,120.0,0.0,0.0,0.0,0.0,-107.0,0.0,-45.0,0.0,0.0,0.0,34.27253218749016,17.55503396713325,4.537446246886003,2.781410092169382,2.31321290538863,1.9333369281515738,1.5521578194831847,1.1963718293138084,0.8881876872790782,0.6638932020589585,0.5178928751153118,0.41567586363612835,0.3329212586399474,0.2596441811356854,0.19427998906860702,0.13866185238683038,0.09067002231202133,6.675845183881579,4.82326610102339,4.230305575373236,3.7254202246020838,3.188634335484062,2.6463918649462506,2.1287913543869155,1.7087533553621963,1.4071904557496,1.182829864775617,0.9953578354552829,0.8233755781105199,0.6617626778610739,0.5145508791776364,0.37578110325536035
0.0,10.0,10.0,0.0,120.0,0.0,0.0,0.0,0.0,-107.0,0.0,-45.0,0.0,0.0,0.0,34.27253218749016,17.55503396713325,4.548974821479104,2.8089515141403,2.3408517491034204,1.9579254926985332,1.572447516114626,1.210574469716674,0.891621213767035,0.6540878075148808,0.49901597051333646,0.3942763575408893,0.31360865569610047,0.24424283127826985,0.1830049353757355,0.13100257463959256,0.08603745875051276,6.69470471064182,4.861809570284472,4.272031332696587,3.7656993515580965,3.2252911580896946,2.676157012909935,2.1428027950030533,1.6988981264935796,1.3764868001083752,1.141950329247675,0.954423944048769,0.7878008007724047,0.6333507232585788,0.49329537871926593,0.36130373280488276
0.0,11.0,11.0,0.0,120.0,0.0,0.0,0.0,0.0,-107.0,0.0,-45.0,0.0,0.0,0.0,34.27253218749016,17.55503396713325,4.560800049027246,2.8369153086231496,2.3687201962759317,1.9826346797001626,1.5928523662070913,1.2256312271866847,0.8977988090949157,0.6483812563656941,0.4839741986627599,0.37566590465216293,0.2961859117519031,0.23013968340475863,0.17259899588140948,0.12388728890496849,0.08170256017527366,6.71343363496945,4.900438207784782,4.3136384807901464,3.8057490471216693,3.261742995892641,2.706797260171425,2.1608741354052476,1.6960787228399838,1.353041144650479,1.1065796980992606,0.9172064218349469,0.7548075754372939,0.6067675591496619,0.4732883834318213,0.3475941277754254
0.0,12.0,12.0,0.0,120.0,0.0,0.0,0.0,0.0,-107.0,0.0,-45.0,0.0,0.0,0.0,34.27253218749016,17.55503396713325,4.572963912900283,2.865324432045276,2.3968382330747056,2.007483287536927,1.613340219267016,1.2411686250809535,0.905899271970684,0.6459937914830787,0.4723324212642155,0.35963889361828416,0.28051207120393873,0.21722352732936429,0.16298692437080875,0.1172715103770707,0.07764319427429275,6.732090351190546,4.939191777682915,4.355163240292918,3.8456057862006507,3.297966221516124,2.7378018350593063,2.181705066996263,1.6989132513851881,1.3360636270764263,1.076426769947323,0.883541491462605,0.7242368560765713,0.5818858811171368,0.45444473292293974,0.33460398439852385
0.0,13.0,13.0,0.0,120.0,0.0,0.0,0.0,0.0,-107.0,0.0,-45.0,0.0,0.0,0.0,34.27253218749016,17.55503396713325,4.5855083886972965,2.894200553887117,2.4252248829084198,2.0324896131528374,1.6339086402476521,1.2569731564379696,0.9153147192685868,0.64624472427651,0.463662886450153,0.3459913219725521,0.26646194316846117,0.20539692107940144,0.1541014360244424,0.11111493625326864,0.07383909188677383,6.750731804549906,4.978107237136733,4.396639502096891,3.8853043225834805,3.333972433405836,2.7688864729744824,2.204341843881612,1.706196378407981,1.3247520149337486,1.0511635368205834,0.8532756218327388,0.6959503547208628,0.5585912032310272,0.4366864293381021,0.3222885874988367
0.0,14.0,14.0,0.0,120.0,0.0,0.0,0.0,0.0,-107.0,0.0,-45.0,0.0,0.0,0.0,34.27253218749016,17.55503396713325,4.598475551818848,2.9235641548860762,2.4538982713602757,2.0576711946532433,1.6545668464416439,1.2729300256909895,0.9256087140604954,0.6485565728409891,0.4575571714880971,0.334520093717151,0.2539217808413391,0.1945742975438251,0.14588236662777793,0.10538103022305252,0.07027167722758802,6.769413666046637,5.0172189006287535,4.438098975087499,3.9248775038206793,3.3697861770346464,2.799904902235943,2.228106498143742,1.716908375163886,1.3183253463875269,1.030431698395158,0.826257444089219,0.6698270834834174,0.5367807956995491,0.4199420494426024,0.31060651945597784
0.0,15.0,15.0,0.0,120.0,0.0,0.0,0.0,0.0,-107.0,0.0,-45.0,0.0,0.0,0.0,34.27253218749016,17.55503396713325,4.611907673496956,2.9534346158624203,2.4828757192502793,2.0830448382843523,1.6753279264815466,1.2889826801342315,0.936477077553483,0.6524514174603528,0.4536351085459133,0.3250242880288574,0.24278597006514335,0.18468016884934618,0.13827592283454582,0.10003665354485707,0.0669239138291815,6.788190490376501,5.056558591141894,4.479571361852594,3.964356351537338,3.4054355706967785,2.8307911380557202,2.2525318815002966,1.7302086609175276,1.316048345291814,1.0138526819401907,0.8023323691137006,0.645759806839374,0.5163626607995291,0.40414621751990015,0.2995193950817774
0.0,16.0,16.0,0.0,120.0,0.0,0.0,0.0,0.0,-107.0,0.0,-45.0,0.0,0.0,0.0,34.27253218749016,17.55503396713325,4.625847305572899,2.9838303016615284,2.512173839473038,2.108626669309596,1.696205794850639,1.30510741023624,0.9477140952527819,0.6575424727240478,0.4515505560398233,0.31730738536023795,0.23295470458621406,0.1756474635562843,0.13123400327575463,0.09505173645490755,0.0637801652998163,6.807115857723352,5.0961557836750995,4.521084531408431,4.003770158569847,3.4409487544661137,2.8615236966998676,2.277306474223276,1.7454201814185983,1.3172471914138637,1.0010386593406495,0.7813397600877331,0.6236516441986851,0.4972545073832593,0.3892391291928855,0.28899162148220814
0.0,17.0,17.0,0.0,120.0,0.0,0.0,0.0,0.0,-107.0,0.0,-45.0,0.0,0.0,0.0,34.27253218749016,17.55503396713325,4.640337354192898,3.0147686420656163,2.541808625926678,2.13443217821816,1.7172141467046966,1.3212981442552283,0.9591850428851479,0.6635231365280733,0.4509943854345228,0.31117972939273514,0.22433251740117607,0.16741603542419542,0.12471357532111128,0.09039898451984604,0.06082606982346736,6.826242500053149,5.136037743331855,4.562664676989459,4.043146584187057,3.4763527402488394,2.8921044224043873,2.3022300444796246,1.7620091654037897,1.3213181086907366,0.9916029224096103,0.7631122049397179,0.6034130330948408,0.4793827058722206,0.3751661170603656,0.2789901812027324
0.0,18.0,18.0,0.0,120.0,0.0,0.0,0.0,0.0,-107.0,0.0,-45.0,0.0,0.0,0.0,34.27253218749016,17.55503396713325,4.6554211425486,3.046266210287651,2.5717955323717456,2.1604762689355232,1.738366174963066,1.3375577523721192,0.9708048717315024,0.6701551293801943,0.4516952351005684,0.3064607810505061,0.21682748582518904,0.15993137257869558,0.11867609803606738,0.08605361520586344,0.05804842720559431,6.845622412463971,5.176229658856692,4.6043364584161806,4.082511755415687,3.511673148290346,2.9225465276688243,2.3271795868512246,1.779563365612568,1.3277304252182318,0.9851687260328547,0.7474763149718862,0.5849591951824114,0.46268122741127965,0.3618772493722654,0.2694844365179577
0.0,19.0,19.0,0.0,120.0,0.0,0.0,0.0,0.0,-107.0,0.0,-45.0,0.0,0.0,0.0,34.27253218749016,17.55503396713325,4.671142462755607,3.0783387993596723,2.6021495428295305,2.186773311518264,1.7596745398749467,1.353893299225875,0.9825223135516001,0.6772568165681684,0.45341859423141295,0.30298093677554777,0.2103509205788985,0.15314351994757586,0.11308698697051982,0.0819931204629367,0.05543509723228069,6.865306949901028,5.216754772121087,4.646123132093492,4.121890374492889,3.5469342235594863,2.9528681563590724,2.35208413872867,1.7977708070987208,1.3360256230165974,0.981376249117266,0.7342544906453571,0.5682081697010026,0.4470905872675914,0.34932695352441173,0.2604459525849994
0.0,20.0,20.0,0.0,120.0,0.0,0.0,0.0,0.0,-107.0,0.0,-45.0,0.0,0.0,0.0,34.27253218749016,17.55503396713325,4.687545616855483,3.111001496738767,2.632885235572878,2.2133371970157687,1.7811514045967343,1.3703135787258507,0.9943084328836159,0.6846924006308285,0.45596471761590196,0.300582829909831,0.20481736948881374,0.14700621170587264,0.10791512004479398,0.07819705162360797,0.0529749081428502,6.885346909165699,5.257634503932008,4.688046671332699,4.16130582733737,3.582158918618758,2.983089101302335,2.376906783860687,1.8164002663815815,1.345813644887991,0.9798876636434115,0.7232671833477505,0.5530794113237132,0.43255682127036177,0.3374736573662728,0.2518483372057703
0.0,21.0,21.0,0.0,120.0,0.0,0.0,0.0,0.0,-107.0,0.0,-45.0,0.0,0.0,0.0,34.27253218749016,17.55503396713325,4.704675446790452,3.144268757470899,2.6640168421038406,2.2401813913213733,1.8028084795921653,1.3868279067856621,1.0061486396798958,0.6923623647681415,0.4591657872669918,0.2991221223857494,0.2001447995206312,0.1414761975922663,0.10313238574965501,0.07464682345532526,0.050657574089947845,6.9057925958143365,5.298888576412124,4.730127878380697,4.200780287964616,3.6173689815834993,3.0132292380217733,2.4016321887517207,1.8352841260121022,1.3567674629793616,0.9803904874856466,0.7143352966158595,0.5394929003148652,0.419030525411906,0.3262794431933302,0.24366709503279763
0.0,22.0,22.0,0.0,120.0,0.0,0.0,0.0,0.0,-107.0,0.0,-45.0,0.0,0.0,0.0,34.27253218749016,17.55503396713325,4.722577353108157,3.178154476214351,2.695558301827553,2.2673189858781018,1.8246570635545833,1.4034455737867633,1.0180372794356751,0.7001953237426335,0.4628826523881006,0.2984678403589515,0.1962548564450557,0.13651273861515165,0.09871327536718792,0.07132553478547726,0.048473620553032566,6.926693875386784,5.340535132094813,4.772386488536792,4.240334815753753,3.652585037800657,3.0433078446773827,2.4262582237859713,1.8543038417474282,1.3686166795089587,0.9825994775087793,0.7072824824999714,0.5273686840916217,0.40646598451152455,0.3157097115439233,0.23587949416291176
0.0,23.0,23.0,0.0,120.0,0.0,0.0,0.0,0.0,-107.0,0.0,-45.0,0.0,0.0,0.0,34.27253218749016,17.55503396713325,4.7412973021196745,3.212672058354836,2.7275233127218304,2.294762744349366,1.8467080807882819,1.4201756244214094,1.0299740725462294,0.7081412837932277,0.4670014032078623,0.29850232694210993,0.19307313349870295,0.13207724372130594,0.0946345203764251,0.068217803698985,0.04641431676815146,6.948100208423536,5.382590849836164,4.814841266292342,4.279989444366025,3.687826666068415,3.073343352991671,2.450790491878203,1.8733779868130744,1.3811407345417481,0.9862573375473007,0.7019371836894012,0.516626757743157,0.3948204084072534,0.30573285413562046,0.2284644431943045
0.0,24.0,24.0,0.0,120.0,0.0,0.0,0.0,0.0,-107.0,0.0,-45.0,0.0,0.0,0.0,34.27253218749016,17.55503396713325,4.7608818212328226,3.2478344903680054,2.7599253781405233,2.322525145194272,1.8689721165872937,1.4370267894953106,1.041961836664576,0.7161662142388756,0.4714299687820598,0.29912088912186446,0.1905294063384871,0.12813301858913656,0.09087477509334892,0.0653096158383452,0.04447161433341901,6.970060668858337,5.425071057672953,4.857510093402673,4.319763262323531,3.7231124710108876,3.1033532934688135,2.4752388594087877,1.8924526695936137,1.3941621366730066,0.9911345007306591,0.6981343447116897,0.5071871922238409,0.384053285593654,0.29631993711385063,0.22140237699138482
0.0,25.0,25.0,0.0,120.0,0.0,0.0,0.0,0.0,-107.0,0.0,-45.0,0.0,0.0,0.0,34.27253218749016,17.55503396713325,4.781377982200862,3.2836544095110147,2.7927778498715274,2.3506184204790257,1.8914594513319356,1.4540074821884177,1.05400507205246,0.724247778394273,0.476094873696292,0.3002312117609185,0.18855781094416776,0.12464509973736158,0.08741434329906961,0.06258818477378729,0.04263809124455618,6.992623945556344,5.467989842819442,4.900410048989992,4.359674485863347,3.7584601519888308,3.1333543191042024,2.499615324008133,1.9114940316526712,1.4075400047447808,0.9970282157737709,0.6957167667644653,0.4989704281371988,0.37412585612274524,0.2874443970401489,0.21467514961913362
0.0,26.0,26.0,0.0,120.0,0.0,0.0,0.0,0.0,-107.0,0.0,-45.0,0.0,0.0,0.0,34.27253218749016,17.55503396713325,4.802833372066816,3.3201441728562036,2.826093967613355,2.379054591368702,1.9141800932622117,1.4711258179753541,1.0661091104966753,0.7323720485866462,0.4809382429457727,0.30175260378756813,0.18709695460714434,0.1215801505813543,0.08423494640825409,0.06004182373539638,0.04090690070784726,7.015838326975502,5.511360159060807,4.943557482025758,4.399740524921887,3.7938865681792686,3.163362255076913,2.5239327485895373,1.9304824998736623,1.4211641071931336,1.0037611327490337,0.6945361140401952,0.491897666350298,0.36500069887115755,0.27908175266503626,0.20826593317029082
0.0,27.0,27.0,0.0,120.0,0.0,0.0,0.0,0.0,-107.0,0.0,-45.0,0.0,0.0,0.0,34.27253218749016,17.55503396713325,4.825296051652083,3.357315925616276,2.8598868950889504,2.407845500725507,1.9371438095983893,1.488389640810101,1.0782796216728159,0.7405310292812617,0.4859151073474546,0.3036151326903436,0.18608995892564306,0.11890640010192544,0.08131952978218944,0.057659828208288126,0.039271724168003404,7.039751669135839,5.5551939318365715,4.986968076761511,4.4399780431618545,3.8294077993929423,3.193392153062637,2.5482041401703386,1.9494084710078396,1.4349495061973945,1.0111795506862111,0.6944535990405836,0.4858913012395402,0.35664142336042365,0.2712093355735217,0.20215912149762544
0.0,28.0,28.0,0.0,120.0,0.0,0.0,0.0,0.0,-107.0,0.0,-45.0,0.0,0.0,0.0,34.27253218749016,17.55503396713325,4.84881450153277,3.3951816686505016,2.8941697530614063,2.4370028431817055,1.960360155713747,1.5058065491156847,1.0905223395647854,0.7487208252356877,0.490991032901298,0.305758694458623,0.18548443902867148,0.11659360883592203,0.07865210316266907,0.055432369000250115,0.0377267280739508,7.064411347266179,5.59950216129311,5.03065691182993,4.480403012931842,3.865039202485997,3.223458342987894,2.572442260903023,1.9682691341146796,1.4488318531906572,1.0191514592580724,0.6953403843593383,0.4808753562862222,0.34901245322575425,0.2638060423920059,0.1963402381557759
0.0,29.0,29.0,0.0,120.0,0.0,0.0,0.0,0.0,-107.0,0.0,-45.0,0.0,0.0,0.0,34.27253218749016,17.55503396713325,4.8734375555625435,3.433753324982207,2.9289556495467846,2.466538192998126,1.9838385022239986,1.5233839197739383,1.1028429201292802,0.7569403118019067,0.4961400757568319,0.308132057660022,0.18523242613643096,0.11461305059673946,0.07621761089259091,0.05335039542094828,0.036266523984321355,7.08986419164672,5.644295023512089,5.074638513813199,4.521030765989218,3.9007954635660926,3.2535744808289317,2.596659435094661,1.9870661751220908,1.462763337690378,1.0275644803855903,0.6970777420249262,0.4767758939546457,0.34207888695101546,0.2568521105596227,0.19079584812922606
0.0,30.0,30.0,0.0,120.0,0.0,0.0,0.0,0.0,-107.0,0.0,-45.0,0.0,0.0,0.0,34.27253218749016,17.55503396713325,4.899214322133386,3.47304280509759,2.964257707533835,2.4964630299743114,2.0075880600189953,1.5411289300194337,1.1152468745182647,0.7651901874175079,0.5013430489618027,0.31069191261584167,0.18529024186450538,0.11293750150295155,0.07400182755474508,0.051405548187857,0.0348861316845032,7.116156408282773,5.689581969994698,5.118926906081234,4.561876040734629,3.9366906464428983,3.283753592992624,2.6208674676470634,2.0058041502249297,1.4767092602572118,1.0363237927356763,0.69955701119692,0.47352138184448883,0.33580642129721056,0.2503289188427234,0.18551347315599467
0.0,31.0,31.0,0.0,120.0,0.0,0.0,0.0,0.0,-107.0,0.0,-45.0,0.0,0.0,0.0,34.27253218749016,17.55503396713325,4.926194093516632,3.513062070736151,3.000089090521265,2.526788763642794,2.031617903375455,1.5590485775982665,1.12773954402051,0.773472310984097,0.5065860769979705,0.31340194968656754,0.18561833299370134,0.11154123047682797,0.07199127484073874,0.04959008161963244,0.033580945047215635,7.143333485144778,5.7353718253153705,5.1635356536538275,4.602953026606141,3.9727382378895406,3.314008118174024,2.6450776231315456,2.0244893560752146,1.4906451802693987,1.0453501024640912,0.702679392513628,0.4710430049629336,0.3301613235933364,0.24421881292905492,0.18048151063920717
0.0,32.0,32.0,0.0,120.0,0.0,0.0,0.0,0.0,-107.0,0.0,-45.0,0.0,0.0,0.0,34.27253218749016,17.55503396713325,4.954426243801518,3.5538231968277754,3.0364630261733154,2.557526755953107,2.0559369913476404,1.5771496995546088,1.1403260968422608,0.7817892474731565,0.5118594082430147,0.316231984522981,0.1861810751643136,0.1103999873930861,0.07017315579220587,0.04789679461185654,0.0323467004181735,7.171440084814918,5.781672882673479,5.208477904756161,4.64427540616809,4.008951190283641,3.344349947411873,2.669300636082722,2.043129061843789,1.5045545778321987,1.0545777068356186,0.7063556138113932,0.4692749197982116,0.3251104404015748,0.23850495566474172,0.17568915626681572
0.0,33.0,33.0,0.0,120.0,0.0,0.0,0.0,0.0,-107.0,0.0,-45.0,0.0,0.0,0.0,34.27253218749016,17.55503396713325,4.983960116151776,3.595338431186708,3.073392828376681,2.588688342627567,2.08055418764813,1.595438989895655,1.1530115354848978,0.7901439628795595,0.5171564529669578,0.319157142774314,0.18694655337372906,0.10949098657712941,0.06853530297651926,0.04631896982689415,0.031179447347802314,7.200519924511129,5.8284929968895325,5.253766429633778,4.6858563953107,4.04534196212281,3.3747904627905556,2.6935467361596297,2.0617309999420916,1.5184269644441644,1.0639526832413058,0.7105054979605703,0.46815444999887695,0.320621231736897,0.23317120084589094,0.17112633053543447
0.0,34.0,34.0,0.0,120.0,0.0,0.0,0.0,0.0,-107.0,0.0,-45.0,0.0,0.0,0.0,34.27253218749016,17.55503396713325,5.014844900335773,3.6376202515438956,3.110891917958932,2.6202848533486542,2.105478279218945,1.6139230162815532,1.165800708646077,0.7985396243214462,0.5224730143898215,0.322157112163782,0.18788632641836703,0.10879288445504394,0.0670661376195907,0.04485032047832778,0.03007552151995233,7.230615644629081,5.875839674232947,5.299413657084124,4.727708781859628,4.081922556797748,3.4053405750106065,2.717825679517361,2.080303038199258,1.532256377177427,1.073431224385524,0.7150574595765712,0.46762222621031263,0.31666182180079366,0.22820198897278904,0.1667836094038182
0.0,35.0,35.0,0.0,120.0,0.0,0.0,0.0,0.0,-107.0,0.0,-45.0,0.0,0.0,0.0,34.27253218749016,17.55503396713325,5.047129496073441,3.680681422886905,3.1489738478446774,2.652327627030029,2.1307179951858775,1.6326082354042024,1.1786983246256306,0.8069794727913769,0.5278066819266285,0.32521546602452445,0.18897518161722154,0.1082857509304777,0.06575463718098895,0.04348494405586549,0.02903151974274831,7.261768668216032,5.923720167912253,5.345431707644116,4.76984495901578,4.1187045615123274,3.436010759638523,2.7421467820491627,2.098852976951336,1.5460401945395912,1.0829781308232769,0.7199479535668883,0.467622274315257,0.3132010589288062,0.22358226302219653,0.16265215930508853
0.0,36.0,36.0,0.0,120.0,0.0,0.0,0.0,0.0,-107.0,0.0,-45.0,0.0,0.0,0.0,34.27253218749016,17.55503396713325,5.0808623873700824,3.7245350389268546,3.187652308954385,2.68482803952172,2.156282020366769,1.6515010086949444,1.1917089644651253,0.8154667451606649,0.5331563584105288,0.32831905929367516,0.1901908853386072,0.10795103458366656,0.06459030929530059,0.042217282320555605,0.028044276921119212,7.294019053216604,5.972141550232302,5.3918324499310515,4.812276990249729,4.155699180019832,3.4668110786955606,2.76651895989927,2.1173884277827955,1.5597782183464457,1.0925654642428337,0.7251208949777568,0.46810205724758336,0.3102085790533888,0.21929740208260357,0.15872367679796925
0.0,37.0,37.0,0.0,120.0,0.0,0.0,0.0,0.0,-107.0,0.0,-45.0,0.0,0.0,0.0,34.27253218749016,17.55503396713325,5.116091487082732,3.769194570437498,3.2269411534043595,2.717797517189747,2.182179018053318,1.670607614491681,1.2048370946204034,0.8240046288652636,0.5385218963094421,0.33145749554283965,0.1915139340518117,0.10777152212181755,0.06356317040173869,0.04104208690192525,0.027110844856251273,7.327405374957269,6.021110907288826,5.43862767911324,4.855016788849974,4.192917275111822,3.497751105681379,2.7909508163387984,2.135916731543177,1.5734719754587594,1.1021713583989485,0.7305270664797754,0.4690124759248367,0.3076548683924036,0.21533317061068863,0.15499033388982827
0.0,38.0,38.0,0.0,120.0,0.0,0.0,0.0,0.0,-107.0,0.0,-45.0,0.0,0.0,0.0,34.27253218749016,17.55503396713325,5.15286400720257,3.814673922125875,3.266854419866928,2.7512475454290772,2.2084176267575177,1.6899342669519275,1.2180870790722302,0.8325962379368639,0.543903821018237,0.33462266198119034,0.19292730980987416,0.1077312927227481,0.06266372773043015,0.03995438984616048,0.02622847281687867,7.361964427344402,6.070635024614528,5.485828596506116,4.898075597229932,4.230369383587559,3.52884035878471,2.815450471807186,2.1544450006264326,1.5871241677828969,1.11177898657829,0.7361235260180433,0.47030783496783557,0.3055113222833811,0.21167568105486692,0.15144472283477756
0.0,39.0,39.0,0.0,120.0,0.0,0.0,0.0,0.0,-107.0,0.0,-45.0,0.0,0.0,0.0,34.27253218749016,17.55503396713325,5.191226295397385,3.8609874556155006,3.307406342934535,2.7851896939588747,2.2350064929734987,1.7094871224832207,1.2314631904772875,0.8412446021202136,0.5493031236916914,0.33780832764443514,0.19441624347557807,0.10781566798840325,0.06188296361770984,0.038949478494924895,0.025394589774098527,7.397731204820312,6.120720849571059,5.533446412660767,4.941464596570245,4.268065766732474,3.5600879154718093,2.8400258033924786,2.1729800413257583,1.6007382970049286,1.1213756635020868,0.7418730271425011,0.4719457783939752,0.30375029802523795,0.2083113677458885,0.14807981404318546
0.0,40.0,40.0,0.0,120.0,0.0,0.0,0.0,0.0,-107.0,0.0,-45.0,0.0,0.0,0.0,34.27253218749016,17.55503396713325,5.231223697182423,3.908150027569212,3.348611371427055,2.819635629474799,2.26195427817144,1.729272293870767,1.2449696205245258,0.8499526644688132,0.5547211076627727,0.3410097998506403,0.1959679881359441,0.10801115831790564,0.061212321359825544,0.03802287411434541,0.024606788205395504,7.434738692620892,6.171375410399395,5.581492181725795,4.985194743729658,4.306016434789015,3.591502582847269,2.864684402877295,2.19152838648617,1.6143183687925957,1.1309520827414572,0.7477434585973367,0.47388720052371464,0.30234516042777515,0.2052269700038891,0.144888912908205
0.0,41.0,41.0,0.0,120.0,0.0,0.0,0.0,0.0,-107.0,0.0,-45.0,0.0,0.0,0.0,34.27253218749016,17.55503396713325,5.272900417450861,3.9561770189160725,3.3904841846351372,2.8545971305630413,2.2892696716050263,1.749295861498482,1.2586104897228012,0.858723283643461,0.5601592765102296,0.3442236330613865,0.19757160467706586,0.1083054064764991,0.06064369202243811,0.03717031374055089,0.023862809378397076,7.47301771092598,6.222605863142945,5.62997682738131,5.02927680024905,4.344231176080214,3.623092926324207,2.8894336039074435,2.2100963112114744,1.6278686849407704,1.1405016704284898,0.7537073104853503,0.4760961366364528,0.3012703193316941,0.20240952266080972,0.1418656225854503
0.0,42.0,42.0,0.0,120.0,0.0,0.0,0.0,0.0,-107.0,0.0,-45.0,0.0,0.0,0.0,34.27253218749016,17.55503396713325,5.316299391089548,4.005084359880813,3.43303970827898,2.890086102120678,2.316961402542304,1.7695638839326315,1.2723898566055776,0.867559238830831,0.565619253762529,0.347447384378085,0.19921776087252613,0.10868712912775287,0.060169401780216444,0.03638773475852925,0.02316053002070715,7.512596767875413,6.2744195305817545,5.678911167331236,5.073721359743847,4.382719584526925,3.654867296672644,2.9142805077606364,2.228689852278642,1.641393697106404,1.150020043501406,0.7597411714189065,0.4785396376001799,0.30050125883489237,0.19984635236594753,0.13900381109801485
0.0,43.0,43.0,0.0,120.0,0.0,0.0,0.0,0.0,-107.0,0.0,-45.0,0.0,0.0,0.0,34.27253218749016,17.55503396713325,5.361462166357754,4.054888551157142,3.4762931302036852,2.926114589325777,2.3450382519511797,1.7900824079029434,1.2863117263948791,0.8764632359348139,0.5711027263817311,0.35067940997340635,0.20089854485405967,0.10914605705263815,0.0597821994865614,0.03567126178296637,0.022497950282961275,7.553501925578478,6.326823933322411,5.728305936286551,5.11853887362305,4.421491085483573,3.6868338553842976,2.939232007648723,2.2473148289319207,1.6548979065391642,1.1595045596306586,0.7658252597209098,0.48118763224612493,0.30001455828952994,0.19752507825197566,0.13629758253675447
0.0,44.0,44.0,0.0,120.0,0.0,0.0,0.0,0.0,-107.0,0.0,-45.0,0.0,0.0,0.0,34.27253218749016,17.55503396713325,5.40842880381296,4.105606681289062,3.5202599160536043,2.9626947923221456,2.3735090656115005,1.8108574784737583,1.3003800578581353,0.8854379148151924,0.576611405690336,0.35391869708667284,0.2026072933915875,0.10967287472929238,0.05947524426965175,0.035017195460875304,0.021873182917952046,7.595756691676479,6.379826834442466,5.778171838992429,5.163739716054787,4.460554995785271,3.7190005865913105,2.9642947928343912,2.2659768755308716,1.6683857934895365,1.168953947555536,0.7719429902843952,0.48401278085457855,0.2997879053694253,0.19543361573694734,0.13374125253416194
0.0,45.0,45.0,0.0,120.0,0.0,0.0,0.0,0.0,-107.0,0.0,-45.0,0.0,0.0,0.0,34.27253218749016,17.55503396713325,5.457237792066616,4.157256439596507,3.5649558250711144,2.9998390837944906,2.402382772828304,1.8318951513932265,1.3145987655453366,0.8944858583397391,0.5821470005867674,0.35716472666096194,0.20433843503083346,0.11025915989165798,0.05924209302376029,0.034422002864971046,0.02128444361493127,7.639381959034007,6.433436345593266,5.82851970476385,5.2093343811436394,4.499920699968574,3.7513752693532316,2.9894752898461396,2.284681512308446,1.681861757467246,1.1783680086826451,0.7780805774178828,0.4869903227393075,0.29980010166601195,0.1935601824253783,0.131329328729006
0.0,46.0,46.0,0.0,120.0,0.0,0.0,0.0,0.0,-107.0,0.0,-45.0,0.0,0.0,0.0,34.27253218749016,17.55503396713325,5.507926010768033,4.20985613690141,3.6103969213113505,3.037560001820843,2.431668361500143,1.8532014873205849,1.3289717504720981,0.9036095882490008,0.5877112045399132,0.3604173605623219,0.20608734818935298,0.11089732355723668,0.059076687727698377,0.033882309196436124,0.020730042017410966,7.684395786984362,6.487660555875916,5.879359930162259,5.255332757728399,4.539597015924658,3.783965710702412,3.014780021985832,2.303433947700476,1.6953301682894393,1.1877473541571162,0.7842266773618362,0.4900979201447134,0.30003106129842405,0.19189330535315732,0.1290564845215356
0.0,47.0,47.0,0.0,120.0,0.0,0.0,0.0,0.0,-107.0,0.0,-45.0,0.0,0.0,0.0,34.27253218749016,17.55503396713325,5.5605286824259474,4.263424709048086,3.656599593166828,3.075870284786362,2.4613749262709548,1.8747825745189606,1.3435028813101693,0.9128115827132735,0.5933056815720861,0.3636767527258796,0.2078502329832052,0.11158055115145227,0.05897334253767823,0.03339489054691135,0.020208374251083665,7.7308135243558125,6.542507950585687,5.930703116937106,5.301744953096869,4.579592919825647,3.816779533488371,3.0402152609324604,2.322239328846034,1.708795271908027,1.197093227592751,0.7903720604444274,0.49331550154939957,0.3004618032925122,0.1904218286630951,0.1269175525082832
0.0,48.0,48.0,0.0,120.0,0.0,0.0,0.0,0.0,-107.0,0.0,-45.0,0.0,0.0,0.0,34.27253218749016,17.55503396713325,5.615079380715245,4.317981730041777,3.7035805660971386,3.114782875852302,2.491511664668689,1.8966445313886697,1.3581960094167818,0.9220942779548492,0.5989320621984335,0.3669432768939099,0.2096239969501543,0.11230274500128859,0.05892673066665804,0.03295666752409904,0.019717915889440496,7.778647747501075,6.597987271794751,5.982559874479487,5.3485810353422805,4.619917322299675,3.8498242720572096,3.065787167974465,2.341102677625154,1.7222612137744615,1.2064073420127501,0.796509321114812,0.49662510538075844,0.3010744381942385,0.18913492140140836,0.12490750887297622
0.0,49.0,49.0,0.0,120.0,0.0,0.0,0.0,0.0,-107.0,0.0,-45.0,0.0,0.0,0.0,34.27253218749016,17.55503396713325,5.671610064396938,4.373547422517458,3.751356917081996,3.1543109350616,2.5220878860678484,1.918793513487035,1.373054974681991,0.9314600734207106,0.6045919411197441,0.3702174697063328,0.2114061534653065,0.11305846863426168,0.05893187105566322,0.03256469956628512,0.019257215791468968,7.8279082896125045,6.654107517165522,6.03494083309006,5.39585104894508,4.660579083879018,3.8831073873497566,3.0915018087323762,2.3600289047715126,1.7357320396031934,1.2156917564437086,0.8026326190215632,0.5000107262280767,0.30185214962883955,0.18802208488912922,0.1230214630597924
0.0,50.0,50.0,0.0,120.0,0.0,0.0,0.0,0.0,-107.0,0.0,-45.0,0.0,0.0,0.0,34.27253218749016,17.55503396713325,5.730151144665971,4.4301426685428655,3.799946089023284,3.1944678512789624,2.5531130202808248,1.941235720157989,1.3880836109664223,0.9409113365414149,0.6102868769806287,0.3734999860393312,0.21319473205936026,0.11384289316500852,0.05898411486827932,0.03221617980603273,0.018824890628716655,7.878602307057931,6.710877936730589,6.087856655851549,5.443565028800729,4.701587028884014,3.916636280443377,3.117365166357451,2.379022822501416,1.7492116993357116,1.2249487794557437,0.8087374500306662,0.5034581648082409,0.3027791714037064,0.18707315937540442,0.12125464946885221
0.0,51.0,51.0,0.0,120.0,0.0,0.0,0.0,0.0,-107.0,0.0,-45.0,0.0,0.0,0.0,34.27253218749016,17.55503396713325,5.790731593088672,4.487789029540974,3.849365914628813,3.235267264115902,2.5845966346718847,1.9639774030018107,1.40328574259587,0.9504504086001156,0.6160183940597027,0.3767915640486342,0.21498819970575087,0.11465174602986043,0.05907913183943241,0.03190843037070037,0.01841962015650953,7.93073441177706,6.768308096043652,6.1413181525160105,5.491733159418004,4.742950140617192,3.9504184383094056,3.1433830548372743,2.3980891164043268,1.7627040911616436,1.2341808813984452,0.8148204474087438,0.5069548825538882,0.303840760702535,0.18627832980533393,0.11960242373537706
0.0,52.0,52.0,0.0,120.0,0.0,0.0,0.0,0.0,-107.0,0.0,-45.0,0.0,0.0,0.0,34.27253218749016,17.55503396713325,5.853378971752918,4.5465086915162045,3.899634650886469,3.2767231219531796,2.61654837845162,1.9870248829565815,1.4186652029181674,0.9600796060711729,0.6217879828659936,0.3800929989122287,0.21678539215842804,0.11548126216403498,0.0592128965581724,0.0316388980153424,0.018040142440069594,7.984306727231216,6.826407798925745,6.195336172145157,5.540365462476914,4.784677187658061,3.9844611802624406,3.169561329154819,2.417232434030007,1.7762129908886677,1.2433906635053045,0.8208792007574379,0.5104898626270133,0.3050231681151133,0.18562813029999237,0.1180602520737344
0.0,53.0,53.0,0.0,120.0,0.0,0.0,0.0,0.0,-107.0,0.0,-45.0,0.0,0.0,0.0,34.27253218749016,17.55503396713325,5.918119801858324,4.606324614738203,3.950770927358654,3.31884953127792,2.6489780955828044,2.0103845212550295,1.434225845464742,0.9698012234066314,0.6275971026015827,0.38340512247966546,0.21858545432353368,0.11632813788058878,0.05938167468703728,0.03140515002808649,0.01768525058889589,8.039319156369542,6.885186958433019,6.249921400702082,5.589471877599461,4.826776822136627,4.018771674862972,3.195905874424607,2.436457387303582,1.7897420658301124,1.2525808119375967,0.8269121034139036,0.5140534768342405,0.306313604797078,0.1851134475756885,0.11662370772691907
0.0,54.0,54.0,0.0,120.0,0.0,0.0,0.0,0.0,-107.0,0.0,-45.0,0.0,0.0,0.0,34.27253218749016,17.55503396713325,5.984979668031266,4.667260477727204,4.00279379042094,3.3616608764700184,2.681895797569566,2.034062744963899,1.449971528960183,0.9796175398099651,0.6334471845369252,0.3867287876061911,0.2203877888013683,0.11718948749985104,0.05958200918146997,0.031204870345394754,0.017353789266232295,8.09576955650914,6.944655764739995,6.305084680577771,5.639062513804385,4.8692578523674275,4.0533571867604135,3.2224224479951613,2.4557684937632174,1.8032949454716412,1.2617540432809982,0.8329182242193888,0.5176373590852623,0.3077002072967527,0.18472552320929048,0.11528847302152584
0.0,55.0,55.0,0.0,120.0,0.0,0.0,0.0,0.0,-107.0,0.0,-45.0,0.0,0.0,0.0,34.27253218749016,17.55503396713325,6.053983381622124,4.729340667276883,4.05572273725094,3.4051718524621393,2.7153116402508153,2.0580660580317267,1.4659061266492412,0.9895308212119945,0.6393396339612574,0.3900648570337144,0.2221920117133278,0.11806280269740652,0.05981070659102168,0.03103585582008129,0.01704465147375346,8.153653937893035,7.004824655982354,6.360836967825405,5.689147513640533,4.9121290928090025,4.088224971333082,3.249116770723586,2.4751702161907296,1.8168751949511441,1.2709130914963607,0.8388971913794954,0.5212342866642148,0.3091720006890214,0.18445595449487556,0.11405033508776952
0.0,56.0,56.0,0.0,120.0,0.0,0.0,0.0,0.0,-107.0,0.0,-45.0,0.0,0.0,0.0,34.27253218749016,17.55503396713325,6.125155247854208,4.792590317008094,4.109577718236186,3.4493974481144916,2.749235949237835,2.0824010398473676,1.4820335314011694,0.9995433228472823,0.6452758325953778,0.3934141951655836,0.22399791495576693,0.11894591464935832,0.06006482346568699,0.03089601261490141,0.01675677594183626,8.21296671953446,7.065704287496305,6.417189301050838,5.7397370689447,4.955399378143578,4.123382278128381,3.2759945328644933,2.4946669685450362,1.8304863202959538,1.2800606902989267,0.84484909477153,0.5248380687231168,0.3107188602961281,0.18429669411890265,0.11290518450829189
0.0,57.0,57.0,0.0,120.0,0.0,0.0,0.0,0.0,-107.0,0.0,-45.0,0.0,0.0,0.0,34.27253218749016,17.55503396713325,6.19851915620462,4.857035233494386,4.164379167948933,3.4943531017825706,2.7836792443747314,2.1070743071338556,1.4983576719812761,1.0096572906819214,0.6512571404795152,0.39677766240089224,0.2258054340614431,0.11983695894174648,0.06034165292143882,0.03078335269145804,0.01648914452998094,8.273701000120415,7.127305636895036,6.474152961676638,5.790841505620418,4.9990774486225105,4.158836398217895,3.303061384331376,2.5142631262764055,1.8441317716794403,1.2891995607463418,0.8507744025843417,0.528443442266038,0.31233147243053966,0.18424004864277577,0.11184901519925598
0.0,58.0,58.0,0.0,120.0,0.0,0.0,0.0,0.0,-107.0,0.0,-45.0,0.0,0.0,0.0,34.27253218749016,17.55503396713325,6.27409922851988,4.922702184155212,4.22014803910195,3.540054377289032,2.8186521609021487,2.132092640708541,1.5148824777680232,1.0198749687946316,0.6572848984953412,0.40015611071653223,0.22761462119556747,0.12073434312267584,0.06063871142719187,0.030695990372536407,0.016240780730356074,8.335848841753107,7.189639761230683,6.531739099295076,5.842471031943518,5.043172243542241,4.194594585488173,3.3303229696660495,2.533963017388092,1.8578149511391275,1.2983324014937112,0.8566738907345857,0.5320459755486061,0.31400129452558423,0.18427867585494434,0.1108779224324614
0.0,59.0,59.0,0.0,120.0,0.0,0.0,0.0,0.0,-107.0,0.0,-45.0,0.0,0.0,0.0,34.27253218749016,17.55503396713325,6.351919827361204,4.989618714551743,4.276905762902513,3.5865171570620906,2.8541655440360763,2.1574628893271184,1.531611898963849,1.0301986007303505,0.6633604347854296,0.40355037830589763,0.2294256231460138,0.12163671674298747,0.06095372584694378,0.030632138978452735,0.01601074677187873,8.399401452122568,7.252717941387579,6.589959068039598,5.894636105479045,5.087692940213424,4.230664353631259,3.357785087366824,2.5537707647303076,1.8715391844318237,1.3074619234996032,0.8625485706140458,0.5356419806003718,0.31572051516784033,0.18440558071603652,0.10998810975909698
0.0,60.0,60.0,0.0,120.0,0.0,0.0,0.0,0.0,-107.0,0.0,-45.0,0.0,0.0,0.0,34.27253218749016,17.55503396713325,6.4320057684773015,5.057813154373589,4.334674291767876,3.6337577004769233,2.8902304582882756,2.1831919992045408,1.5485499401961118,1.0406304208569133,0.6694850548253031,0.4069612955508961,0.23123865982231065,0.12254294456988078,0.0612846207278269,0.03059010745821508,0.015798142552825564,8.464349460570936,7.316551597323356,6.648824245004202,5.947347072302633,5.132648381929414,4.267052808473162,3.3854532413603975,2.5736907357408327,1.885307801005391,1.3165907391227563,0.8683996714653766,0.5392284264581061,0.31748201346256233,0.18461411155363164,0.10917587298172034
0.0,61.0,61.0,0.0,120.0,0.0,0.0,0.0,0.0,-107.0,0.0,-45.0,0.0,0.0,0.0,34.27253218749016,17.55503396713325,6.514382581148747,5.127314659823571,4.393476161385951,3.6817927004619584,2.926858248718175,2.2092869450998323,1.565700655374229,1.0511726577710712,0.675660054819423,0.4103896773763423,0.23305401036534687,0.12345208129315074,0.06162950599589821,0.03056829712959766,0.015602103919973485,8.530683266599388,7.381152436096923,6.708346245376686,6.000614466455213,5.178047477150153,4.303767127796573,3.413333014303947,2.5937271962140276,1.8991240794501956,1.32572144043549,0.874228573321059,0.542802867470425,0.3192793195524137,0.18489795377543122,0.10843761306792436
0.0,62.0,62.0,0.0,120.0,0.0,0.0,0.0,0.0,-107.0,0.0,-45.0,0.0,0.0,0.0,34.27253218749016,17.55503396713325,6.599076911783318,5.198153301703191,4.453334513101844,3.7306391926599685,2.964060400046317,2.235754818365747,1.5830681335167298,1.0618275430876767,0.6818867191324601,0.41383632431071665,0.2348719995828145,0.12436334901255357,0.06198666496971602,0.03056519841997604,0.015421800839866795,8.598393227392151,7.446532319974909,6.768536763544471,6.054448876978458,5.223899214321958,4.340814635034356,3.4414300028142635,2.613884344214283,1.912991247568899,1.3348565948696485,0.8800367727938042,0.5463633744716361,0.32110657528163866,0.18525112346499417,0.10776983480408364
0.0,63.0,63.0,0.0,120.0,0.0,0.0,0.0,0.0,-107.0,0.0,-45.0,0.0,0.0,0.0,34.27253218749016,17.55503396713325,6.686116844656148,5.27036003871645,4.51427302035653,3.7803144342879733,3.001848482486721,2.262602938020678,1.6006564610213845,1.0725973274177878,0.6881663155553482,0.4173020243955183,0.23669298662215235,0.1252761168792013,0.06235454277370204,0.03057938763550477,0.015256435260135117,8.667469751053686,7.5127031145244905,6.829407447264984,6.108860919674571,5.2702127478727485,4.378202720465333,3.4697497519773757,2.6341663647997255,1.9269124921359635,1.3439987324670917,0.8858258574911321,0.5499084718089391,0.32295849556410805,0.1856679603093738,0.10716914487546732
0.0,64.0,64.0,0.0,120.0,0.0,0.0,0.0,0.0,-107.0,0.0,-45.0,0.0,0.0,0.0,34.27253218749016,17.55503396713325,6.775532049046257,5.3439666830458155,4.576316003323008,3.8308361758044245,3.0402343838817596,2.2898386667048465,1.618469781538846,1.083484259801549,0.6945001047103596,0.4207875511641011,0.23851735655732098,0.12618988256143887,0.06273173519243326,0.03060952377292321,0.01510524111216236,8.737903735038621,7.579676970169719,6.890970150095495,6.163861389733728,5.316997246106987,4.415938738501384,3.4982978359730255,2.654577405709557,1.940890965563184,1.353150344823829,0.891597481785025,0.5534370808437473,0.32483033069516665,0.18614311978337386,0.10663225361335257
0.0,65.0,65.0,0.0,120.0,0.0,0.0,0.0,0.0,-107.0,0.0,-45.0,0.0,0.0,0.0,34.27253218749016,17.55503396713325,6.867354202310883,5.419005948158819,4.639488418523744,3.8822225956964447,3.079230221686572,2.3174694804754465,1.6365122792365838,1.0944905966173957,0.7008893381636537,0.42429366490083037,0.2403455129446105,0.12710425572721304,0.06311697794374446,0.030654345357337128,0.01496748291613782,8.809686669225819,7.647466252436848,6.9532368077874,6.219461184132022,5.364261939743849,4.454030060027345,3.5270798262755454,2.675121589567825,1.9549297844301867,1.362313885279742,0.8973533468661818,0.5569484689258198,0.3267178297593271,0.18667156475390248,0.10615597418944094
0.0,66.0,66.0,0.0,120.0,0.0,0.0,0.0,0.0,-107.0,0.0,-45.0,0.0,0.0,0.0,34.27253218749016,17.55503396713325,6.961617347242181,5.495511519594191,4.70381590303977,3.9344923705478014,3.1188483787092793,2.345502939344887,1.6547881719068165,1.1056186124455503,0.7073352560568006,0.42782111379299126,0.24217787191667103,0.1280189432078306,0.0635091364224843,0.030712667310701373,0.014842455259693764,8.882810776715415,7.716083621034439,7.016219435192604,6.275671276228083,5.412016083071716,4.492484042075444,3.556101325212302,2.695803002232678,1.9690320346517884,1.3714917676220568,0.9030951847233227,0.5604422034553761,0.32861720524959265,0.18724855659537779,0.10573722192436817
0.0,67.0,67.0,0.0,120.0,0.0,0.0,0.0,0.0,-107.0,0.0,-45.0,0.0,0.0,0.0,34.27253218749016,17.55503396713325,7.0583581715430626,5.573518138184128,4.76932475983184,3.987664677200773,3.1591014829568365,2.373946669404259,1.6733017356279742,1.1168705919154396,0.7138390912725151,0.4313706335255092,0.24401485769582057,0.12893373573191905,0.06390719591010854,0.03078337786114856,0.014729481461795379,8.957269047747591,7.785542076968728,7.079930093928184,6.332502657519089,5.460268933100683,4.531308050665699,3.5853679774793767,2.716625684766609,1.9832007752781458,1.380686365604609,0.9088247448556699,0.5639181107891001,0.33052509898448484,0.18786964588860475,0.1053730131259289
0.0,68.0,68.0,0.0,120.0,0.0,0.0,0.0,0.0,-107.0,0.0,-45.0,0.0,0.0,0.0,34.27253218749016,17.55503396713325,7.157615961652056,5.6530614946957005,4.836041664844357,4.041758936746941,3.2000023008659113,2.4028085572671105,1.6920573377992072,1.1282487843618996,0.7204020868595022,0.43494294502794373,0.24585689884423403,0.12984849629831988,0.0643102521986336,0.030865435508383,0.014627909703854967,9.033055134121716,7.8558549201506,7.14438091028322,6.3899664384050245,5.509030034292287,4.570509623373656,3.6148852724003735,2.737593717053609,1.997439010520973,1.3899000217166428,0.9145437814229046,0.5673762399364628,0.3324385493741186,0.18853066275475877,0.1050604661056544
0.0,69.0,69.0,0.0,120.0,0.0,0.0,0.0,0.0,-107.0,0.0,-45.0,0.0,0.0,0.0,34.27253218749016,17.55503396713325,7.259432869354046,5.734178718807564,4.9039939931290935,4.096795144299606,3.2415639588453775,2.4320965401271484,1.7110593623405295,1.1397554853108212,0.7270254710018054,0.43853875766661743,0.24770442613396423,0.13076314929995136,0.0647175028805552,0.030957865991344466,0.014537114867557942,9.110163919865952,7.92703596417943,7.2095842707392555,6.448073784310458,5.5583089759392434,4.610096332215138,3.644658878400833,2.7587111804565994,2.011749638089885,1.3991350434955538,0.9202540536878703,0.5708168277858764,0.3343549598753474,0.18922770750709922,0.10479680237680308
0.0,70.0,70.0,0.0,120.0,0.0,0.0,0.0,0.0,-107.0,0.0,-45.0,0.0,0.0,0.0,34.27253218749016,17.55503396713325,7.363854058105839,5.816908538194007,4.973209761890573,4.152793715151487,3.2837998791791656,2.4618186762350236,1.7303122429435887,1.1513930037584441,0.7337104670943548,0.44215877029681633,0.24955786925330167,0.13167767171035422,0.065128238899131,0.031059759321735447,0.014456495839585165,9.188592007004482,7.99909929251747,7.275552876507493,6.506835892451752,5.608115422482538,4.6500757980555925,3.6746944775793855,2.779982143072844,2.026135510510598,1.4083937022600441,0.9259573122715986,0.574240271715685,0.3362720696078316,0.18995714002941838,0.10457934414154625
0.0,71.0,71.0,0.0,120.0,0.0,0.0,0.0,0.0,-107.0,0.0,-45.0,0.0,0.0,0.0,34.27253218749016,17.55503396713325,7.470928356366981,5.90129143765703,5.043717796026029,4.20977545789745,3.3267237989495433,2.491983151710759,1.7498204550220526,1.1631636461067807,0.740458292691459,0.4458036802973124,0.2514176510267512,0.13259208622114488,0.06554183643546407,0.031170266830610128,0.014385475106007213,9.268338511752209,8.072058825947254,7.34229977000985,6.566263883070535,5.658458878988217,4.690455389141122,3.704997415694303,2.801410499276513,2.040599705347872,1.417678215273248,0.9316552710524214,0.5776471093091341,0.3381879265471109,0.19071556763940956,0.1044055032164378
0.0,72.0,72.0,0.0,120.0,0.0,0.0,0.0,0.0,-107.0,0.0,-45.0,0.0,0.0,0.0,34.27253218749016,17.55503396713325,7.580709524922939,5.987369452706704,5.115547963484289,4.267761531064295,3.370349753147605,2.522598284156265,1.769588528905199,1.175069745540734,0.7472701632804197,0.4494741702547308,0.25328419255109913,0.1335064521439366,0.06595774987930349,0.03128859834928692,0.014323500486623356,9.349405698701705,8.14592787230746,7.4098385002670835,6.626369098272037,5.709349007433982,4.731242713596216,3.7355732542380364,2.823000221868215,2.055145102781028,1.4269907741342904,0.9373496380728683,0.5810379874271422,0.3401008587875286,0.19149983761329537,0.10427279879639503
0.0,73.0,73.0,0.0,120.0,0.0,0.0,0.0,0.0,-107.0,0.0,-45.0,0.0,0.0,0.0,34.27253218749016,17.55503396713325,7.693258038505736,6.075185496309169,5.188731491737095,4.326773479431355,3.414692043521048,2.553672505975227,1.7896210406047184,1.1871136689958577,0.7541472825990655,0.453170916976264,0.25515790884178824,0.13442086015605756,0.06637550471217948,0.031414019369245615,0.014270046396723855,9.43179855745978,8.220718678100118,7.478182836520994,6.687163093136738,5.760795440027958,4.772445433929749,3.7664275965516647,2.844755252927292,2.0697745501694857,1.43633353447128,0.9430420984418233,0.5844136455480374,0.3420094503425661,0.1923070256273721,0.10417884682562158
0.0,74.0,74.0,0.0,120.0,0.0,0.0,0.0,0.0,-107.0,0.0,-45.0,0.0,0.0,0.0,34.27253218749016,17.55503396713325,7.8086422202209915,6.164782252196325,5.263301099553374,4.386833323378963,3.4597651640480462,2.5852143525618088,1.8099226361083642,1.199297824576245,0.7610908352774199,0.4568945947125892,0.2570392076046243,0.13533542693511955,0.06679469102722328,0.03154584827458069,0.014224612069486175,9.515522679978867,8.296442773200077,7.5473462396545345,6.748657715121634,5.8128077560302565,4.814071291313302,3.7975661326772725,2.866679478646842,2.0844908692843656,1.4457086140761428,0.9487343124551022,0.5877748981895304,0.34391251766933023,0.1931344253476629,0.10412135442495454
0.0,75.0,75.0,0.0,120.0,0.0,0.0,0.0,0.0,-107.0,0.0,-45.0,0.0,0.0,0.0,34.27253218749016,17.55503396713325,7.92693652138189,6.256201414712711,5.339290713029792,4.447963855426684,3.5055839607650063,2.6172327484897373,1.83049803200319,1.2116245212630727,0.7681020646986823,0.46064584994036234,0.25892849508644133,0.1362502892968312,0.06721495759735527,0.031683453725949266,0.014186719374613601,9.600581463583431,8.373113056307025,7.617341566802333,6.810865508771669,5.865395782061252,4.856128088867646,3.8289943067188754,2.888776838768893,2.0992968537216226,1.4551180929506051,0.9544279110452011,0.5911226210588845,0.34580908728227844,0.19397953815987018,0.10409812047080898
0.0,76.0,76.0,0.0,120.0,0.0,0.0,0.0,0.0,-107.0,0.0,-45.0,0.0,0.0,0.0,34.27253218749016,17.55503396713325,8.048216352195622,6.349485005116194,5.416734624439572,4.510188855260502,3.5521634066485253,2.649736701753268,1.851351966859147,1.2240961515464517,0.7751821817777756,0.4644253321052365,0.2608261678304145,0.1371656017347239,0.06763600604502958,0.031826251960530606,0.01415590335264185,9.686975830956445,8.450746081459876,7.688180208785976,6.873799116651591,5.918569289588846,4.898623634005605,3.8607177131924537,2.9110512267439153,2.1141952585418635,1.4645640185277435,0.9601244959094313,0.5944577366933179,0.347698375611083,0.19484006280743438,0.10410703459557334
0.0,77.0,77.0,0.0,120.0,0.0,0.0,0.0,0.0,-107.0,0.0,-45.0,0.0,0.0,0.0,34.27253218749016,17.55503396713325,8.172554786769949,6.444679330506228,5.4956661099878605,4.573533188556625,3.599518656147746,2.6827354151827723,1.8724892392569212,1.2367151245538275,0.7823323968140503,0.4682336837163125,0.26273261525783065,0.138081532346648,0.06805758570525411,0.031973704259732706,0.0141317152526652,9.774712995457657,8.529363495196595,7.759872807772569,6.93747104433167,5.972338208049101,4.941565731333118,3.8927419732377357,2.9335065190803893,2.129188807139265,1.4740484033222836,0.965825638053045,0.5977812034639723,0.3495797697646745,0.19571388530980816,0.10414609006071164
0.0,78.0,78.0,0.0,120.0,0.0,0.0,0.0,0.0,-107.0,0.0,-45.0,0.0,0.0,0.0,34.27253218749016,17.55503396713325,8.300032578713385,6.5418398569537,5.576116723322704,4.638022547971004,3.6476650899283873,2.7162382657266644,1.8939147203294595,1.2494838663153855,0.7895539194664051,0.47207154086857717,0.26464821953988754,0.13899825985013858,0.06847948879860385,0.032125314465904505,0.014113741610189941,9.863816893781399,8.60898825030808,7.832431447794114,7.001893187056046,6.026712720265973,4.984962145719417,3.925072739267553,2.956146576916122,2.1442801916111853,1.4835732252248108,0.9715328770081093,0.6010940057699687,0.3514528098134976,0.1965990690096001,0.10421338760914049
