Line_number,Fiducial,Easting,Northing,Height,Elevation,tx_pitch,tx_roll,tx_yaw,txrx_dx,txrx_dy,txrx_dz,rx_pitch,rx_roll,rx_yaw,PX,PZ,S0X_time_1.086e-05,S0X_time_3.256e-05,S0X_time_5.426e-05,S0X_time_8.680e-05,S0X_time_1.411e-04,S0X_time_2.279e-04,S0X_time_3.689e-04,S0X_time_5.860e-04,S0X_time_9.115e-04,S0X_time_1.411e-03,S0X_time_2.192e-03,S0X_time_3.418e-03,S0X_time_5.339e-03,S0X_time_8.301e-03,S0X_time_1.338e-02,S0Z_time_1.086e-05,S0Z_time_3.256e-05,S0Z_time_5.426e-05,S0Z_time_8.680e-05,S0Z_time_1.411e-04,S0Z_time_2.279e-04,S0Z_time_3.689e-04,S0Z_time_5.860e-04,S0Z_time_9.115e-04,S0Z_time_1.411e-03,S0Z_time_2.192e-03,S0Z_time_3.418e-03,S0Z_time_5.339e-03,S0Z_time_8.301e-03,S0Z_time_1.338e-02
0.0,0.0,0.0,0.0,120.0,0.0,0.0,0.0,0.0,-107.0,0.0,-45.0,0.0,0.0,0.0,34.27253218749016,17.55503396713325,10.387003509558092,9.642417864820933,9.170752989479855,8.648909670152362,8.004114137686393,7.2574038153722835,6.404326998617489,5.493376796688016,4.557009256363693,3.5658653892972887,2.539362897877837,1.589880702693102,0.8530304158851273,0.38943858342454923,0.13977571942162767,10.929504456682592,10.491926365242858,10.202443887399863,9.87154795335105,9.44503152592118,8.924445595409017,8.290481347929225,7.559780155613166,6.7390835498140715,5.770936921729592,4.618786391629194,3.3538039668803097,2.1558999719173215,1.2158956977520126,0.5660690019626512
0.0,1.0,1.0,0.0,120.0,0.0,0.0,0.0,0.0,-107.0,0.0,-45.0,0.0,0.0,0.0,34.27253218749016,17.55503396713325,10.389242905641085,9.644650797967238,9.172979481293925,8.651126548022349,8.006315116634058,7.259579093773507,6.406433441468212,5.494899650659305,4.555835763201802,3.5589917225661782,2.52653130675445,1.5748762279086488,0.840457259035189,0.38144799121693207,0.13605617509375276,10.937304611589816,10.499710738803516,10.210212519544143,9.879293055432735,9.452737610048926,8.932089206571504,8.29800472264999,7.566724805954746,6.74330354570969,5.768253663673561,4.606347562360651,3.3337124134587826,2.1341297703510436,1.198121323662716,0.5551266582094508
0.0,2.0,2.0,0.0,120.0,0.0,0.0,0.0,0.0,-107.0,0.0,-45.0,0.0,0.0,0.0,34.27253218749016,17.55503396713325,10.391436128902916,9.646837650462512,9.175159984696519,8.653297574488992,8.008470480143416,7.261709008443087,6.408488811693535,5.496305371931089,4.554370353103737,3.5516908840153696,2.51334660847247,1.5597193310207933,0.8278959340218575,0.3735325517610157,0.13239908786986038,10.945019350661365,10.507409749854387,10.217895842725465,9.886952928678124,9.460358604781797,8.939647866498728,8.305438880133117,7.573523824109726,6.747193214962541,5.765018979372166,4.593318839564006,3.3132035116864422,2.112185864462147,1.1803569517784267,0.5442674085096351
0.0,3.0,3.0,0.0,120.0,0.0,0.0,0.0,0.0,-107.0,0.0,-45.0,0.0,0.0,0.0,34.27253218749016,17.55503396713325,10.393585412615865,9.648980648217869,9.177296718343026,8.655424957043602,8.010582417730454,7.263795691161077,6.410493815915383,5.497585749086275,4.552589576074144,3.5439292423326805,2.4997725161554225,1.5443780637010218,0.8153251749676511,0.3656814935724389,0.1288003797898301,10.952653061720325,10.515027774053127,10.225498220512357,9.89453191834976,9.467898825706865,8.947125822214423,8.312786974235918,7.5801727272088675,6.750732881369542,5.7612013141358025,4.579663728802876,3.2922409867451417,2.0900399322120453,1.1625858089748395,0.533483888165642
0.0,4.0,4.0,0.0,120.0,0.0,0.0,0.0,0.0,-107.0,0.0,-45.0,0.0,0.0,0.0,34.27253218749016,17.55503396713325,10.395692697516147,9.651081725770295,9.179391610683426,8.657510614716076,8.012652832948731,7.2658409833909525,6.412448616709179,5.498731316968575,4.550469105983276,3.535674428369598,2.485776107314975,1.5288244584465607,0.8027267651226507,0.3578856709501666,0.12525655542953973,10.96020955617586,10.522568612481711,10.233023443728086,9.902033799666398,9.475362022610417,8.954526755942954,8.320051408320195,7.586665602865098,6.753901282206327,5.756768664267474,4.565346810523883,3.2707908664494525,2.067666279740235,1.1447930722728348,0.5227696944488326
0.0,5.0,5.0,0.0,120.0,0.0,0.0,0.0,0.0,-107.0,0.0,-45.0,0.0,0.0,0.0,34.27253218749016,17.55503396713325,10.397759665223216,9.65314255959986,9.181446333170033,8.659556211132461,8.014683376056988,7.267846465322347,6.414352814124444,5.499731250309429,4.547983548855929,3.526894951743333,2.471327232436819,1.5130339404054716,0.790085136632234,0.350137367010019,0.1217646358137934,10.967692121162267,10.530035545078423,10.240474785175618,9.909461834484047,9.482751439345057,8.961853848147967,8.327233870909367,7.592995081454753,6.756675527186435,5.751688538413301,4.550333652722626,3.2488213247706668,2.0450416057908387,1.126965608836556,0.5121193664765956
0.0,6.0,6.0,0.0,120.0,0.0,0.0,0.0,0.0,-107.0,0.0,-45.0,0.0,0.0,0.0,34.27253218749016,17.55503396713325,10.399787765060081,9.655164594810554,9.18346232679245,8.661563180854868,8.016675469889766,7.269813477022158,6.416205413420781,5.500573254121435,4.5451062879389585,3.517559894360055,2.4563980259259277,1.4969848363067983,0.7773870350825239,0.34243012787994515,0.1183220992266766,10.975103558013254,10.537431364339058,10.24785502856847,9.916818793099791,9.490069823690616,8.969109765671977,8.33433525288312,7.599152136394976,6.759030822742619,5.745927577076475,4.534590269598755,3.226302098983647,2.0221447072418997,1.1090920805539943,0.5015281137156019
0.0,7.0,7.0,0.0,120.0,0.0,0.0,0.0,0.0,-107.0,0.0,-45.0,0.0,0.0,0.0,34.27253218749016,17.55503396713325,10.401778241129943,9.65714907213936,9.185440829012201,8.66353275623486,8.018630336420916,7.271743139276983,6.418004786265858,5.501243456122095,4.541809363640825,3.5076386733421407,2.4409625105676827,1.480657970424456,0.7646212355204972,0.3347586175077313,0.11492683240749194,10.982446227869955,10.544758425440005,10.255166523168338,9.924107015684143,9.49731949999406,8.976296748851263,8.341355717489156,7.605126130011942,6.76094058452115,5.7394517296193905,4.518083305653732,3.203204619649931,1.9989563489436872,1.0911625468622554,0.4909919498395615
0.0,8.0,8.0,0.0,120.0,0.0,0.0,0.0,0.0,-107.0,0.0,-45.0,0.0,0.0,0.0,34.27253218749016,17.55503396713325,10.403732153918908,9.659097049460321,9.187382895161136,8.665465988690617,8.020549017678801,7.273636367022484,6.419748616868581,5.501726290561136,4.538063370832241,3.4971008488275577,2.424996269383721,1.4640363275618142,0.7517783045414292,0.3271184953576828,0.11157708612196697,10.98972208502263,10.55201867791891,10.262411213805388,9.93132843984339,9.504502392526527,8.983416623543814,8.348294649579191,7.610904681845855,6.762376303369873,5.732226078506124,4.500779759689164,3.1795017056925725,1.975459068074487,1.07316843324586,0.4805075685101109
0.0,9.0,9.0,0.0,120.0,0.0,0.0,0.0,0.0,-107.0,0.0,-45.0,0.0,0.0,0.0,34.27253218749016,17.55503396713325,10.405650399938978,9.661009421351174,9.189289417923698,8.667363768103865,8.022432394833272,7.275493878926041,6.421433836158444,5.502004376698947,4.533837372987179,3.4859159711407406,2.4084761772435286,1.4471047749196004,0.7388503998849237,0.3195063108236423,0.10827143662767931,10.996932708617223,10.559213697283317,10.269590672387917,9.938484632014301,9.511620056556282,8.990470825663968,8.355150620481753,7.61647357029596,6.763307479013957,5.724214763112823,4.482646842062326,3.155167397638667,1.951637024437602,1.055102427880726,0.470072291909821
0.0,10.0,10.0,0.0,120.0,0.0,0.0,0.0,0.0,-107.0,0.0,-45.0,0.0,0.0,0.0,34.27253218749016,17.55503396713325,10.40753372917244,9.662886936472331,9.191161144641445,8.66922684005566,8.02428120514086,7.277316202220809,6.423056542344481,5.502058390569005,4.529098828527386,3.4740534579082687,2.391380180785041,1.4298498328032614,0.7258311019514392,0.3119194123468193,0.10500875176036953,11.004079331202378,10.566344713472471,10.276706126276897,9.945576815742502,9.518673706322238,8.997460420846231,8.361921340588605,7.621816625148187,6.763701556772149,5.715380910161339,4.463651845618197,3.130176812731401,1.9274758717216731,1.036958391685641,0.45968402497080724
0.0,11.0,11.0,0.0,120.0,0.0,0.0,0.0,0.0,-107.0,0.0,-45.0,0.0,0.0,0.0,34.27253218749016,17.55503396713325,10.409382760631662,9.66473021307086,9.192998692751335,8.67105582120763,8.026096057043008,7.279103672424968,6.424611906844124,5.501866929876903,4.523813526802186,3.461482494582725,2.3736871182388444,1.4122594864009121,0.712715272329055,0.30435586903958645,0.10178816098159872,11.011162864523504,10.57341263657605,10.283758483925974,9.952605897239312,9.52566424029146,9.004386119156296,8.368603598934003,7.626915610953409,6.7635238662878425,5.705686568845438,4.443762029146649,3.1045060202679937,1.9029626476745949,1.0187312802598727,0.4493412146025624
0.0,12.0,12.0,0.0,120.0,0.0,0.0,0.0,0.0,-107.0,0.0,-45.0,0.0,0.0,0.0,34.27253218749016,17.55503396713325,10.411197996300865,9.666539752874668,9.194802563621849,8.672851213087188,8.027877443656305,7.280856427393132,6.426094064465169,5.50140637214626,4.517945531878038,3.4481719532454154,2.3553765723951106,1.3943230322202527,0.6994989352261499,0.29681440296225214,0.09860902882916181,11.018183922909857,10.580418080153134,10.290748358128209,9.959572488552665,9.532592264022252,9.011248284611769,8.375193188924657,7.631750101369366,6.762737561530912,5.69509264891786,4.422944512183232,3.078131935557853,1.878085681342085,1.0004170763675542,0.4390428133117106
0.0,13.0,13.0,0.0,120.0,0.0,0.0,0.0,0.0,-107.0,0.0,-45.0,0.0,0.0,0.0,34.27253218749016,17.55503396713325,10.412979833686595,9.668315953601946,9.196573155011341,8.674613414494702,8.029625754841895,7.282574394943943,6.427495986628474,5.500650726417722,4.511457132802573,3.4340903256418476,2.3364287512968676,1.3760309538980882,0.6861791783730096,0.28929433048496506,0.09547093129483612,11.025142844550489,10.587361382445605,10.297676087162078,9.966476928639167,9.539458110899764,9.018046939111864,8.381684819266363,7.636297344692829,6.7613035614901404,5.6835588601863485,4.401166180033921,3.051032230994655,1.8528345157196318,0.9820127317895763,0.42878824668188537
0.0,14.0,14.0,0.0,120.0,0.0,0.0,0.0,0.0,-107.0,0.0,-45.0,0.0,0.0,0.0,34.27253218749016,17.55503396713325,10.414728577169841,9.670059120277244,9.198310772339537,8.67634273271701,8.031341287989525,7.284257273083814,6.428809336338895,5.499571478967435,4.504308799323413,3.41920566724587,2.316824392340415,1.3573748230275573,0.6727540705097843,0.2817955114035037,0.0923736347231591,11.032039710914317,10.594242625739655,10.30454175408959,9.973319302584693,9.546261860961215,9.024781760198614,8.388072009034435,7.640532120904002,6.7591804910501025,5.6710436520223135,4.378393598020868,3.0231852628741875,1.8271998443555952,0.9635161175042832,0.4185773842464816
0.0,15.0,15.0,0.0,120.0,0.0,0.0,0.0,0.0,-107.0,0.0,-45.0,0.0,0.0,0.0,34.27253218749016,17.55503396713325,10.416444448323913,9.671769475517031,9.200015638935204,8.678039393702877,8.03302425759619,7.285904501597214,6.430024303550868,5.498137433649035,4.496459142231849,3.4034855498090155,2.296544686359264,1.3383472214174115,0.6592225930374935,0.27431830467408,0.08931707688264075,11.038874364534461,10.60106165409459,10.31134520442511,9.980099459186352,9.553003357976943,9.031452071878347,8.394346965747786,7.644426590629298,6.756324621551766,5.657504151621864,4.354592934091239,2.9945700127441692,1.8011734606185585,0.944925981280451,0.4084105133421975
0.0,16.0,16.0,0.0,120.0,0.0,0.0,0.0,0.0,-107.0,0.0,-45.0,0.0,0.0,0.0,34.27253218749016,17.55503396713325,10.418127595338683,9.673447168923758,9.20168790539952,8.679703551332578,8.034674803657536,7.287515223495973,6.431129419537154,5.496314547586183,4.487864877601424,3.3868970203800863,2.275571219000281,1.318941681833685,0.6455845837904871,0.26686352979624983,0.08630134990906707,11.045646425347982,10.607818089629234,10.318086062365285,9.98681702708024,9.559682224902119,9.038056827518286,8.400500445237801,7.647950136505753,6.752689810488131,5.642896099879299,4.329729889089818,2.965166042235856,1.7747482185045604,0.9262419118730041,0.3982883155781415
0.0,17.0,17.0,0.0,120.0,0.0,0.0,0.0,0.0,-107.0,0.0,-45.0,0.0,0.0,0.0,34.27253218749016,17.55503396713325,10.419778101670918,9.675092285706858,9.203327658204566,8.68133529589337,8.036292998814956,7.289088234509085,6.432111348859082,5.494065763051932,4.478480794222544,3.36940656520972,2.2538859272997134,1.299152644799679,0.6318406912054346,0.25943243300979707,0.08332668486138589,11.052355305756084,10.61451134753043,10.324763745744926,9.993471429573566,9.566297877753955,9.044594583594577,8.406521592051304,7.6510691974971685,6.748227439690931,5.62717378384166,4.30376963415756,2.934953460490131,1.747918004005831,0.9074643091044159,0.38821184559590527
0.0,18.0,18.0,0.0,120.0,0.0,0.0,0.0,0.0,-107.0,0.0,-45.0,0.0,0.0,0.0,34.27253218749016,17.55503396713325,10.42139599402378,9.676704854632264,9.20493492762965,8.682934661856473,8.037878854109604,7.290621918449214,6.432954657559848,5.4913508364675,4.468259723515184,3.3509800773147758,2.2314710698597597,1.2789754294649325,0.6179923374248543,0.2520266575860688,0.08039343766503194,11.059000224547828,10.62114064992617,10.331377479862116,10.000061898318435,9.572849537901009,9.051063462803835,8.412397759099408,7.653747096769285,6.7428863512327535,5.610289964816105,4.2766767548785865,2.903912903449733,1.720677716195424,0.8885943591950615,0.37818251183033685
0.0,19.0,19.0,0.0,120.0,0.0,0.0,0.0,0.0,-107.0,0.0,-45.0,0.0,0.0,0.0,34.27253218749016,17.55503396713325,10.422981249743804,9.67828485538733,9.20650969512353,8.684501635037186,8.039432323077632,7.292114165909767,6.4336415562633,5.488126165531077,4.457152511143446,3.3315828267866334,2.2083092094320382,1.2584062169145034,0.6040416890913604,0.2446482175900914,0.07750207624684359,11.065580219810123,10.62770503874607,10.33792631029605,10.006587485945179,9.579336242667077,9.05746110475664,8.418114305262392,7.655943863772623,6.7366127801002476,5.592195801302481,4.248415201951901,2.8720255244428543,1.6930232573002426,0.8696340147747187,0.3682020590106817
0.0,20.0,20.0,0.0,120.0,0.0,0.0,0.0,0.0,-107.0,0.0,-45.0,0.0,0.0,0.0,34.27253218749016,17.55503396713325,10.424533803711801,9.679832225435938,9.208051900168314,8.686036159208914,8.0409533037717,7.293562273326566,6.434151616966083,5.48434461554434,4.445107989468453,3.311179433203385,2.1843832070513436,1.2374420445890288,0.5899916347696211,0.23729947457031803,0.0746531686905971,11.072094160929758,10.63420338767454,10.344409114824197,10.013047077757204,9.585756854048611,9.06378460214844,8.423654369689928,7.657616051201158,6.72935028249821,5.572840766027047,4.21894824831357,2.8392729956293055,1.6649515311400462,0.8505859790666249,0.358272552167019
0.0,21.0,21.0,0.0,120.0,0.0,0.0,0.0,0.0,-107.0,0.0,-45.0,0.0,0.0,0.0,34.27253218749016,17.55503396713325,10.426053554793947,9.681346866428388,9.20956144670979,8.687538142232684,8.04244163810175,7.294962818981619,6.434461462465524,5.479955346030545,4.432072949869033,3.289733839759456,2.159676227143328,1.2160808107351506,0.5758457680824293,0.22998311670028415,0.07184737226352451,11.078540759778212,10.640634413287477,10.350824614530413,10.0194394025756,9.59211006521424,9.070030419949447,8.428998621601426,7.658716547485559,6.721039658419306,5.552172556462334,4.188238452776169,2.8056375200203756,1.6364604494035961,0.8314536937855936,0.34839636192900564
0.0,22.0,22.0,0.0,120.0,0.0,0.0,0.0,0.0,-107.0,0.0,-45.0,0.0,0.0,0.0,34.27253218749016,17.55503396713325,10.427540371910789,9.682828650222087,9.211038209209212,8.689007461755889,8.04389710764146,7.296311512035809,6.434544427575569,5.474903638728233,4.417992113840139,3.2672092889673716,2.1341717532663416,1.1943212880137521,0.561608375770111,0.22270213995311747,0.06908542318251572,11.084918581158197,10.64699668545153,10.357171384183774,10.02576304281186,9.598394404291442,9.076194294772398,8.434124984495527,7.659194385431451,6.7116188668685135,5.53013699833565,4.156247630389651,2.7711018539159906,1.607548945315809,0.8122413303339708,0.33857615092245874
0.0,23.0,23.0,0.0,120.0,0.0,0.0,0.0,0.0,-107.0,0.0,-45.0,0.0,0.0,0.0,34.27253218749016,17.55503396713325,10.428994099774153,9.684277424561197,9.212482038361692,8.690443970525248,8.045319424729984,7.297603010156606,6.434370191551133,5.46913072798553,4.4028081016561345,3.243568300021746,2.107853614348787,1.1721631455676516,0.5472844299824081,0.21545983093752766,0.06636812700452005,11.091226052582396,10.65328863705645,10.363447861958617,10.032016443839403,9.604608234738249,9.08227111116758,8.439008333827003,7.658994547515088,6.701022931867441,5.50667794175769,4.122936829859623,2.7356493397306147,1.5782169943221511,0.7929537839140554,0.32881486108538655
0.0,24.0,24.0,0.0,120.0,0.0,0.0,0.0,0.0,-107.0,0.0,-45.0,0.0,0.0,0.0,34.27253218749016,17.55503396713325,10.430414564334066,9.68569301845587,9.213892766516288,8.691847501347706,8.04670821729551,7.298830700764497,6.433904381471896,5.462573634463042,4.386461397268125,3.218772648151154,2.0807060214584183,1.1496069789969654,0.5328795841920301,0.2082597510639665,0.06369634953956396,11.09746147345041,10.659508573147123,10.369652358561327,10.03819792273004,9.610749751337256,9.088254751162433,8.443620167404204,7.658057768187547,6.689183837088066,5.481737149743961,4.08826631848932,2.6992639493024617,1.5484656414800981,0.7735966702042536,0.31911570173858844
0.0,25.0,25.0,0.0,120.0,0.0,0.0,0.0,0.0,-107.0,0.0,-45.0,0.0,0.0,0.0,34.27253218749016,17.55503396713325,10.431801577968567,9.687075247292704,9.215270212820105,8.693217871714218,8.048063005315708,7.299986440367265,6.4331081467284585,5.455165002863738,4.368890308001881,3.1927833465227002,2.052713615295969,1.1266543478147728,0.5184001721810446,0.20110572174350735,0.061071008196963386,11.103623023689774,10.665654679521635,10.37578306582773,10.04430567641864,9.616816970521718,9.094137912915206,8.447928248003537,7.656320333301024,6.676030406685531,5.45525417905683,4.052195575241925,2.6619303379017465,1.5182970353018048,0.7541763242687887,0.30948213825738335
0.0,26.0,26.0,0.0,120.0,0.0,0.0,0.0,0.0,-107.0,0.0,-45.0,0.0,0.0,0.0,34.27253218749016,17.55503396713325,10.433154944518616,9.68842391777649,9.216614188171254,8.694554888144749,8.04938316625752,7.3010602459622636,6.431937705253223,5.446832944158266,4.3500309175305745,3.165560631440848,2.0238615246288516,1.1033078199988067,0.5038532097226766,0.19400181028191069,0.058493063691786445,11.109708767396352,10.671725026330499,10.38183806032264,10.05033778482462,9.622807708822963,9.099911889448869,8.451896213710146,7.65371387260069,6.661488166783335,5.427166252749322,4.0146832954847795,2.623633914342666,1.487714465102333,0.7346998011339648,0.29991788138924935
0.0,27.0,27.0,0.0,120.0,0.0,0.0,0.0,0.0,-107.0,0.0,-45.0,0.0,0.0,0.0,34.27253218749016,17.55503396713325,10.434474471776285,9.689738840295027,9.217924507533441,8.695858357713519,8.050667893415179,7.302039939163736,6.430343869451709,5.437500888326456,4.32981703463344,3.1370639522290573,1.994135430654864,1.079571015212886,0.489246403883807,0.1869523158697492,0.055963511821031896,11.115716629851224,10.677717545040956,10.38781528029423,10.05629218727219,9.628719525595095,9.10556628105704,8.455483135502034,7.650165126048477,6.6454791707498275,5.397408120884926,3.975687421519933,2.584360952045171,1.4567223889380563,0.7151748761781024,0.2904268780245204
0.0,28.0,28.0,0.0,120.0,0.0,0.0,0.0,0.0,-107.0,0.0,-45.0,0.0,0.0,0.0,34.27253218749016,17.55503396713325,10.43575997022021,9.69101982761339,9.219200988615752,8.697128085842941,8.051916122262712,7.302910716355369,6.428271535435311,5.427087432339762,4.308180127480324,3.1072519698492007,1.9635216570604679,1.0554486702397938,0.47458815064137017,0.17996175769040063,0.05348337628345537,11.121644518873175,10.683630151629135,10.393712650656596,10.062166809393586,9.634549808195548,9.11108882204117,8.458643214056238,7.645595875728981,6.6279219659886595,5.365912044966174,3.9351652363354894,2.544098692779049,1.4253265696001727,0.6956099236154608,0.2810133718045906
0.0,29.0,29.0,0.0,120.0,0.0,0.0,0.0,0.0,-107.0,0.0,-45.0,0.0,0.0,0.0,34.27253218749016,17.55503396713325,10.437011254329704,9.692266696036189,9.220443452822728,8.698363875727587,8.05312643417286,7.30365465140894,6.425659149867954,5.415506190964376,4.2850492444587305,3.0760825581896896,1.9320072664258134,1.0309467084711708,0.459887540040988,0.1730348599510945,0.05105370160741523,11.127490221186875,10.689460643436293,10.39952798035434,10.067959460493917,9.640295609792718,9.11646492213425,8.46132521674014,7.639922646674433,6.608731341995067,5.332607664710909,3.8930735084723787,2.502835612810972,1.3935340696863279,0.6760138776148874,0.27168191916464085
0.0,30.0,30.0,0.0,120.0,0.0,0.0,0.0,0.0,-107.0,0.0,-45.0,0.0,0.0,0.0,34.27253218749016,17.55503396713325,10.438228142444908,9.69347926508653,9.22165172456666,8.699565525198215,8.05429692681466,7.304250119937631,6.4224381543106706,5.402665646179305,4.260350918018463,3.043512807076636,1.8995801582236589,1.0060723036437604,0.4451543730635674,0.16617654458798087,0.048675541085510615,11.133251433504716,10.69520671744881,10.405258967738195,10.07366781827586,9.645953520519777,9.121677148525302,8.463471796770149,7.633056162278163,6.587817598822818,5.297421098823423,3.8493675275962693,2.4605605139084012,1.361353221695614,0.6563971621824194,0.2624368477309057
0.0,31.0,31.0,0.0,120.0,0.0,0.0,0.0,0.0,-107.0,0.0,-45.0,0.0,0.0,0.0,34.27253218749016,17.55503396713325,10.439410470518922,9.694657371252879,9.222825644660336,8.700732836384843,8.05542505900467,7.304671154689047,6.41853242924144,5.388469013736265,4.234009075045589,3.009499058786038,1.8662292030969767,0.9808339616499582,0.4303991609426863,0.15939191047858384,0.04634995505641873,11.138925786707878,10.700866011237133,10.410903258092617,10.079289509200827,9.651519682591585,9.126704932223962,8.465019267763072,7.624901553929705,6.56508696041079,5.260275771449367,3.804002458025138,2.4172639357996526,1.3287938473011378,0.6367704939827653,0.2532829370715135
0.0,32.0,32.0,0.0,120.0,0.0,0.0,0.0,0.0,-107.0,0.0,-45.0,0.0,0.0,0.0,34.27253218749016,17.55503396713325,10.4405580920065,9.695800867760164,9.223965069424585,8.701865608301954,8.05650742975167,7.304886693811964,6.413857709294478,5.372814088777432,4.2059449158878754,2.9739969413625,1.8319443780652733,0.9552416025878023,0.4156331362027451,0.15268622220825404,0.04407800146941504,11.144510848046972,10.706436098970798,10.416458433208101,10.084822084998276,9.656989612138487,9.131523951709655,8.465896957384986,7.61535793123752,6.540441017336034,5.221091886013423,3.756932934398259,2.3729378202430293,1.2958672758361016,0.6171453393171141,0.2442251490827083
0.0,33.0,33.0,0.0,120.0,0.0,0.0,0.0,0.0,-107.0,0.0,-45.0,0.0,0.0,0.0,34.27253218749016,17.55503396713325,10.441670880589308,9.696909627250283,9.225069872552229,8.702963627961836,8.057539496148204,7.304859733066061,6.408320993078973,5.355593086332029,4.1760767834745085,2.9369614236839556,1.7967169230285827,0.9293066506885097,0.40086826029153716,0.1460648954018192,0.04186072861324093,11.15000413017706,10.711914500582179,10.421922020306438,10.090263025466102,9.662358023011226,9.136105508087239,8.466026649823641,7.604318096543741,6.513776384046606,5.179786266202427,3.7081131595668686,2.3275756722284138,1.2625864242551692,0.5975339204790183,0.23526861680410857
0.0,34.0,34.0,0.0,120.0,0.0,0.0,0.0,0.0,-107.0,0.0,-45.0,0.0,0.0,0.0,34.27253218749016,17.55503396713325,10.442748731945025,9.69798354355603,9.226139945882583,8.704026653537676,8.058515210451343,7.304546371324461,6.401819947457111,5.336692466427914,4.144320018338796,2.8983468909865007,1.760539516089426,0.9030421302571493,0.3861172303930815,0.13953348121390297,0.03969916787641259,11.155403101048138,10.717298691856104,10.427291501847302,10.09560973816732,9.667618598403918,9.140415816798699,8.465322010036681,7.59166822654385,6.4849843129798055,5.136272198437753,3.65749702381978,2.281172739115528,1.2289658822923144,0.5779492216880929,0.22641863275825436
0.0,35.0,35.0,0.0,120.0,0.0,0.0,0.0,0.0,-107.0,0.0,-45.0,0.0,0.0,0.0,34.27253218749016,17.55503396713325,10.443791564220843,9.699022532240694,9.22717519879149,8.705054385430069,8.05942655744042,7.303894743610165,6.394242309847593,5.315992736558553,4.110586800622336,2.858107244631261,1.7234064694746911,0.8764627674389963,0.3713934849349327,0.13309764981883201,0.037594326520599866,11.16070519472035,10.722586115530525,10.432564326325334,10.100859552803582,9.672763697603454,9.144415209971065,8.46368799091818,7.577287511241332,6.453950262769892,5.090459278411859,3.6050382484250427,2.233726209080926,1.1950220026374856,0.5584049942506817,0.2176806367224261
0.0,36.0,36.0,0.0,120.0,0.0,0.0,0.0,0.0,-107.0,0.0,-45.0,0.0,0.0,0.0,34.27253218749016,17.55503396713325,10.444799316872544,9.700026529571574,9.228175555923615,8.706046419338673,8.060262969939608,7.302843837400553,6.38546529132446,5.293368222964622,4.074785980992061,2.8161960303327502,1.6853139480312043,0.8495850975712441,0.35671120726478706,0.12676317275194726,0.03554718044502004,11.165907822990334,10.727774193308386,10.43773791999214,10.106009706762746,9.677783982642085,9.148057244013112,8.461020223469504,7.561047738542748,6.420553418188386,5.042253264761316,3.5506905570409866,2.185235430339909,1.1607729958982826,0.5389157605740881,0.20906020284200916
0.0,37.0,37.0,0.0,120.0,0.0,0.0,0.0,0.0,-107.0,0.0,-45.0,0.0,0.0,0.0,34.27253218749016,17.55503396713325,10.445771947641743,9.700995489698645,9.229140953107482,8.70700217313442,8.061010597094553,7.301322189959315,6.3753549819616655,5.268686801029326,4.03682290339872,2.772566599511702,1.6462602124183887,0.8224275778172186,0.3420853269306078,0.12053590396514137,0.03355866691297375,11.171008387464324,10.732860338420826,10.442809699177037,10.111057316551424,9.682667946810223,9.151287707811946,8.457204388381976,7.542812810762322,6.384666159971573,4.991555943535813,3.4944078792236364,2.1357021526992908,1.1262390300386684,0.5194968166388892,0.2005630259900658
0.0,38.0,38.0,0.0,120.0,0.0,0.0,0.0,0.0,-107.0,0.0,-45.0,0.0,0.0,0.0,34.27253218749016,17.55503396713325,10.446709427727024,9.701929380081525,9.230071331530324,8.70792077633218,8.061651396767873,7.299246467064168,6.363765757944388,5.2418095741851785,3.9965992237550405,2.72717230887439,1.6062458892069025,0.7950107047067069,0.32753151796209307,0.11442175946791501,0.03162967720398917,11.176004291439074,10.737841968091425,10.447777082556565,10.115999327443287,9.687401323975573,9.15404352786218,8.452115565023698,7.5224381772336395,6.346153483248112,4.938265007811442,3.436144591006684,2.0851307930828287,1.0914423338948451,0.5001642325127973,0.192194907264039
0.0,39.0,39.0,0.0,120.0,0.0,0.0,0.0,0.0,-107.0,0.0,-45.0,0.0,0.0,0.0,34.27253218749016,17.55503396713325,10.447611735702138,9.70282817569315,9.230966630595962,8.70880090709177,8.062162020481713,7.2965199266867655,6.350539687330373,5.212590490244059,3.9540127299143486,2.679966763752269,1.5652742701077442,0.7673571361172824,0.31306619352053655,0.10842669542761564,0.029761049151575642,11.180892950745285,10.74271651501856,10.452637502389546,10.120832430631566,9.691966354629916,9.156251567936637,8.44561755059016,7.499770165235077,6.304872363852666,4.882273957588851,3.3758557983139315,2.0335287267585618,1.0564073042663613,0.4809348504680729,0.18396173848611652
0.0,40.0,40.0,0.0,120.0,0.0,0.0,0.0,0.0,-107.0,0.0,-45.0,0.0,0.0,0.0,34.27253218749016,17.55503396713325,10.448478851439221,9.703691853223145,9.23182678024302,8.70964055665687,8.062512456920636,7.293030774839569,6.3355059278877714,5.1808758841483815,3.9089571697831555,2.630904111177626,1.5233516425368427,0.7394918171200436,0.29870649625540296,0.1025566845960492,0.027953559534011553,11.185671802715557,10.747481436962895,10.457388413477155,10.125552933431047,9.696340881825138,9.157827322538981,8.437562138091357,7.474645189677246,6.260671072367372,4.823472026011952,3.313497669726569,1.9809066060878608,1.021160615976745,0.4618262802382832,0.1758694855396376
0.0,41.0,41.0,0.0,120.0,0.0,0.0,0.0,0.0,-107.0,0.0,-45.0,0.0,0.0,0.0,34.27253218749016,17.55503396713325,10.449310752095343,9.704520387302288,9.232651693593152,8.710436694581075,8.062664398323317,7.28865042464322,6.318480106004753,5.146503936922358,3.8613220959856385,2.5799393891717766,1.48048765375246,0.7114421089679905,0.2844702836617826,0.0968176909139416,0.02620791631218204,11.190338312823494,10.752134223864642,10.46202729849428,10.130156563598039,9.700497248020742,9.158673505391388,8.427788336909726,7.4468888206356105,6.213388436229628,4.761744138933812,3.2490278258402356,1.9272787087128134,0.9857313341975354,0.4428568909104359,0.16792417033771606
0.0,42.0,42.0,0.0,120.0,0.0,0.0,0.0,0.0,-107.0,0.0,-45.0,0.0,0.0,0.0,34.27253218749016,17.55503396713325,10.450107412867258,9.705313751427708,9.233441260130258,8.711184799445514,8.0625692932931,7.283231673157955,6.299263660065028,5.109304042139047,3.8109927372001717,2.5270289393838086,1.4366957110207983,0.6832379203119426,0.27037610764681874,0.09121564212681138,0.024524750758166732,11.194889979421491,10.756672402743357,10.466551668344664,10.134638183545599,9.70440096273028,9.158678536512573,8.416121513876352,7.416314686967466,6.162853050627885,4.696970915952748,3.1824057931634258,1.8726633172000862,0.9501510282226172,0.4240457988873666,0.16013185119526072
0.0,43.0,43.0,0.0,120.0,0.0,0.0,0.0,0.0,-107.0,0.0,-45.0,0.0,0.0,0.0,34.27253218749016,17.55503396713325,10.450868815323158,9.7060719264014,9.234195337404572,8.71187820838221,8.062166049737083,7.276606812853142,6.277643124696617,5.069096073504366,3.757849908129061,2.472130891201479,1.3919934207930078,0.6549118394666326,0.2564431873553049,0.08575640023968753,0.022904609587690694,11.199324338333701,10.761093541913263,10.470959056054301,10.138991383905367,9.70800911102476,9.157714933693626,8.402372426114647,7.382723193938917,6.108882439097496,4.6290287222894335,3.1135935314248067,1.8170831322653649,0.9144538857245238,0.40541285126852267,0.1524986013816837
0.0,44.0,44.0,0.0,120.0,0.0,0.0,0.0,0.0,-107.0,0.0,-45.0,0.0,0.0,0.0,34.27253218749016,17.55503396713325,10.451594976680692,9.70679492957211,9.234913745675772,8.71250723489932,8.06137836346621,7.26858570454001,6.25338933217224,5.025689555824988,3.701769973194206,2.4152057214657843,1.3464030615200342,0.6264992666754712,0.24269137432807225,0.0804457315704918,0.021347946090837528,11.203638902759131,10.765395193762213,10.475246942200402,10.143207864754661,9.711268431915867,9.155637590878207,8.386336114414192,7.345900086218275,6.051282287935358,4.557789986955154,3.0425562593079953,1.7605656512329897,0.8786766465556582,0.3869787702854895,0.14503046629699348
0.0,45.0,45.0,0.0,120.0,0.0,0.0,0.0,0.0,-107.0,0.0,-45.0,0.0,0.0,0.0,34.27253218749016,17.55503396713325,10.452286042464074,9.707482907849386,9.235596293834687,8.713058019096302,8.06011168486501,7.258953871086118,6.226256534140164,4.978882780903734,3.642624909050157,2.3562169012359067,1.2999520563382265,0.5980385432353984,0.22914112040620993,0.07528926863696946,0.01985511385202507,11.207831259555737,10.769574984518444,10.479412798654227,10.147276728998095,9.714113181076383,9.152282035467836,8.367790603944183,7.30561467879169,5.989845383123001,4.483123176453442,2.9692629358907574,1.703143731660924,0.8428588904678566,0.36876496229988714,0.1377334553666142
0.0,46.0,46.0,0.0,120.0,0.0,0.0,0.0,0.0,-107.0,0.0,-45.0,0.0,0.0,0.0,34.27253218749016,17.55503396713325,10.452942209406071,9.708136061099038,9.236242578304758,8.713510778531761,8.058249567537539,7.247470395075285,6.195981182688701,4.928461702104864,3.5802823961212598,2.295131698358179,1.2526736471576208,0.5695710724962515,0.21581341008531835,0.07029246880469188,0.01842636452052531,11.211899261374477,10.773630790128673,10.483454174911255,10.151183562487292,9.71646269220813,9.14746260470391,8.346495296629685,7.261617684251285,5.9243502194787485,4.404892439559107,2.8936864345095423,1.6448563349121135,0.8070437215675423,0.3507929423036973,0.13061358045960428
0.0,47.0,47.0,0.0,120.0,0.0,0.0,0.0,0.0,-107.0,0.0,-45.0,0.0,0.0,0.0,34.27253218749016,17.55503396713325,10.453563799384487,9.70875471528318,9.236851833425108,8.713837656241259,8.055649695851685,7.233865919312138,6.162280584989446,4.874198834757439,3.5146060608173957,2.2319220511389832,1.204607499036805,0.5411414335368068,0.20272969315037417,0.06546058508679561,0.01706183634258204,11.215840817593541,10.777560544151722,10.487368393189191,10.154908878641711,9.718218386890669,9.140970486627108,8.322189243531442,7.213639348470605,5.85456068626608,4.3229590821954735,2.8158055593928024,1.5857487147906444,0.7712769075262937,0.33308519283532756,0.12367672091136153
0.0,48.0,48.0,0.0,120.0,0.0,0.0,0.0,0.0,-107.0,0.0,-45.0,0.0,0.0,0.0,34.27253218749016,17.55503396713325,10.45415129927133,9.709339360370796,9.237422589211883,8.713999845343679,8.052139417771974,7.217840571141228,6.124851226075733,4.815852086273969,3.4454558775420114,2.1665656103663786,1.155800371392449,0.512797486011152,0.18991180878166866,0.06079862129623075,0.0157615498259025,11.219654048524756,10.781362375395643,10.49115244732429,10.15842636489355,9.71926058178179,9.132571681902135,8.294588824627665,7.161386757511252,5.780224699993868,4.2371816514622,2.7356057160926404,1.5258731866067563,0.7356073562827226,0.3156647448594333,0.11692863574344683
0.0,49.0,49.0,0.0,120.0,0.0,0.0,0.0,0.0,-107.0,0.0,-45.0,0.0,0.0,0.0,34.27253218749016,17.55503396713325,10.454705366168428,9.709890648058227,9.237952040374083,8.713943824078862,8.047510794059558,7.199061762484144,6.08336667953762,4.7531635345357515,3.3726887633260483,2.099046964867003,1.1063068491845307,0.48459045129634465,0.17738189415946126,0.0563112885754561,0.014525402201606924,11.223337365559871,10.785034676867243,10.494802694288135,10.161700529366286,9.719444904726476,9.12200482944884,8.263385009896057,7.10454100558709,5.701073114787711,4.147416631319814,2.6530801703451488,1.465289783502325,0.7000871914145892,0.29855511551007363,0.11037493160772624
0.0,50.0,50.0,0.0,120.0,0.0,0.0,0.0,0.0,-107.0,0.0,-45.0,0.0,0.0,0.0,34.27253218749016,17.55503396713325,10.45522678556998,9.710409328748304,9.23843497634164,8.713596507971541,8.04151518492001,7.177161779191404,6.037475022673271,4.685858186709284,3.2961594230267175,2.0293590851460968,1.0561901241334737,0.456574966043827,0.1651622794656765,0.052002959450644225,0.013353161651781085,11.226889544659679,10.788576160723501,10.498314306504678,10.164683662775069,9.718598344242913,9.108978802442714,8.228240013545308,7.04275403919612,5.6168186412561205,4.053519360025301,2.5682314942297317,1.4040669524533786,0.6647718113689367,0.28178023482471615,0.10402102932720624
0.0,51.0,51.0,0.0,120.0,0.0,0.0,0.0,0.0,-107.0,0.0,-45.0,0.0,0.0,0.0,34.27253218749016,17.55503396713325,10.45571637294185,9.710896101357102,9.238862066061351,8.71285911670638,8.03385741140464,7.151735027390333,5.986795666541191,4.613642745859405,3.2157215038031772,1.9575050189853238,1.0055228224289425,0.42880910270953265,0.15327536741557043,0.04787761938632759,0.0122444606424763,11.230309754869916,10.791985852642807,10.501680329979964,10.167311946333967,9.716514914341658,9.093169927315843,8.1887831934944,6.975645153328799,5.527154822770804,3.955345235849249,2.4810732229719497,1.3422822840753774,0.6297199296020585,0.2653643600217676,0.09787212870315215
0.0,52.0,52.0,0.0,120.0,0.0,0.0,0.0,0.0,-107.0,0.0,-45.0,0.0,0.0,0.0,34.27253218749016,17.55503396713325,10.456174835540985,9.71135136018544,9.239217242773295,8.711599580311038,8.024189562877662,7.122334771363853,5.930915527878303,4.536204417242664,3.1312291197759428,1.8834998672421224,0.9543878732617062,0.4013543537332528,0.1417434941235198,0.043938816045697326,0.011198787820631226,11.233597494604545,10.795262961007962,10.504890136971314,10.169500521241192,9.712950906191576,9.074218608574778,8.144606018756456,6.902797107966303,5.431755138964184,3.8527512905743735,2.3916317461790553,1.2800232703617547,0.5949935913686326,0.24933197566261417,0.09193317068409401
0.0,53.0,53.0,0.0,120.0,0.0,0.0,0.0,0.0,-107.0,0.0,-45.0,0.0,0.0,0.0,34.27253218749016,17.55503396713325,10.456602650464793,9.711774834946986,9.239473882183125,8.70964336811891,8.012104556937654,7.088469169926091,5.8693845017215915,4.453209793086554,3.0425388056149103,1.807373062809345,0.9028794118831578,0.37427557605393164,0.13058876742092468,0.04018960679686172,0.01021547853078202,11.23675240342772,10.798406554920602,10.507927017146997,10.171137351412634,9.707619695773756,9.051725074459648,8.095255904469996,6.823751822315369,5.330272324120706,3.7455982166975232,2.299948457116629,1.2173880873325473,0.5606581601604627,0.2337076780145649,0.08620879545872864
0.0,54.0,54.0,0.0,120.0,0.0,0.0,0.0,0.0,-107.0,0.0,-45.0,0.0,0.0,0.0,34.27253218749016,17.55503396713325,10.457000049854688,9.712165108494908,9.23958939799142,8.706762704388053,7.997129569189031,7.049596388100764,5.801710235664067,4.364303866384213,2.9495119560462,1.7291709798543276,0.8511037126499107,0.3476408870728797,0.11983288005861376,0.036632505255270544,0.009293705120697982,11.239773970384148,10.80141501061282,10.510764633743221,10.17207577733697,9.700186089570929,9.025243908185844,8.040228705895482,6.738005588086339,5.222337996120777,3.6337529364388157,2.2060821855546124,1.1544864024834416,0.5267822634721212,0.2185160421662668,0.08070329496254251
0.0,55.0,55.0,0.0,120.0,0.0,0.0,0.0,0.0,-107.0,0.0,-45.0,0.0,0.0,0.0,34.27253218749016,17.55503396713325,10.45736720827055,9.712518923235415,9.239497770675097,8.70266421281912,7.978719396771818,7.005118512264878,5.727352250409168,4.269109249756739,2.8520178176057067,1.6489599166123479,0.7991801488718817,0.32152149218948384,0.10949689903381447,0.03326942728133351,0.00843246952815128,11.242661224686003,10.804285207925425,10.513362064265362,10.172125762968827,9.69026020161234,8.994277007450318,7.978959692386539,6.6450037683303105,5.107562774207103,3.5170919170889183,2.110111962978769,1.0914401349424374,0.49343772034467603,0.20378145111708085,0.07542057464366707
0.0,56.0,56.0,0.0,120.0,0.0,0.0,0.0,0.0,-107.0,0.0,-45.0,0.0,0.0,0.0,34.27253218749016,17.55503396713325,10.457704869512265,9.712830202874471,9.239099557034656,8.696975270475665,7.956249843254411,6.954374091225147,5.645715640974311,4.1672258195391425,2.749937093274317,1.566829325493833,0.747242133166913,0.2959914903165566,0.09960101040804858,0.030101636860461158,0.007630604423016006,11.245412406162348,10.807011306564187,10.515656999414471,10.171043830709952,9.677390718111782,8.958264521352634,7.910812833453013,6.54413504166792,4.98553737431811,3.3955059406810917,2.0121402724728443,1.0283837903040163,0.46069961537543386,0.18952779191950958,0.07036419534502658
0.0,57.0,57.0,0.0,120.0,0.0,0.0,0.0,0.0,-107.0,0.0,-45.0,0.0,0.0,0.0,34.27253218749016,17.55503396713325,10.458014490932356,9.713087361620893,9.238247686061506,8.689228317068254,7.929009910284701,6.8966280903652715,5.556143911620698,4.05823081300298,2.643166615900896,1.482896061190885,0.6954380707799439,0.2711274114181636,0.09016428736894595,0.027129701656982745,0.0068867792791717725,11.248026337793812,10.809584439433403,10.517558125173805,10.168523089605161,9.661058307126583,8.916573781664187,7.835067828465188,6.434723324527661,4.855831286763815,3.2689019549003118,1.9122960957338309,0.9654672189566816,0.42864508973065224,0.17577880105628843,0.0655369028893288
0.0,58.0,58.0,0.0,120.0,0.0,0.0,0.0,0.0,-107.0,0.0,-45.0,0.0,0.0,0.0,34.27253218749016,17.55503396713325,10.458298505690276,9.713268673192344,9.236728769379235,8.678843861255228,7.89619260687131,6.831059213792755,5.457911529307137,3.9416799881439686,2.5316250267384746,1.3973088675661722,0.6439322648560344,0.2470076683415587,0.08120444179426839,0.02435342770451624,0.006199509547588452,11.250502377555318,10.811989962699815,10.518933483759755,10.164181141393115,9.64066695050744,8.868485020735745,7.7509059067056745,6.31602151365889,4.717997369157597,3.1372126926322683,1.810739381974102,0.9028541812059866,0.39735409599798555,0.1625572544834221,0.06094104264390125
0.0,59.0,59.0,0.0,120.0,0.0,0.0,0.0,0.0,-107.0,0.0,-45.0,0.0,0.0,0.0,34.27253218749016,17.55503396713325,10.458559862224671,9.71333363010449,9.234238286614339,8.66511153797578,7.856882443055071,6.756743370628034,5.35021611008864,3.817110656857955,2.4152602363560276,1.3102533307748865,0.5929055454462049,0.2237119833452902,0.07273750088908942,0.02177181293777999,0.005567171315787199,11.252841884182216,10.81420422376203,10.51959669868898,10.157547978989092,9.615533698782652,8.813173490195307,7.657392627826777,6.187202453865338,4.571573904947446,3.000403319744645,1.7076653498529462,0.8407236590335261,0.36690863094854803,0.1498849373815813,0.05657835072452854
0.0,60.0,60.0,0.0,120.0,0.0,0.0,0.0,0.0,-107.0,0.0,-45.0,0.0,0.0,0.0,34.27253218749016,17.55503396713325,10.458800497207978,9.71320814318181,9.230348603699971,8.647168749264006,7.810037364306592,6.672632020578585,5.23216992407984,3.684047244913518,2.2940591181430054,1.2219573628723968,0.5425556533487355,0.20132064188278498,0.06477746964918955,0.019383001771229046,0.004987999869624272,11.255048810825443,10.816187501276332,10.519288433610546,10.148051876317057,9.584873992230452,8.749686467294056,7.5534583433865885,6.047350402457853,4.4160895330107195,2.8584810307015736,1.603309305214289,0.7792703177942261,0.337392216817445,0.13778237582667785,0.05244992200425767
0.0,61.0,61.0,0.0,120.0,0.0,0.0,0.0,0.0,-107.0,0.0,-45.0,0.0,0.0,0.0,34.27253218749016,17.55503396713325,10.459019406123303,9.71276182869168,9.224470188703403,8.623977015409837,7.754463272351087,6.577524746723242,5.1027905100346596,3.5420100368352796,2.1680598160644893,1.1326970975009616,0.4930973509402382,0.17991354448447563,0.05733597732838758,0.01718424552675094,0.0044600646074761715,11.257128454862853,10.817870557023827,10.517651621111172,10.13500162891286,9.547779313880337,8.676912792774626,7.43787534867068,5.895453491717362,4.251071069101808,2.7115067186858783,1.4979517908270708,0.7187047896710886,0.30888924186867805,0.12626854183242361,0.048556165062929466
0.0,62.0,62.0,0.0,120.0,0.0,0.0,0.0,0.0,-107.0,0.0,-45.0,0.0,0.0,0.0,34.27253218749016,17.55503396713325,10.459212085567897,9.711776200259823,9.215808217256935,8.594296665976941,7.68878012167857,6.470036345096108,4.9609901838819415,3.390527292137996,2.0373669645619645,1.042803216448241,0.4447621981225561,0.15956900177867114,0.050421921527796565,0.015171868842495573,0.003981234196583924,11.259083971905413,10.819132398752194,10.514199867608564,10.117563419122845,9.503183681873642,8.59354216948392,7.309230430674465,5.730398380780542,4.076055262094612,2.559608992290895,1.3919241108371325,0.6592536527231598,0.28148415243608643,0.11536053063208677,0.0448967152430746
0.0,63.0,63.0,0.0,120.0,0.0,0.0,0.0,0.0,-107.0,0.0,-45.0,0.0,0.0,0.0,34.27253218749016,17.55503396713325,10.459373035191067,9.709902247322857,9.203317659991043,8.556659628291078,7.611379098004768,6.348559771808067,4.805564742394684,3.2291507140365976,1.9021703221484592,0.9526677964370205,0.39779777426726093,0.14036227035115592,0.04404111071251296,0.013341243552323757,0.003549174936429723,11.260912450240987,10.819768868180532,10.508281192901288,10.094731920873475,9.449816855172955,8.498011762872107,7.1658905128831805,5.5509676905135485,3.890605766037708,2.4030010902544365,1.2856141479538565,0.6011589814431406,0.2552604824666753,0.10507320847386534,0.041470300307014804
0.0,64.0,64.0,0.0,120.0,0.0,0.0,0.0,0.0,-107.0,0.0,-45.0,0.0,0.0,0.0,34.27253218749016,17.55503396713325,10.459499711414162,9.706602871351583,9.185657391838253,8.509335484427451,7.520368553118388,6.211226541998345,4.635183740485553,3.0574754607689494,1.762767564738367,0.8627513196699754,0.35246615637895895,0.1223638269501403,0.03819590718928543,0.011686771756321011,0.003161430418380028,11.262605056638709,10.819454871452107,10.499043005528396,10.065297536160987,9.38614540167882,8.388440022962039,7.005959316193475,5.355840893893889,3.6943378129251654,2.2420015901203265,1.179471495481319,0.5446775644286471,0.23029962489733402,0.09541890244204962,0.03827467532113501
0.0,65.0,65.0,0.0,120.0,0.0,0.0,0.0,0.0,-107.0,0.0,-45.0,0.0,0.0,0.0,34.27253218749016,17.55503396713325,10.459586999203854,9.701067438951748,9.161133870124097,8.450273930974996,7.413497751311634,6.055861822753843,4.44838705287247,2.8751686905070732,1.6195935934190209,0.7735899390897487,0.3090406427206629,0.10563764283451499,0.03288481209834284,0.01020188432157703,0.0028155336663201126,11.264152672473669,10.817700821537574,10.485401026731255,10.027806842145276,9.310299953957136,8.262545725821601,6.82721938353396,5.143593619206925,3.4869477027677735,2.0770580553712867,1.0740165147955396,0.49007807927103286,0.20667981309708733,0.08640675106168891,0.03530642582921728
0.0,66.0,66.0,0.0,120.0,0.0,0.0,0.0,0.0,-107.0,0.0,-45.0,0.0,0.0,0.0,34.27253218749016,17.55503396713325,10.459602765184457,9.692090082406162,9.127623533306304,8.377003841592884,7.288045458821117,5.879931173099274,4.24359875130686,2.68201306614847,1.473253496857227,0.6858009583451884,0.2678018585366284,0.09023895657849133,0.02810212207782338,0.008879061679144658,0.0025090092474151925,11.26554325812362,10.813790778579149,10.465998933307468,9.980497832380848,9.219977706523762,8.117552843974597,6.627069110924232,4.912710562295347,3.268264903536648,1.9087777085262756,0.9698413558468716,0.43763980224546306,0.18447412484677145,0.07804251176491041,0.03256125202316669
0.0,67.0,67.0,0.0,120.0,0.0,0.0,0.0,0.0,-107.0,0.0,-45.0,0.0,0.0,0.0,34.27253218749016,17.55503396713325,10.459440283396994,9.67791515197977,9.08246460295185,8.28647208352271,7.1406593343201035,5.680467119118602,4.019164336673333,2.4779726552586427,1.324560322960261,0.6000862641744988,0.22903223057730004,0.07621177881747945,0.02383764022264502,0.007709864188255824,0.0022391909035370194,11.266733910540763,10.80668670435926,10.439132847272964,9.921176311100993,9.11229156787932,7.95007034077735,6.402461346275534,4.661609883981012,3.0383142124906537,1.7379605263488798,0.8676148391106576,0.3876484515659121,0.1637487606123336,0.07032801729588962,0.030033907223207736
0.0,68.0,68.0,0.0,120.0,0.0,0.0,0.0,0.0,-107.0,0.0,-45.0,0.0,0.0,0.0,34.27253218749016,17.55503396713325,10.458862816893852,9.656083199201277,9.02232642364543,8.174832430746456,6.967155609053728,5.453966666809858,3.7734070835133195,2.263286599162536,1.174578322504934,0.5172328380935969,0.19300814706942818,0.06358630277720845,0.020076415072571286,0.006684987254512232,0.0020030735871927846,11.267590511012044,10.794896904752362,10.402617391561556,9.847002679860992,8.983528202060569,7.755921803441694,6.149858398870012,4.388698269230559,2.797399769323486,1.5656370850202856,0.7680837434131835,0.34039105807124576,0.14456093075750642,0.06326069709744167,0.027717899223675693
0.0,69.0,69.0,0.0,120.0,0.0,0.0,0.0,0.0,-107.0,0.0,-45.0,0.0,0.0,0.0,34.27253218749016,17.55503396713325,10.457427071838628,9.623286734241459,8.94302990871938,8.037184460324275,6.76230420137148,5.196274660197836,3.5047003717047853,2.03859801359472,1.0246722895889535,0.43810787222312103,0.1599895639436069,0.052376240884050504,0.016798547241929567,0.005794343210698128,0.0017976159257684062,11.26783234892176,10.776357583296251,10.353614578520393,9.754209425022953,8.828805610687217,7.52987980149404,5.86519548382644,4.092473435589656,2.5462172771280533,1.3931097356834536,0.6720701753649853,0.2961492217647728,0.12695645199592095,0.05683309263804871,0.025605204337629455
0.0,70.0,70.0,0.0,120.0,0.0,0.0,0.0,0.0,-107.0,0.0,-45.0,0.0,0.0,0.0,34.27253218749016,17.55503396713325,10.454272459911326,9.575119284136992,8.839160127155992,7.8671476262123745,6.519575165930696,4.902521766635442,3.211592698347951,1.8051281984893732,0.8765595395618594,0.36364410030261013,0.130207386667902,0.042576012942133444,0.013979142509221524,0.00502717065475979,0.00162014937119702,11.266983784537906,10.748336844436567,10.288415116707881,9.637767002846367,8.641662434168719,7.265283161735233,5.5438383238664155,3.7717006320391304,2.286002547493372,1.2219951528765178,0.5804627073804853,0.25519058617429724,0.11096702551732629,0.05103237997078647,0.023686733438775358
0.0,71.0,71.0,0.0,120.0,0.0,0.0,0.0,0.0,-107.0,0.0,-45.0,0.0,0.0,0.0,34.27253218749016,17.55503396713325,10.447686943585555,9.505569750058056,8.703290204696836,7.656079863912695,6.230705451069842,4.567199386226998,2.893072673603137,1.5648984609602217,0.7323555250354988,0.29481249197212855,0.1038480171206486,0.03415813330046344,0.011588415392087088,0.004372168841279502,0.0014678734193332265,11.264150114419106,10.707134140334032,10.201922563396383,9.49077961095166,8.413532072966166,6.953607444193715,5.180568532985598,3.4257009248026145,2.0187252572211807,1.054262549093417,0.4941994239688966,0.21775776477818903,0.09660727463428187,0.045840007277512786,0.021952572781861805
0.0,72.0,72.0,0.0,120.0,0.0,0.0,0.0,0.0,-107.0,0.0,-45.0,0.0,0.0,0.0,34.27253218749016,17.55503396713325,10.434591394492744,9.406310427981623,8.524925382567512,7.392011349446865,5.884935759438742,4.1843229007990645,2.5490725256503026,1.3210083304713307,0.5945972402922256,0.23257841521913727,0.08103503509969737,0.027071130919903475,0.00959195848889285,0.0038176642461724693,0.0013375727165256578,11.257549258204032,10.64740394348349,10.086615881974593,9.303235055082734,8.132797126922984,6.584105734115263,4.769740070264464,3.054803250967615,1.7473309075057286,0.8922521756925281,0.41424036715337564,0.18405484415387982,0.0838716846694807,0.04123126378495171,0.020391342555066947
0.0,73.0,73.0,0.0,120.0,0.0,0.0,0.0,0.0,-107.0,0.0,-45.0,0.0,0.0,0.0,34.27253218749016,17.55503396713325,10.409715935918989,9.26532174177162,8.288886225133718,7.058449051547691,5.46821120750261,3.7476578221665653,2.1812910706374242,1.0779848710141196,0.4662216751159412,0.17783354652842712,0.06180945310433719,0.02123816518122245,0.007951271158385132,0.003351805127058938,0.0012267919205557018,11.244082322952197,10.561276913520134,9.931222622198211,9.060199531472076,7.782926061196176,6.143348297903117,4.30581408776635,2.6610357853363182,1.4760197046080439,0.738666839727302,0.3415234477379746,0.15423135826341716,0.07273138488897879,0.03717508671286515,0.018990269247910353
0.0,74.0,74.0,0.0,120.0,0.0,0.0,0.0,0.0,-107.0,0.0,-45.0,0.0,0.0,0.0,34.27253218749016,17.55503396713325,10.363783580252893,9.063622032636149,7.971652806054238,6.631916444503575,4.963030342435828,3.251644823323308,1.7944364804641322,0.842162806922592,0.35045321655233946,0.1313009351334483,0.04610971857732948,0.016556993251325213,0.0066245474544733085,0.0029627817075177382,0.0011329861206161047,11.218362109503053,10.436188382688373,9.717994113181259,8.739430329440424,7.340019588317192,5.614576535902115,3.784590881058862,2.249188275167691,1.210528830776593,0.5965026163690256,0.27690155313312875,0.12836372196727105,0.06313115064109809,0.033634047639636185,0.017736376424185272
0.0,75.0,75.0,0.0,120.0,0.0,0.0,0.0,0.0,-107.0,0.0,-45.0,0.0,0.0,0.0,34.27253218749016,17.55503396713325,10.28063839756479,8.769652921532044,7.535962018679283,6.077102236970097,4.348410688047338,2.694199954298396,1.3981081166299074,0.6219468899796251,0.2505404213011775,0.09341191920335673,0.03375496374992148,0.012901804967324518,0.005567759080794165,0.002639071633938338,0.0010536614180777306,11.170767899436731,10.250231801175493,9.416187679188646,8.305222816988431,6.770202243201754,4.9779527801734496,3.2056849149541806,1.8283397923964768,0.9583195846003291,0.46888271976609086,0.22105587285483738,0.10643539014174504,0.0549869442032223,0.030564612272738084,0.016615263670273224
0.0,76.0,76.0,0.0,120.0,0.0,0.0,0.0,0.0,-107.0,0.0,-45.0,0.0,0.0,0.0,34.27253218749016,17.55503396713325,10.129564352822667,8.325691247438364,6.919807592973092,5.342923016631857,3.6014723115715475,2.0824980342396526,1.009500200939068,0.4276220145973745,0.16926562764509231,0.06416505039443766,0.024436702789726747,0.010127541740584788,0.004736044617558486,0.0023697063359392288,0.0009867542691372503,11.08293418417141,9.961757888193226,8.97171234626365,7.6966192418429005,6.024879226502389,4.2141813114206705,2.5774730732657294,1.413757533727569,0.7284470194746757,0.35874257383985847,0.17438709075117229,0.08831732137942462,0.048184572543701114,0.027917898220313264,0.015612808018203717
0.0,77.0,77.0,0.0,120.0,0.0,0.0,0.0,0.0,-107.0,0.0,-45.0,0.0,0.0,0.0,34.27253218749016,17.55503396713325,9.842863928487832,7.617585266515013,6.0121347934052,4.357926820631152,2.7104158762539163,1.4444486154425253,0.6560525429058542,0.2700452328983063,0.1081781060635884,0.04299881793510986,0.017726476708358592,0.00807714569946736,0.004085381406923886,0.0021445595072239637,0.0009305564812627239,10.913171943153506,9.481803174560604,8.274876951557012,6.809755034534484,5.038816485694786,3.3165028635396703,1.9262197976078583,1.0284286012696693,0.53071189806214,0.268319240699283,0.13689188795472237,0.07375298994251268,0.042580441330577305,0.025641019762141122,0.014715096132129934
0.0,78.0,78.0,0.0,120.0,0.0,0.0,0.0,0.0,-107.0,0.0,-45.0,0.0,0.0,0.0,34.27253218749016,17.55503396713325,9.231062825878487,6.385492776380978,4.621658052578368,3.050442212547225,1.716637164138794,0.848667770725051,0.37405656870511106,0.15722932553890415,0.06666303438327567,0.02874549526224313,0.013107891461878254,0.0065915953589198726,0.0035744965315233934,0.0019546660568807665,0.0008837092800106563,10.539166244917167,8.58144660514393,7.088275259140344,5.467321672748966,3.756818020141744,2.325942068484693,1.3087521169905534,0.7017234181218612,0.37349981603046184,0.19845555593253916,0.1080539180231005,0.06235423975035362,0.03800574499263584,0.023679270774934796,0.01390910016292705
