Line_number,Fiducial,Easting,Northing,Height,Elevation,tx_pitch,tx_roll,tx_yaw,txrx_dx,txrx_dy,txrx_dz,rx_pitch,rx_roll,rx_yaw,PX,PZ,S0X_time_1.086e-05,S0X_time_3.256e-05,S0X_time_5.426e-05,S0X_time_8.680e-05,S0X_time_1.411e-04,S0X_time_2.279e-04,S0X_time_3.689e-04,S0X_time_5.860e-04,S0X_time_9.115e-04,S0X_time_1.411e-03,S0X_time_2.192e-03,S0X_time_3.418e-03,S0X_time_5.339e-03,S0X_time_8.301e-03,S0X_time_1.338e-02,S0Z_time_1.086e-05,S0Z_time_3.256e-05,S0Z_time_5.426e-05,S0Z_time_8.680e-05,S0Z_time_1.411e-04,S0Z_time_2.279e-04,S0Z_time_3.689e-04,S0Z_time_5.860e-04,S0Z_time_9.115e-04,S0Z_time_1.411e-03,S0Z_time_2.192e-03,S0Z_time_3.418e-03,S0Z_time_5.339e-03,S0Z_time_8.301e-03,S0Z_time_1.338e-02
0.0,0.0,0.0,0.0,120.0,0.0,0.0,0.0,0.0,-107.0,0.0,-45.0,0.0,0.0,0.0,34.27253218749016,17.55503396713325,4.577550708697464,2.6394600936965222,2.1993212480748188,1.7833237235424488,1.3717866389592879,1.0043336744662816,0.6224914880030186,0.42650117462240295,0.2383192567768495,0.15028846011583993,0.09949327451425612,-0.043230395023410764,0.003567504981941619,0.03673785312217477,0.050039433039171,6.9064518919798665,4.965884892475865,4.290197948939312,3.7497402498498156,3.174501666076243,2.502480944490493,1.8954807836608132,1.3168018729621074,0.8673038042298827,0.5423760037652278,0.3464401385356362,0.22828044261893637,0.12726879207119013,0.07324495601001371,0.04520607069923892
0.0,1.0,1.0,0.0,120.0,0.0,0.0,0.0,0.0,-107.0,0.0,-45.0,0.0,0.0,0.0,34.27253218749016,17.55503396713325,4.584832118200901,2.70805180894767,2.2703245603881568,1.861117313742146,1.4642641054886871,0.9795399487469398,0.6989872331611272,0.47575703780433015,0.33105893955672366,0.16359987345111382,0.1000822237464365,0.055529308224376295,-0.020650882887169812,0.030081026233299245,0.02589631804990211,6.944686760658558,4.877148141404819,4.31024313491334,3.8054479895839086,3.2077248773212985,2.603802483857681,1.9308796898233551,1.3881201025454748,0.9687006627155238,0.5892124257141163,0.37457053953741276,0.21888226224705246,0.10078613194872435,0.02881893280261638,0.05111146392005904
0.0,2.0,2.0,0.0,120.0,0.0,0.0,0.0,0.0,-107.0,0.0,-45.0,0.0,0.0,0.0,34.27253218749016,17.55503396713325,4.568914474807049,2.777287293031509,2.177821013126608,1.9083159019313365,1.402130350407547,1.1531188594406006,0.7582445371658663,0.508650138819607,0.28477778672156745,0.15694864097601866,0.06244223206533353,0.0673455617891778,0.0389077632648771,-0.008439305527217396,0.03888343724493714,6.882963391257293,4.9534896369608,4.299495387171187,3.830937067762747,3.278106431212425,2.6660164668910586,2.0494841051039194,1.4948306798851425,1.0055727095669986,0.6312306742736983,0.3617666303620613,0.23598143338934754,0.12828888579010816,0.05589145236916388,0.04020737717635575
0.0,3.0,3.0,0.0,120.0,0.0,0.0,0.0,0.0,-107.0,0.0,-45.0,0.0,0.0,0.0,34.27253218749016,17.55503396713325,4.559849044896326,2.774842894910344,2.3157849862032767,1.8328887156355518,1.4989309620900524,1.1649761381585264,0.801028429581404,0.47130492512878414,0.2794777177971241,0.14767427576952163,0.14347448359025375,0.055397676630779324,0.0317182835481621,-0.0016078842437395914,0.02598486028326475,6.932649690851699,5.009744693084549,4.38048300243123,3.8147379211904764,3.306971185037291,2.7457970597534853,2.108199514665348,1.5408286252438028,1.0446647329283403,0.6643696087242285,0.39381522514824013,0.23155767339020888,0.09179987476686174,0.08390919874894623,0.0027659290285003066
0.0,4.0,4.0,0.0,120.0,0.0,0.0,0.0,0.0,-107.0,0.0,-45.0,0.0,0.0,0.0,34.27253218749016,17.55503396713325,4.615397894446736,2.733725195760816,2.177194883202131,1.8880509377883954,1.5301735198401263,1.1883593340864191,0.8031335847512822,0.5268596880752955,0.3165222035324013,0.22674415725864214,0.08601679617803937,0.04612821419671914,-0.00899069432198846,0.016280560414434334,0.03370365131360006,6.928577302686818,4.994219170554644,4.397781413509388,3.8941314890465577,3.3380581830347853,2.830328680946799,2.20526228963754,1.6061232461137442,1.1345854415291243,0.6951050409017113,0.4423499628655648,0.25739511986152513,0.12918366191647637,0.07127662092923695,0.004633264735641709
0.0,5.0,5.0,0.0,120.0,0.0,0.0,0.0,0.0,-107.0,0.0,-45.0,0.0,0.0,0.0,34.27253218749016,17.55503396713325,4.593505484106548,2.7552008758108273,2.296929662079499,1.971837731786702,1.5252644898101408,1.181441029108645,0.9272092372966962,0.49769080992206205,0.3397161405555566,0.1936685384270818,0.07667041165072531,0.03179310877293351,0.012260700845412406,-0.024061316757970165,0.03004445440837588,6.948227392055578,4.9973222878885455,4.3822626029404645,3.9049437705757986,3.3899929643419937,2.833326965222005,2.22397801625477,1.6439341571997914,1.1545575349739838,0.7240193596197563,0.4081294298029783,0.24128477924497918,0.14091064538245324,0.04683251502156661,0.07225103422232698
0.0,6.0,6.0,0.0,120.0,0.0,0.0,0.0,0.0,-107.0,0.0,-45.0,0.0,0.0,0.0,34.27253218749016,17.55503396713325,4.572166262134726,2.894253382948064,2.326720213642004,1.9297822667787814,1.5149628283156213,1.1940214781546095,0.9057585903862837,0.6126608277278558,0.408112198948039,0.17829030994958606,0.02857924088452557,-0.020196348365780895,-0.008149096654086526,-0.006009204695177399,-0.015387675334310331,6.9863447900737885,5.091048914044194,4.421492820030624,3.934745746720008,3.3698017686824073,2.861441564471581,2.242509149256752,1.677604297080668,1.2140519286817448,0.7761129129066527,0.48780922636464213,0.22831155513542867,0.15483724045069552,0.04949626378616072,0.0175421763933604
0.0,7.0,7.0,0.0,120.0,0.0,0.0,0.0,0.0,-107.0,0.0,-45.0,0.0,0.0,0.0,34.27253218749016,17.55503396713325,4.5921716080542385,2.7232499891013977,2.3413644122808157,1.93638062001671,1.6029176155223723,1.2438481263504655,0.9370714826128073,0.5682036571641286,0.43385389057718143,0.14817216143532375,0.1508114413660817,0.017204580348005247,0.0026395273581706,0.038309713976881564,-0.032608686333193505,6.911218941046294,5.047828875041835,4.450066623533541,3.9771216901726687,3.454806079101674,2.8687434497360003,2.3083244050546767,1.727907209472812,1.2323542694664764,0.8191016306455192,0.5210476378630157,0.3003247362315275,0.11316720967756723,0.0512911061748525,0.03437127112068391
0.0,8.0,8.0,0.0,120.0,0.0,0.0,0.0,0.0,-107.0,0.0,-45.0,0.0,0.0,0.0,34.27253218749016,17.55503396713325,4.703232433748019,2.794867824133564,2.4049136680225303,1.972600020301585,1.607097318281208,1.191271241039661,0.9317253460407534,0.6373147356070173,0.3911922907157328,0.20685960495148464,0.11704150797457999,0.04484881561754533,0.08195332243674325,0.026293709163788682,0.043531025693572555,6.978527598064964,5.060015266140029,4.473442970429545,3.991147218408319,3.429353103471082,2.919192270807026,2.346037401362059,1.7554991662614061,1.2384175237703987,0.8207509166682306,0.47782228286104667,0.2605550391403675,0.1689729100547392,0.08200242964066183,0.03223618921750183
0.0,9.0,9.0,0.0,120.0,0.0,0.0,0.0,0.0,-107.0,0.0,-45.0,0.0,0.0,0.0,34.27253218749016,17.55503396713325,4.598234814942969,2.8255862038880535,2.3984489940138505,1.9832981131170757,1.6384151510731804,1.2715369052466508,0.9230979149512568,0.7071245303958366,0.3118338552496582,0.21577354204394428,0.1124397160922366,0.0560692416138945,0.007349983751685506,0.03963349955232053,0.010610920474474303,7.0004812045628455,5.1084964131691155,4.555684388852374,4.007061912934584,3.4844500141399544,2.8877455212359067,2.3263105995302555,1.778343130730838,1.2792037654640214,0.8578185828997605,0.5523638198930211,0.31660762403413256,0.1371710479167753,0.07836702896686286,0.04843007406680284
0.0,10.0,10.0,0.0,120.0,0.0,0.0,0.0,0.0,-107.0,0.0,-45.0,0.0,0.0,0.0,34.27253218749016,17.55503396713325,4.636099001546997,2.8722664993513414,2.2973165552420802,2.1009637552685714,1.7015528996399327,1.2468131050844167,0.8658749502535283,0.55743329953107,0.43790008722309764,0.2075326212317945,0.1424725695454945,0.03848231275779683,0.04182675737804295,-0.0036094309998398865,-0.03239815683977078,6.999928749766887,5.087247171592326,4.519163212880043,4.043408605508927,3.517156834227839,2.9145134958156067,2.3818304909640506,1.7940539232819606,1.3492304289470793,0.9176884738526976,0.5624011040263827,0.30926470051928184,0.15339059584719208,0.051327089849937724,0.06557768773648957
0.0,11.0,11.0,0.0,120.0,0.0,0.0,0.0,0.0,-107.0,0.0,-45.0,0.0,0.0,0.0,34.27253218749016,17.55503396713325,4.623494183718056,2.854186038815652,2.3655913386173353,2.022121152178259,1.5946567545021813,1.2971475580108531,0.9935683567617749,0.6874991344123116,0.3840490401274253,0.23760689920574635,0.13038922948478915,0.01999249404219222,0.004385738886020372,-0.009131979560618111,-0.021501171166786546,6.99889889879444,5.181288692893249,4.574599334714623,4.0732414399390535,3.493809096929419,2.9591402131087388,2.399316410731165,1.8665403341025386,1.3899774321506206,0.9354689730617392,0.5968940608466512,0.3105334541519461,0.17139660648759683,0.08873348691175176,0.04967604899840826
0.0,12.0,12.0,0.0,120.0,0.0,0.0,0.0,0.0,-107.0,0.0,-45.0,0.0,0.0,0.0,34.27253218749016,17.55503396713325,4.641356460643024,2.9506350273495805,2.429921045337458,2.0504926756309176,1.6309229691697198,1.3341663129103862,0.9118478296499146,0.682853783792624,0.4288308490106573,0.2533040269388072,0.1152285513180592,0.1309527959207562,0.07390180318551998,-0.0294134234907273,0.011475461876791397,6.989349911049874,5.221909032145483,4.633519316727947,4.112832523619603,3.578250820726553,2.963745260922175,2.4094745657678978,1.8742452536544325,1.4013880655115472,0.9266515244360285,0.6110859606665509,0.30978025674001336,0.15728697069268255,0.10723619781738669,0.041252024620699906
0.0,13.0,13.0,0.0,120.0,0.0,0.0,0.0,0.0,-107.0,0.0,-45.0,0.0,0.0,0.0,34.27253218749016,17.55503396713325,4.656186377941122,2.991490915188813,2.5011845509995734,2.0806762693449685,1.737908223108459,1.2866284183771861,0.9037467555675966,0.6516219268947046,0.4498289036845839,0.25262540938898326,0.14590632682945628,0.1249284052125099,-0.0067367444990753846,-0.0014846148294070452,0.025981312981597608,7.006392770330765,5.2410265828347455,4.669339885745858,4.179708529480835,3.563417383162256,2.9950105419715114,2.446936430842677,1.9053850248123672,1.3815232629759087,0.9765903681962859,0.6171816411877458,0.3683300491339256,0.2330477183898362,0.1252586655727573,0.053596998478441085
0.0,14.0,14.0,0.0,120.0,0.0,0.0,0.0,0.0,-107.0,0.0,-45.0,0.0,0.0,0.0,34.27253218749016,17.55503396713325,4.617488136949552,2.955202082686573,2.440482179817854,2.1434906766947055,1.7050844416606914,1.324420695163012,0.9252693088140952,0.6131833620049044,0.4166662560579288,0.21947107037134045,0.17711829677032662,0.07219315736660784,-0.023247940705894494,0.0015007680353357738,0.03359514229619909,7.032033316742126,5.214287358485814,4.680165301851849,4.159529027176891,3.579039963724583,3.033045730155349,2.4431614630394005,1.878350616880192,1.388917645419919,0.9830416757889182,0.5747470533133965,0.3905249630735501,0.16107455149164274,0.12287661316540915,0.014758377355012682
0.0,15.0,15.0,0.0,120.0,0.0,0.0,0.0,0.0,-107.0,0.0,-45.0,0.0,0.0,0.0,34.27253218749016,17.55503396713325,4.685910497030297,3.0170334641475556,2.495279401774689,2.1574598072608544,1.7106853896581418,1.2748735964396363,0.9748903334265769,0.6008747907378769,0.39849584129197146,0.28260939111255734,0.1339349669728972,0.10901217372717678,-0.0048710970444653424,0.005094287542598142,-0.0344365124187891,7.003758262490223,5.29206781209852,4.6823787611661984,4.203744467355507,3.633550055430473,3.0389063699292245,2.4979777515996866,1.9210265312452486,1.410863667129502,0.9928853345425583,0.6004731133718956,0.3616009206956216,0.19946910973818738,0.10508227254663229,0.00952287845456827
0.0,16.0,16.0,0.0,120.0,0.0,0.0,0.0,0.0,-107.0,0.0,-45.0,0.0,0.0,0.0,34.27253218749016,17.55503396713325,4.730914197742137,3.023800090756209,2.541909673289496,2.1871780258621847,1.7385472032585456,1.3230057939150286,0.9774887396947107,0.7611665517960102,0.5133513212868235,0.3346199643896182,0.15325260843768967,0.07124636048726116,0.03601196175959584,0.014311460675861,0.002661827522673429,7.013782099802225,5.284554397812462,4.755296218313196,4.188988631599187,3.643341614591746,3.0475037997294168,2.4814627563466174,1.9249254634659438,1.4219739372970317,1.0038983755925945,0.6678133708811189,0.3724668922934166,0.21773490553953917,0.12153539484218438,0.0723791004960657
0.0,17.0,17.0,0.0,120.0,0.0,0.0,0.0,0.0,-107.0,0.0,-45.0,0.0,0.0,0.0,34.27253218749016,17.55503396713325,4.69673675202456,3.067810641825061,2.550178225565708,2.1551052861997837,1.7777390944366949,1.349564806049914,1.0667155124061507,0.6870549684664434,0.42054873895311834,0.24675745820655826,0.15383987915188532,0.058659734042529346,0.0076797045159586776,-0.020426116914035133,0.028776279453772403,7.04194403436141,5.344459743588964,4.772596458056208,4.263359622765785,3.693298114506395,3.101768859523701,2.48652782130643,1.9473094705750449,1.4812341099305657,1.0458189206158877,0.7183069716120084,0.3978014515448776,0.20341958558969353,0.09153683003851108,0.02349340814570521
0.0,18.0,18.0,0.0,120.0,0.0,0.0,0.0,0.0,-107.0,0.0,-45.0,0.0,0.0,0.0,34.27253218749016,17.55503396713325,4.730212266493033,3.0888399917657754,2.5845643058671826,2.16070040138906,1.8362656527560313,1.3321785666670989,1.0328428787628743,0.6976555740108795,0.4528410549476683,0.29075614424550955,0.15661025895262584,0.04733923902482086,-0.014491081484211021,-0.008387488158448706,-0.05229719899257948,7.012190219037062,5.3585339415862405,4.740158653870409,4.258764587376691,3.701093692716667,3.139981879087093,2.525250804617569,1.9697429965829094,1.4689864448051853,1.049528058791234,0.7301042703120402,0.3831905870632257,0.25745189888826736,0.11705647888672688,0.07890590036577474
0.0,19.0,19.0,0.0,120.0,0.0,0.0,0.0,0.0,-107.0,0.0,-45.0,0.0,0.0,0.0,34.27253218749016,17.55503396713325,4.71665812350863,3.1284136517847756,2.6695662934168163,2.2056131530835317,1.8216770792983936,1.3907321820342062,1.0048905520305242,0.7111034107919368,0.4156648028400494,0.3687979678545282,0.1554848819077509,0.10702091381359877,0.10599616477065432,0.09608969183707679,0.05149764083227865,7.0203077787051,5.448390804489166,4.753140755410096,4.287786896081633,3.750596844623082,3.1179459978841146,2.5602725021535964,1.9450565892474516,1.5120166322255864,1.0443896647925677,0.6970088671431213,0.39437914157966647,0.24424673010701597,0.13265374276484476,0.03726474075371331
0.0,20.0,20.0,0.0,120.0,0.0,0.0,0.0,0.0,-107.0,0.0,-45.0,0.0,0.0,0.0,34.27253218749016,17.55503396713325,4.716546947392868,3.1403030413595703,2.737261392493091,2.308983903481035,1.8404411900888829,1.438277404300809,1.039753852546298,0.7440565201318906,0.4970681231947025,0.23738119891760268,0.18722566209031088,0.020896169737127865,0.028015097985632405,0.02430510608162765,-0.012054317742716402,7.072014140274219,5.451330675601934,4.871049038600053,4.345048408955975,3.7561653065103506,3.1753566080695075,2.547953936871102,1.9517365270848392,1.469468435439965,1.0949481542089678,0.6808453274344237,0.4117742643292502,0.2589652100526584,0.1103814006783247,0.08180547610810163
0.0,21.0,21.0,0.0,120.0,0.0,0.0,0.0,0.0,-107.0,0.0,-45.0,0.0,0.0,0.0,34.27253218749016,17.55503396713325,4.744089997130707,3.198324353293194,2.8211104162907428,2.2302380657268372,1.846413624736354,1.3841057403791712,1.02102618964096,0.6842286509096842,0.4593563113488137,0.291274525312783,0.15390389727350764,0.037308072402476106,0.020891888182425447,0.004164997053205201,-0.01024557020346761,7.071451410576989,5.462256909197378,4.909744293904031,4.321207020347834,3.7748298138048124,3.196285775625468,2.594990266278325,1.9718146110740737,1.5210847872905826,1.085538017454514,0.7025731961296109,0.4444974186087457,0.2527885798449454,0.11099941859321144,0.022242969900509904
0.0,22.0,22.0,0.0,120.0,0.0,0.0,0.0,0.0,-107.0,0.0,-45.0,0.0,0.0,0.0,34.27253218749016,17.55503396713325,4.774558952697341,3.2590476259102816,2.655087187044128,2.3383855806800105,1.873546366439909,1.433247278820658,0.9984029422243633,0.735061223399288,0.4543220397918027,0.38526444848226166,0.17673183528480385,0.1223385069966286,0.02596586481576551,0.02858793212394542,0.0004557363259247958,7.115504870655245,5.494063924187232,4.927300501569207,4.4308242095587955,3.7796321157604185,3.193677784622872,2.5937208461902896,2.028253715354976,1.5027318395022484,1.0835154393909703,0.6953023319905678,0.4380038733390621,0.2232001655497069,0.1433645439381267,0.0900319165142648
0.0,23.0,23.0,0.0,120.0,0.0,0.0,0.0,0.0,-107.0,0.0,-45.0,0.0,0.0,0.0,34.27253218749016,17.55503396713325,4.77031686627757,3.2047315694763108,2.7586107683521823,2.2652857365524897,1.8863135013720873,1.4117345984066696,1.0903945761208313,0.8118584277122061,0.44614840413732926,0.2576144600099031,0.11213526002216931,0.02977382790522043,0.04500074159575613,0.08053433073652874,0.03121018271474521,7.109368426167221,5.522581774798722,4.965164554920817,4.478717974833096,3.856518965833772,3.2085058903815447,2.6346040304025453,2.0058504224083897,1.4938386194351057,1.063911939239202,0.7164078983667774,0.4262445153408286,0.26281380032691093,0.11849480699993145,0.09560256733681124
0.0,24.0,24.0,0.0,120.0,0.0,0.0,0.0,0.0,-107.0,0.0,-45.0,0.0,0.0,0.0,34.27253218749016,17.55503396713325,4.806924506720171,3.278243674627239,2.832481512684461,2.3748814444015203,1.862209113956336,1.4520045628555,1.0842335067364637,0.7643567239170186,0.5134236907690921,0.35606774098972865,0.18503581096826083,0.1330624402312806,0.01301651551364888,0.05496207265068451,0.04376510550701135,7.178020025367983,5.606693524025756,5.006392890406929,4.497578959458391,3.8616377676961298,3.306281254049826,2.5950132149007796,2.01446054793042,1.5279623309272385,1.1191121256325545,0.6829829802722727,0.45606361612386714,0.25474254138759655,0.1311182088673172,0.06733337784151378
0.0,25.0,25.0,0.0,120.0,0.0,0.0,0.0,0.0,-107.0,0.0,-45.0,0.0,0.0,0.0,34.27253218749016,17.55503396713325,4.773538809312252,3.34079266551053,2.804769945411491,2.4064410528897815,1.9225236681301814,1.4465390854792333,1.076580179198864,0.7255506237352493,0.4965632596986728,0.34454167047245904,0.19490669084524959,0.10318465660524638,0.012684323388830666,0.04775481862662172,0.011687461001553313,7.103318514790514,5.601256755628127,5.009759373833765,4.476059690069941,3.888676930352856,3.294608246269024,2.6303047302854363,2.0841029701754192,1.4975736484081883,1.1161532401861638,0.7061974669793752,0.483289263933434,0.23846053428401612,0.13832533361024182,0.04754808655376995
0.0,26.0,26.0,0.0,120.0,0.0,0.0,0.0,0.0,-107.0,0.0,-45.0,0.0,0.0,0.0,34.27253218749016,17.55503396713325,4.818834412863009,3.3552014183311436,2.8436350454088464,2.416215459586686,1.9179465862320477,1.604605843344474,1.0817684878127967,0.7956453872876701,0.602437506204887,0.3205304134567748,0.19862104510613038,0.10416353802115912,0.0817232754617318,0.055925441458983455,-0.026186188780629987,7.179899646761764,5.6439477188293345,5.083132757712698,4.571403319979589,3.9092019943406164,3.3256535582018563,2.6620840804650006,2.0800084297655026,1.5651687451238907,1.1070094271816289,0.7739468817103584,0.4826825390580119,0.25018012643583665,0.1505801216909094,0.06911902368621849
0.0,27.0,27.0,0.0,120.0,0.0,0.0,0.0,0.0,-107.0,0.0,-45.0,0.0,0.0,0.0,34.27253218749016,17.55503396713325,4.808494136365252,3.4554409816553773,2.8082789902882226,2.4680674665613127,2.0384155673077204,1.5213415720906138,1.0877717260099025,0.7453821832121268,0.5082150412200073,0.2814800811807829,0.13031275302829892,0.1464368890991653,0.03645210184406522,0.020537915645826497,-0.022030103994128136,7.188210454956104,5.652093668889668,5.118778766391155,4.613302689829908,3.9587725549077706,3.320185364135934,2.673602151555996,2.0856718265869207,1.5291841287168955,1.107924726382879,0.7394607908879166,0.45470916778077847,0.2772995855939914,0.14167478052095903,0.03464032631008211
0.0,28.0,28.0,0.0,120.0,0.0,0.0,0.0,0.0,-107.0,0.0,-45.0,0.0,0.0,0.0,34.27253218749016,17.55503396713325,4.944455508513821,3.4249818515752897,2.8802258022767733,2.390251260800383,1.9671907320744362,1.5642819067284939,1.0912513667643629,0.7700526127417934,0.4655582640639574,0.2814942332491012,0.1881089738362264,0.03362847309745125,0.03932333515506751,-0.02329800849953073,-0.033497413386063886,7.1648313831242625,5.757662702151212,5.132675907057679,4.611258024258002,3.987614463519652,3.3700897527868205,2.689967048144294,2.095122607374542,1.5801663400327957,1.1461977398698735,0.7707160699897,0.4749443143297464,0.26726080593933177,0.12299727773568016,0.0677440283091261
0.0,29.0,29.0,0.0,120.0,0.0,0.0,0.0,0.0,-107.0,0.0,-45.0,0.0,0.0,0.0,34.27253218749016,17.55503396713325,4.946132800551974,3.4776818749432428,2.9219363609120226,2.5044732756924173,1.9799279524045892,1.5429427050416686,1.0802529814613386,0.7924404253983002,0.5324639675411383,0.32380152125212464,0.27373210431483014,0.06322613803860394,0.02885612315280185,0.05976953145822961,-0.025013307094534473,7.289266954252617,5.728316983420904,5.225382381006116,4.60905880835945,4.029930450665904,3.4035640086874714,2.7334774686354213,2.089166202767566,1.550394598340491,1.1565998842336829,0.7314443202928693,0.5282835523720579,0.32089398450077083,0.15140866146384555,0.07690570044272577
0.0,30.0,30.0,0.0,120.0,0.0,0.0,0.0,0.0,-107.0,0.0,-45.0,0.0,0.0,0.0,34.27253218749016,17.55503396713325,4.9383143396147196,3.5056527772206048,3.07581692379955,2.5127566616972428,2.047178586604328,1.509216098035365,1.133618717911958,0.8051094361784426,0.5062182170682122,0.32168428193920684,0.17450346353606597,0.04280100442947726,0.07425305262661504,-0.03956343020896549,-0.012646552234588396,7.1969095058803445,5.770387129635304,5.215585307824554,4.665576937087945,4.055376290588068,3.380517438953283,2.699627626922157,2.1361541511670805,1.597275204523317,1.1442508588527245,0.7517595075402979,0.4632502794228838,0.2644309015885815,0.1599988240378352,0.055923975551815226
0.0,31.0,31.0,0.0,120.0,0.0,0.0,0.0,0.0,-107.0,0.0,-45.0,0.0,0.0,0.0,34.27253218749016,17.55503396713325,4.9020308581306775,3.516634585922998,2.9316862858913204,2.575488487161631,2.065875315310916,1.541867137859167,1.1853192748534331,0.7686031136280888,0.5187224294903284,0.33313596814049123,0.2416362712554928,0.11429943043084,0.04749721115555178,-0.025403806026490606,-0.05567972822582921,7.269599338318578,5.83137257948195,5.269068175843827,4.718804010086255,4.069490653838465,3.4063195428766275,2.7849555256178813,2.1653959345242604,1.6422504980459933,1.1652479466300507,0.7874744686681661,0.47922151014099623,0.2933856730363995,0.14291705820725092,0.07058950940830047
0.0,32.0,32.0,0.0,120.0,0.0,0.0,0.0,0.0,-107.0,0.0,-45.0,0.0,0.0,0.0,34.27253218749016,17.55503396713325,4.936994443654648,3.5665920237468263,3.0451231775743786,2.5109754522655017,2.1378407257364604,1.5857208970749985,1.2011230396304984,0.7662765355604994,0.5570696109711015,0.33574328313352064,0.1375638298888221,0.12518562430207514,0.03330016449336253,-0.016878176058610483,-0.017904491728923163,7.253396376406581,5.882951178669237,5.2992938035561865,4.7588238864415,4.119628817014639,3.4690071957744553,2.8136881386611727,2.1565926230112487,1.5661408179037881,1.1663244776580728,0.8005655718255705,0.5074031164604983,0.2639884814734365,0.12738336703695413,0.0854689408501406
0.0,33.0,33.0,0.0,120.0,0.0,0.0,0.0,0.0,-107.0,0.0,-45.0,0.0,0.0,0.0,34.27253218749016,17.55503396713325,5.029435165639732,3.568802506061165,3.1436495649125797,2.6000762590306987,2.058082662621713,1.7003068129479668,1.168313843800238,0.8330679058206136,0.5219106787169723,0.40633481206462135,0.1444895542834043,0.16059686613607152,0.0818019407004246,0.08055500363928762,0.047371337725409884,7.342441913228428,5.965422703431202,5.376350062135639,4.787113488472971,4.162326452003001,3.5098233419445144,2.7917774351649136,2.150168442208938,1.581703403265516,1.189935097369479,0.8011205806504134,0.49386429482623395,0.2901567415259309,0.12404356014548515,0.0730293146119523
0.0,34.0,34.0,0.0,120.0,0.0,0.0,0.0,0.0,-107.0,0.0,-45.0,0.0,0.0,0.0,34.27253218749016,17.55503396713325,4.98182315412969,3.719020502143773,3.2175770012557754,2.6395591368522315,2.1134482440738798,1.6197525286371488,1.1865353321899204,0.8394760139320313,0.5392719468441382,0.3674716431913753,0.18603239723116866,0.07774877145695185,0.044100919463278945,0.08116842690211581,-0.027797025767569553,7.323288536587434,5.987835975006344,5.386273990197224,4.880927238259432,4.185836371991692,3.524103266496396,2.8141136580356383,2.231023861981051,1.6357494871804537,1.1669668134229028,0.7852450782128148,0.5104713887098363,0.3059941879926978,0.14728130833384853,0.05004581998368714
0.0,35.0,35.0,0.0,120.0,0.0,0.0,0.0,0.0,-107.0,0.0,-45.0,0.0,0.0,0.0,34.27253218749016,17.55503396713325,5.016758517651777,3.725209278933626,3.179649646049954,2.706171501178765,2.161489225006634,1.6169811329926418,1.2179067544889526,0.8808429362391376,0.5934311222199262,0.38090324480304527,0.19160861344941893,0.06045556162229707,0.04733872437253191,0.0020867794765612423,0.002319190869404672,7.301238420237719,6.007011994602715,5.411238567732298,4.8543272677314535,4.207553628866822,3.489535003830878,2.8314139509342855,2.187839056657332,1.652624573181215,1.162391828272876,0.7886497945598973,0.4688038717791717,0.36059894712532026,0.15697705917183044,0.06159987973427888
0.0,36.0,36.0,0.0,120.0,0.0,0.0,0.0,0.0,-107.0,0.0,-45.0,0.0,0.0,0.0,34.27253218749016,17.55503396713325,5.061053403765992,3.7240260945628,3.1473739960166958,2.699942128150835,2.188923417705953,1.6778341589003336,1.232694578550613,0.8670125477223511,0.5957644171055949,0.35285676817809086,0.21922941031103105,0.11807333157881449,0.06769310719143806,0.10144762587819914,0.024298799010652433,7.405066223278522,6.052947858614174,5.473401047728214,4.8771558511164415,4.221237232853349,3.596150117394293,2.844833540878596,2.223484680088605,1.6238791129624155,1.1530995998711169,0.789349227426688,0.510964908610548,0.32203991031785095,0.16952678542034438,0.07975630140461107
0.0,37.0,37.0,0.0,120.0,0.0,0.0,0.0,0.0,-107.0,0.0,-45.0,0.0,0.0,0.0,34.27253218749016,17.55503396713325,5.128455435957157,3.8300230192403917,3.2911681148671406,2.7436220052834783,2.223076534893223,1.6412234965727006,1.2676637376691753,0.80664518467314,0.5209058682786953,0.35556060183292576,0.25486241314183267,0.143887852270852,0.08609469365790179,-0.005156486695617905,0.09855377380419937,7.425274238180653,6.034357806263263,5.471309294144055,4.954299281185318,4.223165143918548,3.5639274175345377,2.864324541077611,2.1949052590011795,1.6620484354253666,1.1866865064297831,0.8045181041106844,0.49442753187824684,0.3020812868813829,0.1838530734836642,0.07497522724781035
0.0,38.0,38.0,0.0,120.0,0.0,0.0,0.0,0.0,-107.0,0.0,-45.0,0.0,0.0,0.0,34.27253218749016,17.55503396713325,5.228078075458618,3.8328304340208104,3.3228781162988312,2.756885617395292,2.246047784262018,1.6021079180225493,1.3316894846823606,0.7915151256110424,0.5687269590059996,0.4008520093574631,0.20327708744705758,0.051733063087794254,0.027432345734735367,0.04963754841401566,0.007670575700096296,7.428751860810989,6.212230529572835,5.599297390027821,4.981660146685409,4.281052531951513,3.5908286423059717,2.8804421410489165,2.234467646999626,1.647260729478575,1.209171681899623,0.7610663163966253,0.5279226035435942,0.30037025598897454,0.1662981895191535,0.08588084456905168
0.0,39.0,39.0,0.0,120.0,0.0,0.0,0.0,0.0,-107.0,0.0,-45.0,0.0,0.0,0.0,34.27253218749016,17.55503396713325,5.161598738583511,3.95345503190595,3.3030933769076367,2.8327924478030364,2.261204281784503,1.6671914944569108,1.26418806801255,0.8255612814894366,0.593981385578748,0.38741475521490215,0.18460416678597522,0.11019205298044717,0.08427680117144178,0.027151467485856468,0.01352066312726545,7.456338158171394,6.191802179729216,5.6353482142411355,5.022229723327967,4.337771089745737,3.6136402793306495,2.8974782443878246,2.2476859119108803,1.71183446830233,1.205615546447497,0.843718558392127,0.5166214927703637,0.3214433915422966,0.1634862451095919,0.03932124685078806
0.0,40.0,40.0,0.0,120.0,0.0,0.0,0.0,0.0,-107.0,0.0,-45.0,0.0,0.0,0.0,34.27253218749016,17.55503396713325,5.2026661313893765,3.9322949729233723,3.3966703675841323,2.8503636622704716,2.2456215482864867,1.7774319961766394,1.3402529485215735,0.8893649953748716,0.5212779759679737,0.3957062694570451,0.21220823340094394,0.1202838369621285,0.10581356300741675,0.0008586011215567062,0.046047165081394954,7.499353295347441,6.219486460833768,5.681747905318346,5.051098968556114,4.4157841725843365,3.6779621958785653,2.9412357427542637,2.2614172258175134,1.697061623148457,1.1789825802317584,0.8179646562215762,0.50992004065763,0.3342639099575302,0.1550231007885931,0.08776172516981984
0.0,41.0,41.0,0.0,120.0,0.0,0.0,0.0,0.0,-107.0,0.0,-45.0,0.0,0.0,0.0,34.27253218749016,17.55503396713325,5.310548814491616,4.057713177118341,3.4453158752784465,2.831744570923389,2.2822276255019864,1.8102177101112618,1.2854454216136642,0.8633071553851532,0.5659540576024574,0.36666514736116734,0.24166739963205427,0.11614501312130475,0.03764758362464095,0.08054549287356233,0.017598010029778555,7.584014628806412,6.280676447581484,5.691220655263099,5.076373484017033,4.38750655265645,3.7109524672464183,2.970847963436085,2.2690804838279575,1.7000959524025199,1.1721444380270862,0.8263853796107051,0.5006440342840831,0.34183163335111366,0.1868576110123522,0.08267721680280142
0.0,42.0,42.0,0.0,120.0,0.0,0.0,0.0,0.0,-107.0,0.0,-45.0,0.0,0.0,0.0,34.27253218749016,17.55503396713325,5.325951158797768,3.998680582931364,3.529884794402376,2.88130912130795,2.323469260823646,1.7997710817761872,1.2239880599092055,0.8518722495777632,0.6161802528114141,0.38345137809646473,0.2269218857657397,0.07245087476689388,0.015549641353366013,0.09252519993580025,0.03250112986424901,7.605702601945037,6.329834726403973,5.743989166526788,5.093457683159576,4.429480036119344,3.7311135234764814,2.951642984604079,2.295518142892592,1.6773873593094288,1.212263197696775,0.8145787258830478,0.5440817223602751,0.3173081590294727,0.20352551762480883,0.10594644745786119
0.0,43.0,43.0,0.0,120.0,0.0,0.0,0.0,0.0,-107.0,0.0,-45.0,0.0,0.0,0.0,34.27253218749016,17.55503396713325,5.409801999910919,4.021088972885401,3.507095733377514,2.9223041483519343,2.401144390731037,1.8046166894974585,1.3515276839821253,0.8942022025624068,0.6107814722054427,0.35227623785239304,0.19229328806455265,0.1310984102766103,0.08212568694521698,0.05502567879573865,0.013077799500722947,7.575560157181679,6.2977546315978135,5.7275922254804525,5.188585709056155,4.537407303891966,3.756357675240035,2.980721451299116,2.3257863649386774,1.687791784062729,1.2126060952889361,0.8030290144323887,0.5318630415706866,0.2994020928055144,0.1518042991786952,0.09003705807762404
0.0,44.0,44.0,0.0,120.0,0.0,0.0,0.0,0.0,-107.0,0.0,-45.0,0.0,0.0,0.0,34.27253218749016,17.55503396713325,5.358911358351003,4.133980583830748,3.5432576787332617,2.998923639240406,2.3210659176108623,1.7917550383652576,1.3772792079924434,0.8818772349793659,0.5950701429377924,0.3993451458909495,0.282493861632538,0.09402342676212568,0.09138880526567733,-0.04796552854012337,-0.05274689381802939,7.635147475953122,6.455608282418515,5.825658193785215,5.210201439552089,4.479096485707175,3.773347087559109,3.0009732830667977,2.348691360890678,1.7417233030126034,1.2815725561545943,0.8506800481133464,0.5376379073245935,0.328437943680082,0.16738403422830214,0.10982379013021298
0.0,45.0,45.0,0.0,120.0,0.0,0.0,0.0,0.0,-107.0,0.0,-45.0,0.0,0.0,0.0,34.27253218749016,17.55503396713325,5.471736300469868,4.119950450072239,3.536951023587931,2.9934915974176146,2.4724656404507757,1.837069178327103,1.362347121309938,0.8750713393118196,0.608012671282169,0.36383221403415156,0.19916951946465017,0.15954937448112305,0.09095846935387186,-0.034795067308284425,-0.025746486577559825,7.7127120003175405,6.484010453128785,5.892716139890625,5.283846111602563,4.58716675055236,3.8224627060699063,3.0267411740577264,2.3722200972732304,1.7298227071362071,1.2425065800759652,0.8292929896795741,0.5291923623624696,0.34461461037124785,0.19562483161368013,0.0681458618923518
0.0,46.0,46.0,0.0,120.0,0.0,0.0,0.0,0.0,-107.0,0.0,-45.0,0.0,0.0,0.0,34.27253218749016,17.55503396713325,5.521694782328509,4.287619764415842,3.5746694974593884,3.0443757441569517,2.3517493332869708,1.8487679670526413,1.3011567679016809,0.9189586762495557,0.6343904698342493,0.3915010979802453,0.2341359096250809,0.13784278094164118,-0.02979735495817322,0.010855353495523558,-0.049277191728578605,7.7372162838232805,6.520388503137365,5.932087860193569,5.284249480646183,4.593806917933026,3.8161255877655678,3.0393347791907663,2.393655889447749,1.7666707051200283,1.2857099193983572,0.8473487310068508,0.5060922927442922,0.3166901037569979,0.19844715331924723,0.09487912762404134
0.0,47.0,47.0,0.0,120.0,0.0,0.0,0.0,0.0,-107.0,0.0,-45.0,0.0,0.0,0.0,34.27253218749016,17.55503396713325,5.590583888166668,4.219840270409367,3.6588797734963214,3.105469550734401,2.5253965836394445,1.9111580820776874,1.352892679192883,0.9673388429890779,0.621281701099669,0.4178776107899711,0.16614157224142598,0.1207195074224499,0.08790313297034422,0.03885728608809467,0.08812943966908553,7.7931237778945155,6.5944596575797965,5.989414521586404,5.345037714935394,4.646747332158771,3.875007265960066,3.0921996841778676,2.387193207977408,1.7453030996055985,1.2299474183639447,0.8398747524344108,0.5463753267860629,0.33325880997065915,0.19205311009158363,0.09933496109765597
0.0,48.0,48.0,0.0,120.0,0.0,0.0,0.0,0.0,-107.0,0.0,-45.0,0.0,0.0,0.0,34.27253218749016,17.55503396713325,5.648471767684085,4.310394313053863,3.7489696868103763,3.1937641492109345,2.5149413708198023,1.9248356064257215,1.3976822884950189,0.9174501582297468,0.6040319720379591,0.3481128770283303,0.22049715906956538,0.15737251052546164,0.07003035794638864,0.02541343274928868,0.00614029109618048,7.856023130658564,6.605463597638849,6.025755577050719,5.403628179274456,4.614546437596988,3.8679342727204435,3.1650737931809116,2.399085451045728,1.7769296308549432,1.2594351990723398,0.8384855287733953,0.5580900478778522,0.3259498379326214,0.1619619831617578,0.06165695018365456
0.0,49.0,49.0,0.0,120.0,0.0,0.0,0.0,0.0,-107.0,0.0,-45.0,0.0,0.0,0.0,34.27253218749016,17.55503396713325,5.727399523805817,4.287371715384297,3.73624983603269,3.187225216662386,2.6040396691067436,1.9914165617086204,1.4075140661765333,0.9157391165814701,0.5965444017031051,0.3701200181860287,0.21346666963960115,0.0911046645757315,0.08038876074650865,0.03508908175614248,-0.004475355730696247,7.882082045244461,6.648583295659078,6.06740909674722,5.431365923514799,4.699601157520592,3.906557486228493,3.1674897221692673,2.3895648360925152,1.7773681482828891,1.2935330075196314,0.8601322818785656,0.5471380916309206,0.26667513634629325,0.1610654556145084,0.1204202285409639
0.0,50.0,50.0,0.0,120.0,0.0,0.0,0.0,0.0,-107.0,0.0,-45.0,0.0,0.0,0.0,34.27253218749016,17.55503396713325,5.702141743826986,4.385218251293826,3.8186698792316105,3.217064269458469,2.559712474795962,1.9308945938379933,1.4542404485539475,0.9856521164185444,0.6247847773419218,0.3511475540599758,0.17223224694865363,0.14687603262244842,0.14409356833896222,0.004940971794198331,0.02311565776008629,7.94513544624807,6.772188029878391,6.116620912640363,5.449736272707328,4.7336925573420165,3.951945466795133,3.1397737305804814,2.40967883560209,1.8116744292502884,1.2762898747661833,0.8508791969636881,0.5186273657937434,0.31211661268432567,0.1516753179750819,0.10624357135042757
0.0,51.0,51.0,0.0,120.0,0.0,0.0,0.0,0.0,-107.0,0.0,-45.0,0.0,0.0,0.0,34.27253218749016,17.55503396713325,5.845749994052587,4.473133026572338,3.8703161036413087,3.2566252258594584,2.6364835157960345,1.9659494997151508,1.4460910905502753,0.9309597962237938,0.6189488308685354,0.4032993639727159,0.2606131663118162,0.1733580079365311,0.06115962376428777,0.029374545778633743,-0.03884479580665928,7.941926867567314,6.8230415786007725,6.153548652199328,5.545525776303664,4.751447993750029,3.960409710323569,3.2464487514550346,2.449520440747442,1.7925667024104956,1.2366127181444388,0.8542379347249358,0.6022566076883284,0.31091515307437423,0.16220106587512997,0.08082865215195542
0.0,52.0,52.0,0.0,120.0,0.0,0.0,0.0,0.0,-107.0,0.0,-45.0,0.0,0.0,0.0,34.27253218749016,17.55503396713325,5.9156736250705775,4.577688711646009,3.8739739233629966,3.210209280981187,2.61616501735066,2.005176462785031,1.4122678932373365,0.9473841816590297,0.6280962142380322,0.36201944446401274,0.20768832471925464,0.11437668124808141,0.09108074018350118,0.02394720293355457,-0.013835937208703289,7.98733247416798,6.862062965213421,6.249853556045624,5.583127958669738,4.747308021006376,4.0447946279694325,3.2134198739217728,2.445723322334889,1.8174925561350275,1.2837318195348342,0.8905974398264612,0.5637600101047504,0.3167344651457997,0.18900396695119542,0.08803657085720819
0.0,53.0,53.0,0.0,120.0,0.0,0.0,0.0,0.0,-107.0,0.0,-45.0,0.0,0.0,0.0,34.27253218749016,17.55503396713325,5.860223689804182,4.610936976190964,3.959925407274924,3.327126972268164,2.6878300998254434,1.9742001393422952,1.4560706445296385,0.9917371380576775,0.6651865707230039,0.4331371967671329,0.2625634601023228,0.080399702550988,0.03404064493726745,0.06274745858792168,-0.0029696714977737963,8.100144715976253,6.879786254846214,6.258286666154693,5.613479763743946,4.873593116693066,4.063045835908804,3.226753190841612,2.4437030269840045,1.8249577197089872,1.2632598969159134,0.8932557840850102,0.5131156824138037,0.3155326797258329,0.19393096497059242,0.10020531619712218
0.0,54.0,54.0,0.0,120.0,0.0,0.0,0.0,0.0,-107.0,0.0,-45.0,0.0,0.0,0.0,34.27253218749016,17.55503396713325,6.049953832530892,4.605844675743947,4.028076611440343,3.4385013296451183,2.6944442118317546,2.111791464660124,1.4729643512453348,0.983076026598877,0.6243137936427309,0.3843386280011666,0.23664700344407952,0.09950966611526049,0.0833146608685167,0.012756503267123829,0.011052023584025688,8.121450681396144,6.979292050519975,6.366266419906839,5.663044026210939,4.925818350118619,4.061139253251599,3.241393332512546,2.4652195929763137,1.8278527128858955,1.3348965959345227,0.8533120191222159,0.5051449417583385,0.31707557382486806,0.1707253204937443,0.0823078035751113
0.0,55.0,55.0,0.0,120.0,0.0,0.0,0.0,0.0,-107.0,0.0,-45.0,0.0,0.0,0.0,34.27253218749016,17.55503396713325,6.072101968834979,4.712638086948174,4.0610508060965556,3.393455221518403,2.680036890187006,2.023663139705708,1.459235378462921,1.0100747791726417,0.5699151932264238,0.40460396309556534,0.2943550605323637,0.1845085826668123,0.061646116161817685,0.09808959156012508,0.006778306497498567,8.197845339325188,7.055250086972047,6.3682251918897315,5.648458897794532,4.968549864612512,4.073704578146912,3.3148827912321077,2.4918445428719176,1.888117525337516,1.3001355778636166,0.8689324004423941,0.5450656339758021,0.31816041180202986,0.15270599445383473,0.08190321077249683
0.0,56.0,56.0,0.0,120.0,0.0,0.0,0.0,0.0,-107.0,0.0,-45.0,0.0,0.0,0.0,34.27253218749016,17.55503396713325,6.0451994383202505,4.756204179656526,4.113974715689173,3.502806616929247,2.7599731938544347,1.9872351265043613,1.4472648882140164,1.036436649113794,0.6417100381332859,0.4003871540919423,0.18793158289859746,0.19175503644848518,0.08291189050989194,0.1245301916389761,0.013350614419385495,8.258944591053659,7.0678390461840515,6.406341397498792,5.793294996469841,5.021053431589681,4.1115395290154755,3.3369465896953883,2.5340999447579637,1.871782724618973,1.289616427155575,0.8520433261403731,0.5648025661589438,0.32731447474282693,0.19599312592847834,0.0892657217227216
0.0,57.0,57.0,0.0,120.0,0.0,0.0,0.0,0.0,-107.0,0.0,-45.0,0.0,0.0,0.0,34.27253218749016,17.55503396713325,6.189252052759506,4.906132167651756,4.1117064815008275,3.4477280141135727,2.7958664943578975,2.130008469071763,1.4431248903928657,1.0292122849610712,0.7050911861573539,0.4811496818937356,0.2286278942281426,0.15333744520512846,0.08400994132021451,-0.022133955438360418,0.06377776382006178,8.268168509790701,7.161939077925189,6.508637933959178,5.780247712153959,5.060747709324315,4.2075022432078235,3.3039393970265443,2.513736809506941,1.8948870505805901,1.294999478681695,0.8482959754619258,0.6010318398146863,0.3434109634577,0.19535531526650313,0.101893221645337
0.0,58.0,58.0,0.0,120.0,0.0,0.0,0.0,0.0,-107.0,0.0,-45.0,0.0,0.0,0.0,34.27253218749016,17.55503396713325,6.241900499711993,5.001525092485905,4.272484962255578,3.6196742506029187,2.8698071041854796,2.171611926923712,1.4777650878927473,1.0408099199688328,0.706757118794023,0.39184813227416526,0.2644869132866568,0.16274444980189057,0.016012475905711407,0.0033972715380173914,-0.013833667807906668,8.354213243029365,7.202768230230705,6.525072775427812,5.844524065706976,5.057427668769731,4.238626745490377,3.3362023267932637,2.569026159409251,1.9160906050977329,1.3373458769807403,0.9076563697304443,0.5523026446844833,0.3565459923062478,0.15646007948735247,0.14386920673868944
0.0,59.0,59.0,0.0,120.0,0.0,0.0,0.0,0.0,-107.0,0.0,-45.0,0.0,0.0,0.0,34.27253218749016,17.55503396713325,6.317904216014378,5.036941078434007,4.248386201274776,3.6397097925507276,2.9137734537349056,2.0802420877120693,1.5683445455134242,1.0219685032376122,0.6288633646143665,0.42290835255718523,0.2608921978947336,0.08681218292514035,0.11733803919972159,0.032075432282200604,0.0014130819123961934,8.45929516702385,7.294834150487558,6.583822527529999,5.965859212931015,5.1084633947872975,4.215731333241203,3.406773963640418,2.5824475718253797,1.9055233629839696,1.3218733958646482,0.8610637189888043,0.6057112086297181,0.3625650317845196,0.17748788171938892,0.10021318062351832
0.0,60.0,60.0,0.0,120.0,0.0,0.0,0.0,0.0,-107.0,0.0,-45.0,0.0,0.0,0.0,34.27253218749016,17.55503396713325,6.443084050698218,5.077809815323679,4.407283603233951,3.649491060239041,2.875317316028221,2.197654073652538,1.519496671003308,1.0957705217178602,0.6576344379198804,0.37800487184052406,0.26461079573326124,0.1241153706736141,0.04709173991962007,0.018445609182770988,0.04372016036215365,8.526319037878812,7.367780527319389,6.63565203247976,5.98280835742274,5.153882735444341,4.270652382583145,3.409880983882147,2.554172497747881,1.9302178261137348,1.35786756045754,0.8973017418136513,0.5558777347420999,0.3440264895188326,0.18508497574173652,0.12072505066744334
0.0,61.0,61.0,0.0,120.0,0.0,0.0,0.0,0.0,-107.0,0.0,-45.0,0.0,0.0,0.0,34.27253218749016,17.55503396713325,6.5670197411930396,5.129183642371845,4.381440104283623,3.6812354108012446,2.930104303582236,2.223076992272441,1.5384272699365074,1.0572125229148395,0.6897538747944381,0.4093154217973934,0.22606195960152461,0.06469531089736945,0.09664326538407861,-0.06506235107162522,-0.013063807292161802,8.54986946469413,7.415397428908434,6.734747787343935,6.019420532519637,5.223220348555419,4.310657511387269,3.4116579673828475,2.603695632899996,1.9181859651557618,1.3478263944834834,0.8997279001537581,0.6061017599417562,0.3568601696607716,0.1675120683995098,0.07902639764599917
0.0,62.0,62.0,0.0,120.0,0.0,0.0,0.0,0.0,-107.0,0.0,-45.0,0.0,0.0,0.0,34.27253218749016,17.55503396713325,6.645937017363745,5.262139715238293,4.453639408073844,3.7672393511110704,2.9367219618311085,2.2502695884046156,1.5944080065739594,1.1394970382044671,0.6988754823822911,0.4163587304406662,0.2934942336392986,0.11014811762866467,0.089380836896828,0.00729365186459411,0.029112927326561157,8.627561983076271,7.476066606897224,6.765630908866819,6.028061401539503,5.254312319327108,4.347604602227205,3.45589208462841,2.625175670992234,1.9410382734111324,1.3624705040936331,0.888419293855103,0.5571520358904003,0.3183329788226402,0.1956790807691194,0.11945886366158663
0.0,63.0,63.0,0.0,120.0,0.0,0.0,0.0,0.0,-107.0,0.0,-45.0,0.0,0.0,0.0,34.27253218749016,17.55503396713325,6.720758238666894,5.329562079784012,4.562505561257721,3.7922453401197447,3.04942220943093,2.273361892030555,1.6086556550656101,1.1056202095726415,0.7056676288330477,0.3840692781980701,0.28124523615716973,0.09389097326546966,0.04398236249364555,0.03927765319894423,0.016975523003211597,8.632011712664237,7.522922029503316,6.84844137682907,6.120528498060644,5.201611711993622,4.366498066789566,3.48582528836614,2.6380924928650664,1.936608452721814,1.4039976617908694,0.9096145402921463,0.5988522590815579,0.3430795068981575,0.19943942972907963,0.08012038344948963
0.0,64.0,64.0,0.0,120.0,0.0,0.0,0.0,0.0,-107.0,0.0,-45.0,0.0,0.0,0.0,34.27253218749016,17.55503396713325,6.751780278054403,5.401536682004594,4.529960210365037,3.785573600466679,3.079272118378464,2.2112968352401476,1.619949604892082,1.0658982580313434,0.7153464282016277,0.470357129301014,0.25312630701964967,0.07043703613862956,0.04766123631827929,0.04728501477929614,-0.0002903176845183049,8.732078341918193,7.620640168495893,6.898052271697572,6.161510110077043,5.350232620914638,4.459012712046672,3.5253677074982823,2.6566549483623247,1.9682161437863503,1.3515925118220045,0.9206435799975912,0.5719363919172434,0.3362577088702282,0.17647368800703536,0.11183812805658724
0.0,65.0,65.0,0.0,120.0,0.0,0.0,0.0,0.0,-107.0,0.0,-45.0,0.0,0.0,0.0,34.27253218749016,17.55503396713325,6.835197045556571,5.4288529057923975,4.631586748340604,3.879936674553626,3.126069134592101,2.3834457444836477,1.6396545344456925,1.1361981173031865,0.6805435271421933,0.4569424360282015,0.17298354053605694,0.07850914038479742,0.025625735444121264,-0.04655875588774273,0.008004784126001224,8.850850313817764,7.662736056989769,7.00237860687846,6.3020867569884595,5.374915292740031,4.429816438642802,3.518938753330362,2.6747175869467865,2.010772228606766,1.3585161940903339,0.9469277502288873,0.5676666198425273,0.3698604154698764,0.22274707058392368,0.09198543349408421
0.0,66.0,66.0,0.0,120.0,0.0,0.0,0.0,0.0,-107.0,0.0,-45.0,0.0,0.0,0.0,34.27253218749016,17.55503396713325,6.9539578730747476,5.5037454781056345,4.706568315861175,3.9617294534089096,3.064664582161532,2.356494389162475,1.6831690022913823,1.1524418253950985,0.7354970914034,0.47598805932636723,0.15526055868363192,0.15226618282924637,0.1123632622250973,0.048627856337120426,0.03334055189475271,8.941978322701038,7.6495626709171,7.057840915731665,6.27613201698088,5.3880475851156655,4.504151320568378,3.5899028938048985,2.7374277060833765,2.0199522594113652,1.3582121447688658,0.9010030963120712,0.5363991010798715,0.33698223569869495,0.18375133015281714,0.09408452755843578
0.0,67.0,67.0,0.0,120.0,0.0,0.0,0.0,0.0,-107.0,0.0,-45.0,0.0,0.0,0.0,34.27253218749016,17.55503396713325,7.118965967436795,5.604058071720725,4.688807710415362,3.9606063396689573,3.144149261687232,2.3684676757501255,1.6534014881039667,1.1494167857707254,0.803923577992684,0.4845432856786496,0.21709690214040217,0.1957832765832364,0.09303517026540084,0.0023723943948129114,0.029168662507393812,9.01168456593253,7.734943873262058,7.085438633096872,6.356103392872475,5.487860112423721,4.567845532693126,3.6102073981579657,2.712697832112981,1.9929885254226225,1.3886488224454014,0.8716567406020876,0.6388808257200442,0.3564888731101674,0.2436492737632788,0.09086928730019075
0.0,68.0,68.0,0.0,120.0,0.0,0.0,0.0,0.0,-107.0,0.0,-45.0,0.0,0.0,0.0,34.27253218749016,17.55503396713325,7.22158469985288,5.682613777529113,4.8570327722828415,4.122226122281669,3.217327201599765,2.393361089839551,1.7223976534435348,1.206979403918309,0.7273925162274606,0.405318468457769,0.19661246443895705,0.13378812864295717,0.08657156468950043,-0.044158662477665145,0.007541604127770723,9.057728868037943,7.886380043977966,7.145675818068278,6.412094478288462,5.503205072427627,4.607733194529962,3.636745166840533,2.7640844754757543,2.0061861925614606,1.3920333779446827,0.9462008387397263,0.6044943415460579,0.3725849554292889,0.24426239986691056,0.09229946060872357
0.0,69.0,69.0,0.0,120.0,0.0,0.0,0.0,0.0,-107.0,0.0,-45.0,0.0,0.0,0.0,34.27253218749016,17.55503396713325,7.284675872117634,5.742412641863871,4.800337710412539,4.082085434228338,3.256188193538572,2.421686239282591,1.7168351894541043,1.1943580786294699,0.8106991213601893,0.4687210991187678,0.2939770443183388,0.1514204870244,0.032565420019329445,0.04259365971424915,-0.01738535292176768,9.14025769649885,7.906392401469683,7.177317669075656,6.4654860367383025,5.599030816066696,4.650483932003779,3.657978767131611,2.764688997585655,2.0047732974630623,1.4168865342170296,0.9438007613599435,0.5850626069016356,0.3562962363940157,0.19922199787942038,0.12099152132929522
0.0,70.0,70.0,0.0,120.0,0.0,0.0,0.0,0.0,-107.0,0.0,-45.0,0.0,0.0,0.0,34.27253218749016,17.55503396713325,7.426573152598116,5.828313957975903,4.942608475250232,4.150481745544992,3.288900766966401,2.4967229925953225,1.8522645696687754,1.1781376034073208,0.7076730328235991,0.4167205027382481,0.27766818613184174,0.08810864757973039,0.03329387600024845,-0.032786293707286425,0.01112804112496695,9.217281290983811,8.057063885349194,7.288917649124832,6.535636184549152,5.558501607862096,4.620136375103157,3.719681903520537,2.7969961127726184,2.0280438660693623,1.432871284299943,0.952317109575803,0.5997574157256667,0.3368301134081084,0.20084049453671324,0.04962085814103548
0.0,71.0,71.0,0.0,120.0,0.0,0.0,0.0,0.0,-107.0,0.0,-45.0,0.0,0.0,0.0,34.27253218749016,17.55503396713325,7.520219866277087,5.953529475325104,5.070295142348009,4.18175260477581,3.315068245621984,2.487877142571062,1.7427650531615821,1.1103962129547178,0.772032341276515,0.4417420395192307,0.23992363507448794,0.20255075112182752,0.007750209473496521,0.03158280036547593,0.020754597345641633,9.208721406886735,8.057866401037039,7.335065055344092,6.537398712390613,5.6726025440259855,4.704359898719864,3.72813291562561,2.7874050548687577,2.0747640697813976,1.4445093391573136,0.9420560687147342,0.5882471755655073,0.37044572472496806,0.18721737273901207,0.08712303602109694
0.0,72.0,72.0,0.0,120.0,0.0,0.0,0.0,0.0,-107.0,0.0,-45.0,0.0,0.0,0.0,34.27253218749016,17.55503396713325,7.633318280319647,5.92566752971038,5.137079180699143,4.223068408188872,3.4028832656866443,2.4687401374041267,1.759010187393445,1.185797389724756,0.7321278849514765,0.46948248861249126,0.2692729252637192,0.14101074811937234,0.09562217449485037,0.059314876104968994,-0.013608582608160535,9.414404701712561,8.12074812251383,7.378642931395494,6.609698791679511,5.694828047609425,4.727180495339614,3.7407731501904014,2.8508897228603707,2.0712703106208856,1.4108919769889474,0.9330339800132029,0.5821670926870867,0.3333856601849754,0.1903462289152533,0.10386272978779625
0.0,73.0,73.0,0.0,120.0,0.0,0.0,0.0,0.0,-107.0,0.0,-45.0,0.0,0.0,0.0,34.27253218749016,17.55503396713325,7.706750956777408,5.991467912009207,5.130694372003665,4.302032456674254,3.4169836746520996,2.49141086975148,1.8504759791531908,1.2396504464233968,0.7604664081269846,0.41770255020227104,0.28199615671503386,0.1154075654014805,0.09086268728765616,-0.04319828600857017,0.005414630788666459,9.458599200987067,8.191638168143474,7.494201168312563,6.674619583603612,5.731851580534342,4.815598143990093,3.7800223988250217,2.854305930138976,2.1082667233639416,1.4524332242867821,0.9445717591283326,0.5766934404791144,0.37379078477112915,0.2163885019560582,0.06982093180979275
0.0,74.0,74.0,0.0,120.0,0.0,0.0,0.0,0.0,-107.0,0.0,-45.0,0.0,0.0,0.0,34.27253218749016,17.55503396713325,7.822984701312908,6.167690510364871,5.3058975341469425,4.4304870725951355,3.4541228997534157,2.5191037929012308,1.8618618361913786,1.2111756755164695,0.7627806638178335,0.44009883720053117,0.2647124848257177,0.09869145980269986,0.1634380136485784,-0.010797576146620962,0.02529392724469426,9.57581162328137,8.369112653205258,7.6212959326685805,6.759034998711853,5.8553899902586455,4.833732011360657,3.8168283322579564,2.8653189438410687,2.0766991664079124,1.4521849361997792,0.943984138563982,0.5980192983848108,0.34860076801533046,0.19809038096799758,0.14962559907406933
0.0,75.0,75.0,0.0,120.0,0.0,0.0,0.0,0.0,-107.0,0.0,-45.0,0.0,0.0,0.0,34.27253218749016,17.55503396713325,7.919998779282849,6.297976407560333,5.352334475675108,4.468224835665086,3.581555861567993,2.6262012031952913,1.8530592082133395,1.2153096905477223,0.7838123429051658,0.3839051309811894,0.2751744696581263,0.21842752060754733,0.09887167160867472,0.017113305487179244,0.062031244248297916,9.586604241891157,8.375919837306684,7.659579440732886,6.80631750710912,5.8596958098710346,4.863303121662004,3.8272517105889388,2.8458314538875102,2.13032325454945,1.438401188114138,0.9756584988863966,0.5893839592859003,0.34910564180353115,0.16312906436859134,0.06950958735446675
0.0,76.0,76.0,0.0,120.0,0.0,0.0,0.0,0.0,-107.0,0.0,-45.0,0.0,0.0,0.0,34.27253218749016,17.55503396713325,8.065909994480403,6.364809308184787,5.4056348108656564,4.541921604396236,3.5549343978162806,2.720543531165524,1.8349211507153143,1.2361754253427308,0.7759568138968056,0.4779520125980444,0.21137944130286004,0.10271840581620525,0.038228047759443544,0.02257429909825895,0.010334667774168707,9.727018656746013,8.472489801738357,7.719533933417232,6.8485304538287215,5.90863772030233,4.89546475686448,3.8722718235493483,2.899357129879322,2.1279820419063054,1.4612005248064008,0.9587730009169841,0.6298744845043532,0.35219120621804234,0.19550005184049257,0.03257336164078328
0.0,77.0,77.0,0.0,120.0,0.0,0.0,0.0,0.0,-107.0,0.0,-45.0,0.0,0.0,0.0,34.27253218749016,17.55503396713325,8.13358175717514,6.488616697972999,5.456317447394015,4.58835902650769,3.6349430298213035,2.729356858705791,1.883202014863207,1.1932675755965436,0.7588943161155237,0.46931885928161676,0.2748690732133975,0.14330915869472619,0.017959185229347946,0.06612524807370276,0.003587109266684395,9.741574219626937,8.510883832820324,7.7358801974719045,6.962645651274084,6.010777804785021,4.973282233392241,3.856112516049533,2.9457984301945106,2.1526844615274103,1.4745414611684067,0.9502250701877267,0.5923113388062917,0.34975709900873386,0.188905727370278,0.10256816630861501
0.0,78.0,78.0,0.0,120.0,0.0,0.0,0.0,0.0,-107.0,0.0,-45.0,0.0,0.0,0.0,34.27253218749016,17.55503396713325,8.30215531116557,6.544864927266009,5.591161857733202,4.611231988270889,3.631141546836437,2.70085450083175,1.926715053943328,1.2911800943712222,0.758088745892101,0.4829701180993359,0.2655677911415507,0.12394727675492237,0.07070058157052601,0.027134232305287977,0.004342878316169486,9.839334792849836,8.619430100160825,7.801596742446163,6.9948798058154695,5.996197450458936,4.999675900397301,3.944618725371202,3.0140627902848864,2.108184561833706,1.4920573615725512,0.9891205225362328,0.6301690905857897,0.379323211965425,0.18874794205401532,0.11456887254072909
