Line_number,Fiducial,Easting,Northing,Height,Elevation,tx_pitch,tx_roll,tx_yaw,txrx_dx,txrx_dy,txrx_dz,rx_pitch,rx_roll,rx_yaw,PX,PZ,S0X_time_1.086e-05,S0X_time_3.256e-05,S0X_time_5.426e-05,S0X_time_8.680e-05,S0X_time_1.411e-04,S0X_time_2.279e-04,S0X_time_3.689e-04,S0X_time_5.860e-04,S0X_time_9.115e-04,S0X_time_1.411e-03,S0X_time_2.192e-03,S0X_time_3.418e-03,S0X_time_5.339e-03,S0X_time_8.301e-03,S0X_time_1.338e-02,S0Z_time_1.086e-05,S0Z_time_3.256e-05,S0Z_time_5.426e-05,S0Z_time_8.680e-05,S0Z_time_1.411e-04,S0Z_time_2.279e-04,S0Z_time_3.689e-04,S0Z_time_5.860e-04,S0Z_time_9.115e-04,S0Z_time_1.411e-03,S0Z_time_2.192e-03,S0Z_time_3.418e-03,S0Z_time_5.339e-03,S0Z_time_8.301e-03,S0Z_time_1.338e-02
0.0,0.0,0.0,0.0,120.0,0.0,0.0,0.0,0.0,-107.0,0.0,-45.0,0.0,0.0,0.0,34.27253218749016,17.55503396713325,5.907057698892287,3.3413733728400006,2.3008759537470747,1.4683458887968488,0.8619676226979993,0.5089220235249226,0.24639073096452282,0.1816312955684503,0.0939813170527991,0.07191549086486802,0.060026193522010295,-0.06185532787928288,-0.004831559975297201,0.03309092912539652,0.04862258023418943,8.101743613585324,5.851572093583546,4.536323884669446,3.3975216767505305,2.402571889945459,1.594680389343045,1.0652377635342176,0.6687137363401927,0.40905655125520957,0.2431429147198642,0.1641466105312917,0.12359969984992991,0.07009031326256826,0.043100814863481204,0.030602734406049534
0.0,1.0,1.0,0.0,120.0,0.0,0.0,0.0,0.0,-107.0,0.0,-45.0,0.0,0.0,0.0,34.27253218749016,17.55503396713325,5.909213031868117,3.3769018886188986,2.316431938976908,1.4707576924950148,0.8669576490470479,0.40228025061831757,0.2564629997330433,0.18592981002108394,0.15984655989087093,0.07138043966098191,0.05422785708043816,0.034187986922554786,-0.030074078635956125,0.026058495095634987,0.02436328110175629,8.137361081688125,5.722740742905818,4.487157508428665,3.3469056165088733,2.2972999561701104,1.544274650359197,0.964129532521898,0.6306237885150185,0.43261015772610384,0.24164396850133982,0.1650826275748733,0.10038155439504451,0.03708335091826734,-0.004227832810041906,0.03532253635321405
0.0,2.0,2.0,0.0,120.0,0.0,0.0,0.0,0.0,-107.0,0.0,-45.0,0.0,0.0,0.0,34.27253218749016,17.55503396713325,5.887117899130553,3.413851851350891,2.174125550977358,1.4557135472029217,0.7362960777103018,0.5047058798944662,0.2574257100631001,0.1771522496759453,0.08796156834519411,0.05075769971261794,0.010006345190589216,0.04318849928669214,0.02838022178507556,-0.012854341297879962,0.03722632287261665,8.06874385617028,5.764694412664293,4.41334324978671,3.282967114262255,2.2522821833236435,1.4800558917087634,0.9606610322800806,0.6364067759969086,0.396767604366878,0.23619145487126114,0.12523556125955054,0.10321143372295569,0.05771769058684835,0.019749766594149985,0.02320398693294201
0.0,3.0,3.0,0.0,120.0,0.0,0.0,0.0,0.0,-107.0,0.0,-45.0,0.0,0.0,0.0,34.27253218749016,17.55503396713325,5.8717290947472796,3.3781736818156567,2.2650493485894487,1.3270044264509147,0.7735583387324242,0.4591310222589194,0.2495832050286715,0.10232834098804489,0.057960527209413956,0.02756603109909104,0.0841125642635045,0.028316770710042162,0.020047376906667,-0.00644095603572501,0.024198292547118493,8.115681707637947,5.785941396683291,4.434568909502094,3.1876458705533057,2.1839534949363903,1.451355581641454,0.914931343764421,0.5929091628776899,0.3676128953288401,0.22333066189474204,0.1298928036426315,0.0843998975991607,0.014362286045082568,0.04457023363922789,-0.015470262658229032
0.0,4.0,4.0,0.0,120.0,0.0,0.0,0.0,0.0,-107.0,0.0,-45.0,0.0,0.0,0.0,34.27253218749016,17.55503396713325,5.922558435412696,3.303203039171421,2.081366204451935,1.3316374923908245,0.7542447390733423,0.4338075286472049,0.20837290705261557,0.12314453557286313,0.07138635636296216,0.09263983114873424,0.019839288451139428,0.01601990824428437,-0.021845505417326952,0.011007526429475913,0.0317801590552956,8.106378301609425,5.733228891627762,4.393543170883192,3.1911582493278767,2.129014069680519,1.4415034455694968,0.9188787602758457,0.5770373183336093,0.3925908410560957,0.2098431174951677,0.15110591717731048,0.09553279726491691,0.04450094054193386,0.028715002233002822,-0.014899963504515909
0.0,5.0,5.0,0.0,120.0,0.0,0.0,0.0,0.0,-107.0,0.0,-45.0,0.0,0.0,0.0,34.27253218749016,17.55503396713325,5.893109718221571,3.291427890869295,2.156433329747986,1.3670313917045793,0.7047389823404939,0.3856340328514103,0.29303022795539263,0.06362699931795965,0.07252105672235337,0.04631623470133654,0.0035757073279145592,-0.0014184846052951155,-0.0018460105113602388,-0.029785617275641923,0.02797810161693643,8.12136720993812,5.699290372245276,4.320864814468357,3.1311364363611665,2.1014096712725667,1.3653161228407305,0.8593285436814366,0.5430492123114294,0.35434146738056393,0.1965756459685351,0.09102712804949817,0.06494714747063324,0.04893585667156577,0.0009942028732399105,0.05133000012936761
0.0,6.0,6.0,0.0,120.0,0.0,0.0,0.0,0.0,-107.0,0.0,-45.0,0.0,0.0,0.0,34.27253218749016,17.55503396713325,5.863769968352727,3.398189747308211,2.142380186231086,1.2802598525841513,0.653466234486408,0.36170119146504776,0.2394188525405476,0.14987157101606136,0.12007633125031356,0.018124839248529447,-0.0513147734929489,-0.0565325971877898,-0.02353472492185242,-0.012212048356250735,-0.017600851829325123,8.155142915827112,5.757579865212556,4.303562281215819,3.091955603128695,2.0101638528682577,1.3212127494046424,0.8089647585516015,0.5126252781430023,0.3590645332751969,0.20814777282592498,0.14407251627411954,0.03754712321199628,0.055467592279256704,0.0002647333128929334,-0.00469940143271024
0.0,7.0,7.0,0.0,120.0,0.0,0.0,0.0,0.0,-107.0,0.0,-45.0,0.0,0.0,0.0,34.27253218749016,17.55503396713325,5.876537687383106,3.190488823021445,2.113620673633631,1.2427130230334362,0.7005984209089721,0.37792711589165384,0.2417853872057773,0.0815703460883045,0.1268430316026543,-0.024161604363731014,0.06383720577389077,-0.022378157591467537,-0.014073913587999098,0.03160555547530773,-0.034976360737391216,8.070811503717739,5.6749945192883775,4.276030672882108,3.066678379250315,2.0223909210845665,1.2635843125493977,0.8108581766082368,0.5047393744270078,0.3284029672449803,0.2130209040930132,0.15201839838691877,0.09459008982804823,0.006575000282181026,-0.001392799977781082,0.010715908926164938
0.0,8.0,8.0,0.0,120.0,0.0,0.0,0.0,0.0,-107.0,0.0,-45.0,0.0,0.0,0.0,34.27253218749016,17.55503396713325,5.98256729145518,3.227584816121529,2.13361845846645,1.2352351707753557,0.6674507717178606,0.2967140776674972,0.21146114904846147,0.1281045552100288,0.06731867393816245,0.022571986420300533,0.023462507695736448,0.002007379895976608,0.06384832155751032,0.019081264010323618,0.04099668862538316,8.134013107620781,5.6483283708387,4.243522488154589,3.0153469133840427,1.9324847042374413,1.2509805851628841,0.792197843362444,0.4810141277108632,0.29019376388043405,0.17983047500743346,0.08554370310886682,0.04094561028754193,0.05471616514532678,0.025750637702499267,0.007154657482858796
0.0,9.0,9.0,0.0,120.0,0.0,0.0,0.0,0.0,-107.0,0.0,-45.0,0.0,0.0,0.0,34.27253218749016,17.55503396713325,5.865427583387434,3.2224558994174095,2.0840555698148346,1.2034406422395294,0.6620139185074839,0.34723690185695716,0.18056433347837003,0.1776396411440227,-0.02705174747999757,0.02040684053318533,0.012366682440998826,0.009986924408015865,-0.012098032116866386,0.03189291030683862,0.007911084588325705,8.149584676889235,5.657776439800973,4.269288161695847,2.9669822062019433,1.9208155910948017,1.1648549957098189,0.7243092745843697,0.457841724647332,0.28934575385295247,0.18345477250365616,0.1359841722626965,0.08254628783032697,0.01564545950553752,0.01858042497359145,0.02187631601575315
0.0,10.0,10.0,0.0,120.0,0.0,0.0,0.0,0.0,-107.0,0.0,-45.0,0.0,0.0,0.0,34.27253218749016,17.55503396713325,5.894837766786357,3.2324948090761283,1.9405800503529487,1.2769933143413992,0.6885062544006226,0.29660621257882364,0.1040849421399499,0.01276677257635117,0.08357194687337004,0.0018433400129065011,0.036016890740349944,-0.010785117624431732,0.020963515464201856,-0.011879767571082623,-0.03526807482223789,8.141247178269614,5.595176647251425,4.17734927241038,2.9391451269948052,1.8895912638926071,1.1358419392575096,0.7309686628186964,0.4322367277768005,0.32010279489966853,0.21142963814791663,0.12394017379631855,0.06162861814458341,0.024401676219742433,-0.011964071537614699,0.0375245121445509
0.0,11.0,11.0,0.0,120.0,0.0,0.0,0.0,0.0,-107.0,0.0,-45.0,0.0,0.0,0.0,34.27253218749016,17.55503396713325,5.8716132758504855,3.1762234859406093,1.9648241619647293,1.158493706970763,0.5501339602003443,0.3202395779578335,0.21044076997075328,0.12546834629881143,0.017200267555017884,0.02205172095487339,0.017894970053881264,-0.03241955555597889,-0.017865175977058743,-0.017951433422112976,-0.0245504271155559,8.131847849286489,5.648820596278635,4.176009925675881,2.9056817206524377,1.8070960572903891,1.1254046684419354,0.704834068811275,0.4640699787020702,0.325883933956957,0.20055504777089078,0.13695945695106165,0.04960150097792927,0.034983620111195185,0.02175394447229781,0.020138874616397878
0.0,12.0,12.0,0.0,120.0,0.0,0.0,0.0,0.0,-107.0,0.0,-45.0,0.0,0.0,0.0,34.27253218749016,17.55503396713325,5.8790563620441505,3.234302648964773,1.9846991474594788,1.1452678749621785,0.5518620698723573,0.33162110265429356,0.1127516796593648,0.10682716320765127,0.04970533183929345,0.02860772501881036,-0.003044290592308714,0.07526081879680133,0.0501935699098475,-0.0387883987059361,0.0082398764859068,8.113003890076461,5.646895993209851,4.1775554148908585,2.8820177076362863,1.8269552791515196,1.0791913333300367,0.6741543221620211,0.4375521394341426,0.3064174774032823,0.16589626796954124,0.1310778421983186,0.03596694613750289,0.013704290945031242,0.03660076746896898,0.010204951724669922
0.0,13.0,13.0,0.0,120.0,0.0,0.0,0.0,0.0,-107.0,0.0,-45.0,0.0,0.0,0.0,34.27253218749016,17.55503396713325,5.882626214381928,3.2352017114708627,2.010876766121768,1.1339670653898852,0.6228086526087646,0.2612246254881634,0.08810980088722895,0.0632131569113477,0.05970406137714173,0.019513805508213137,0.02196871008765012,0.06618052322023461,-0.03180912432631047,-0.011435590755514622,0.022556068764926412,8.121107608031044,5.621927584007208,4.155758226692651,2.884653609311476,1.7548025045131266,1.0591095035650104,0.6708051991492316,0.43571908348396843,0.2596206882778926,0.1901615177260559,0.11830338102085573,0.08138460469974472,0.08186727090533362,0.05096300003785285,0.020998429241364185
0.0,14.0,14.0,0.0,120.0,0.0,0.0,0.0,0.0,-107.0,0.0,-45.0,0.0,0.0,0.0,34.27253218749016,17.55503396713325,5.830331390791973,3.1573745930559123,1.906198787321836,1.154549139805841,0.5582631001978062,0.27443884268254476,0.09314086462660878,0.013502432684980595,0.01703785625928154,-0.02124705403892655,0.047769687301783936,0.01053800986347024,-0.049718357332987385,-0.00902695638298616,0.02997645352687523,8.137429455976191,5.549320269628302,4.10880776982827,2.804476133493494,1.7120897218283841,1.046384803633151,0.6303754675577519,0.38103724716451276,0.2412322794358414,0.17402678505553051,0.05902047671310751,0.0912599895981124,0.0033004626180320185,0.04498726551386188,-0.019336302797403324
0.0,15.0,15.0,0.0,120.0,0.0,0.0,0.0,0.0,-107.0,0.0,-45.0,0.0,0.0,0.0,34.27253218749016,17.55503396713325,5.8873853798248055,3.1769662552252504,1.9149513723445941,1.1274491735187944,0.5314302865167002,0.20306488202145082,0.12615235592228405,-0.009685315709100528,-0.009950577799411636,0.03424457074371449,-0.00030525024356380104,0.04438684493315517,-0.032754413818302686,-0.006015574580289555,-0.038245062732602794,8.097108106339203,5.581146005326444,4.052793372800132,2.7857218418174994,1.7063458874900557,1.0047968910257046,0.6457214426679396,0.3938227786320622,0.2387392851780577,0.16284461382942014,0.067550071626508,0.051076311161528026,0.03455512107680074,0.02366683292449146,-0.026120745343306946
0.0,16.0,16.0,0.0,120.0,0.0,0.0,0.0,0.0,-107.0,0.0,-45.0,0.0,0.0,0.0,34.27253218749016,17.55503396713325,5.919426810976306,3.140002275992888,1.914939364285034,1.1156141084994058,0.5264766009390841,0.22705614722354509,0.1135331191479344,0.13758162885888398,0.09537243386587083,0.07919259382651221,0.014169635836264124,0.003863961397214024,0.006710881088894961,0.0026141387973803174,-0.001350439603260604,8.095720460151709,5.525421024867238,4.0650787425879615,2.711011648406554,1.6596000394554828,0.9666521279706178,0.5955801924734508,0.371409013837684,0.22760568527252917,0.15432267443282036,0.11775118029363492,0.050664265934866476,0.04594702580760699,0.036507969108298774,0.035079063900775934
0.0,17.0,17.0,0.0,120.0,0.0,0.0,0.0,0.0,-107.0,0.0,-45.0,0.0,0.0,0.0,34.27253218749016,17.55503396713325,5.869114054215876,3.1390906100807565,1.87644848406976,1.0435433077812348,0.5326991596016386,0.230328652787347,0.185891458075796,0.05467178118639285,-0.004103299798112317,-0.014303898833301989,0.01024059597963193,-0.011428526062486183,-0.022968788372935513,-0.0326989311588679,0.024558027250030732,8.112288277571237,5.536271034295544,4.022177351930522,2.720599567621703,1.6506610860494573,0.9714349040213649,0.5663627695602074,0.36750181119248454,0.26385596383115945,0.17706404038326626,0.15234521021633252,0.06498575624587304,0.025139685579554517,0.003088451966014906,-0.015302180207041485
0.0,18.0,18.0,0.0,120.0,0.0,0.0,0.0,0.0,-107.0,0.0,-45.0,0.0,0.0,0.0,34.27253218749016,17.55503396713325,5.8873254089477625,3.113806113559219,1.862897795164089,1.0079720484541563,0.5577650143907543,0.19115288426062915,0.13813859106509013,0.05548516254190644,0.020670104762478204,0.02362204585064284,0.008740229351523012,-0.025359933226769715,-0.046469061413190495,-0.021250921118050825,-0.05671196347441938,8.067988205593284,5.499490043329672,3.9300935418210012,2.655330353747147,1.6030919756832087,0.9620221642380052,0.5690751672296871,0.36451772479903743,0.23315395146033338,0.1641260814775984,0.1499678508467494,0.04034498269584136,0.07235675987832098,0.02503102169336807,0.03845137930722137
0.0,19.0,19.0,0.0,120.0,0.0,0.0,0.0,0.0,-107.0,0.0,-45.0,0.0,0.0,0.0,34.27253218749016,17.55503396713325,5.856150296975543,3.1056933270470752,1.8981884847953647,1.0103384771898631,0.512171950223233,0.22590777099194398,0.09638315028538152,0.05938263039391011,-0.022808582832061955,0.0957469830973639,0.0036044517014365085,0.03167037801655533,0.0725896191791076,0.08260366203743585,0.04686252940015261,8.061982431019974,5.537272660974897,3.881324868182494,2.6215559852072,1.5944317256211915,0.8978055634638832,0.5689017738480087,0.31801213746673385,0.2561711543056161,0.1437958508108724,0.10458343161124484,0.041615141171636116,0.052996520545688625,0.0371265821210363,-0.00469223776176653
0.0,20.0,20.0,0.0,120.0,0.0,0.0,0.0,0.0,-107.0,0.0,-45.0,0.0,0.0,0.0,34.27253218749016,17.55503396713325,5.8376593391304725,3.0685034503342012,1.9155533746008022,1.069030513660609,0.49893285097703655,0.25010250049880123,0.11613304130537887,0.08266813874981822,0.05129651209290769,-0.03972366931387719,0.03143655553121663,-0.05671718178136664,-0.0066213215940235624,0.01026054632674837,-0.016891529014537856,8.100074627652374,5.486255839722744,3.933070353685742,2.613945303784129,1.545523230140415,0.9071683959041041,0.5254179114649823,0.3015829855141025,0.19860706702651149,0.1782264031067665,0.07657195542981345,0.04944660764640352,0.061531598980309674,0.011547353394586495,0.03820519188170099
0.0,21.0,21.0,0.0,120.0,0.0,0.0,0.0,0.0,-107.0,0.0,-45.0,0.0,0.0,0.0,34.27253218749016,17.55503396713325,5.846350579724902,3.075899299894181,1.9477642722949997,0.9509164005550237,0.4733773731086101,0.1757986974548968,0.08367748977292419,0.014927974757505881,0.007952094826443656,0.009115606562741432,-0.0053053221735119786,-0.04267260328321754,-0.015006979907243433,-0.01045210351583028,-0.015294295939445111,8.08302997040899,5.441729369566836,3.9069314571938016,2.529872699943206,1.5089490464227637,0.8835041307746438,0.5373166942071592,0.29820985757216534,0.23138280101863068,0.15570277429211637,0.08631183409690352,0.07281163341410805,0.049520445404440075,0.008826304830522859,-0.022813163966648793
0.0,22.0,22.0,0.0,120.0,0.0,0.0,0.0,0.0,-107.0,0.0,-45.0,0.0,0.0,0.0,34.27253218749016,17.55503396713325,5.856754706876899,3.084428789404901,1.7347445609119232,1.0134065781913686,0.46825741636996004,0.2017684338519855,0.04753733592432122,0.05606615208828024,-0.0028504300250727574,0.09803069506766326,0.014081195061110833,0.039939979347720055,-0.01117615389323399,0.013385890090375926,-0.004806817564603566,8.110985143646078,5.4164707580150235,3.8592920874347127,2.57025481646376,1.4598616394767316,0.8387661693518325,0.5049964779328981,0.3292766399076055,0.19823369168007948,0.14111439117787655,0.06845138253045802,0.057955634514700996,0.014484336167684006,0.03777811917515714,0.04329856221741514
0.0,23.0,23.0,0.0,120.0,0.0,0.0,0.0,0.0,-107.0,0.0,-45.0,0.0,0.0,0.0,34.27253218749016,17.55503396713325,5.830214315232695,2.976958653003947,1.7843816132270336,0.9002422486510726,0.4492478502724565,0.15937431679249475,0.12328004066257649,0.12278087617774747,-0.016560600538898965,-0.03278084024220866,-0.053383748422576593,-0.05456118904096954,0.006633408037586449,0.06474104110197461,0.02573011323171561,8.085891799410303,5.386261765316921,3.830055356878188,2.552264324233857,1.4769162206018476,0.8104149196574363,0.5119560731119199,0.286873259146633,0.17460799121368614,0.11030237218246716,0.07892225518278682,0.03833597217257936,0.04826700575934233,0.009796986430287535,0.0473133148701266
0.0,24.0,24.0,0.0,120.0,0.0,0.0,0.0,0.0,-107.0,0.0,-45.0,0.0,0.0,0.0,34.27253218749016,17.55503396713325,5.844118252643814,2.9951085149888392,1.8039813510312368,0.9631748522690864,0.3946790905908546,0.17686859264176136,0.1033321620236575,0.06746343330964162,0.04441606694742338,0.061024346424063486,0.01623702298258904,0.04645387139603435,-0.02649106582998112,0.038615968863489725,0.03806957061899866,8.13675638451057,5.409566105950111,3.8028140118316127,2.5066629015132134,1.4283267563308046,0.8580271698278749,0.44513493914326696,0.2738097105142566,0.19224825848344992,0.15213704114457569,0.03682984538791032,0.06005627585006425,0.03495479660565638,0.019214404213161534,0.017566721584654214
0.0,25.0,25.0,0.0,120.0,0.0,0.0,0.0,0.0,-107.0,0.0,-45.0,0.0,0.0,0.0,34.27253218749016,17.55503396713325,5.784827643946141,3.000685186719465,1.723616635042145,0.950275985527938,0.4213432073312626,0.15014322445061587,0.08198766848661634,0.020756076675245483,0.02239129907589609,0.04587671963358987,0.02327072341145879,0.014694416691071258,-0.0279610803117869,0.030856157288539195,0.0057832598228054494,8.038387984715586,5.342148424833815,3.738118285588028,2.423084871694199,1.3998155407665391,0.8061480361558607,0.44761031045065225,0.31800419041484285,0.14901332894576114,0.13849319416743933,0.05050490731782835,0.07959350098609656,0.013699412586030541,0.02330574448789261,-0.0036959838470091433
0.0,26.0,26.0,0.0,120.0,0.0,0.0,0.0,0.0,-107.0,0.0,-45.0,0.0,0.0,0.0,34.27253218749016,17.55503396713325,5.804518510754595,2.956881814688513,1.7071371266212658,0.9159385591315217,0.38544298393434195,0.2815347085547877,0.07319966821650124,0.08100056934194613,0.12167219052561704,0.018507790007427936,0.02433195593073763,0.013813060898758533,0.03989894233902479,0.03847581337827646,-0.03229740648434972,8.09466200556591,5.320691513713859,3.73901495972769,2.4472543268629927,1.3653705300470937,0.7934474484206384,0.4471125447617042,0.29353897409752794,0.19899402922650286,0.11936235135366106,0.10805076934856003,0.07210271817453606,0.020386536006625152,0.03249008182857185,0.016328497578127273
0.0,27.0,27.0,0.0,120.0,0.0,0.0,0.0,0.0,-107.0,0.0,-45.0,0.0,0.0,0.0,34.27253218749016,17.55503396713325,5.765603451830912,2.996352983488261,1.6175811819587385,0.9216368289356186,0.4696068930613701,0.1796334427455131,0.06523024081370812,0.023120137962477593,0.023410451811864838,-0.02363796367326237,-0.046153579388235985,0.05421475916018496,-0.006391443242200652,0.002566717471427854,-0.028354217553776387,8.079073231468904,5.2632758278045655,3.702548290873777,2.4211666362877025,1.3572578775966075,0.7478509544121487,0.42826422854000556,0.2783980754439907,0.1510083692160541,0.11030392523783919,0.06646527116287602,0.038047082123737315,0.04251291374443528,0.020685661685609896,-0.019561003245805626
0.0,28.0,28.0,0.0,120.0,0.0,0.0,0.0,0.0,-107.0,0.0,-45.0,0.0,0.0,0.0,34.27253218749016,17.55503396713325,5.874459180639736,2.9048893143710264,1.6312000512018796,0.8022354680154123,0.36944693056162375,0.19968213497382598,0.05481748776895509,0.038799173406620355,-0.023864239481875243,-0.026910515978052132,0.009014803481789192,-0.06000361904496933,-0.0045569297039617755,-0.04177599528235859,-0.040030815067523456,8.029346387869092,5.2999891461957676,3.644116492912812,2.353907876793138,1.3302213209442033,0.7526816485757177,0.4141102212904131,0.26697517284652333,0.18561684973014345,0.1374852570599574,0.08931354642490574,0.0517455940941894,0.028007041849764432,-0.0007669195798703302,0.012004326766814472
0.0,29.0,29.0,0.0,120.0,0.0,0.0,0.0,0.0,-107.0,0.0,-45.0,0.0,0.0,0.0,34.27253218749016,17.55503396713325,5.844156540285349,2.8938833071644523,1.6144012659200013,0.8668355792070759,0.3498188808941476,0.15764635384490128,0.03032025390422969,0.05223467006898307,0.03706518294497922,0.0118627670652658,0.09198942930264303,-0.032080967882815774,-0.01601000756800663,0.04073287366703198,-0.03175815097738762,8.130011597366948,5.20198023812049,3.6589427118308953,2.285973650769795,1.3152545202727572,0.7427646578433806,0.42501794461634484,0.2413771983457331,0.14391453740025834,0.13814538247141944,0.04388617495486213,0.09829579486092874,0.07674276182184527,0.024711332717487107,0.019698010466664778
0.0,30.0,30.0,0.0,120.0,0.0,0.0,0.0,0.0,-107.0,0.0,-45.0,0.0,0.0,0.0,34.27253218749016,17.55503396713325,5.802226220439046,2.8567276179705954,1.704937009763352,0.8292069860132726,0.3822849136313659,0.10366427877999479,0.06844310523785813,0.056128293385671185,0.006056621633732013,0.006647768945342609,-0.008905599014452953,-0.05397974051870145,0.028369537213059792,-0.05905693454467669,-0.019602127241713563,8.006115224066951,5.172266727590939,3.5754174489201356,2.2712736000883345,1.28490219668656,0.6819654467772795,0.3653565727257005,0.2651890170069672,0.17489253079445286,0.11718713262224638,0.05678805869945634,0.028771725886557575,0.0166206141366634,0.030539503048438735,-0.002661554627820752
0.0,31.0,31.0,0.0,120.0,0.0,0.0,0.0,0.0,-107.0,0.0,-45.0,0.0,0.0,0.0,34.27253218749016,17.55503396713325,5.729254722765149,2.8011142339726725,1.5064524574688063,0.8432296285772276,0.3680039259420023,0.11366537075051217,0.1048979886047054,0.011792741411487943,0.01331176447640259,0.014953518383651922,0.05586007050401848,0.015882709824951335,0.000717227053172111,-0.045400118496387684,-0.06283399891396522,8.0499741508779,5.1589953388104535,3.55021284404836,2.252727086338029,1.2442246102152434,0.6654489247933132,0.4147897483629802,0.2725876667456606,0.20414209772070857,0.12845278611190866,0.08495730478398536,0.039156925001568255,0.04125420904737017,0.010904390316702891,0.010565096489317569
0.0,32.0,32.0,0.0,120.0,0.0,0.0,0.0,0.0,-107.0,0.0,-45.0,0.0,0.0,0.0,34.27253218749016,17.55503396713325,5.72678116123002,2.7819999522114487,1.5556007182935012,0.7349948325894788,0.40450660089994916,0.13437669379630682,0.10640134343949685,0.0009674500753917153,0.046071130996620524,0.014537865028744448,-0.04966448498852377,0.02535457355645361,-0.014356556054177497,-0.037363315990234694,-0.025270640508380834,8.000723023387081,5.1343826894286995,3.501659593874826,2.221307024919119,1.235784386731751,0.6822214158982101,0.4126277150651686,0.24475134654993008,0.11903393003266748,0.12075330464328933,0.09137551038398296,0.061793035510365246,0.008283974121335448,-0.007111628397088895,0.024026199308164384
0.0,33.0,33.0,0.0,120.0,0.0,0.0,0.0,0.0,-107.0,0.0,-45.0,0.0,0.0,0.0,34.27253218749016,17.55503396713325,5.78049018577488,2.714228455403468,1.58907682418102,0.7731400551017777,0.29568429368128757,0.22308452673429108,0.0606262581921497,0.05786687578092553,0.006295967457273316,0.08157225597821331,-0.04465580976904995,0.05935029142151462,0.03322284813102531,0.05954346571929926,0.039789629176199576,8.057315014856695,5.1376144177779794,3.495454292584015,2.1784388975380113,1.2204247361664364,0.6793313070559938,0.3644525556251661,0.21925660396776808,0.12066512941511376,0.13481131487468054,0.08583510075920484,0.0436792682733669,0.03047796725541174,-0.012921591515996086,0.010258403515946498
0.0,34.0,34.0,0.0,120.0,0.0,0.0,0.0,0.0,-107.0,0.0,-45.0,0.0,0.0,0.0,34.27253218749016,17.55503396713325,5.689281472414263,2.789385352032853,1.597628919728247,0.7632910338045834,0.31588769322961024,0.12382388921615292,0.06441058049614502,0.055548710499229104,0.018336556279942975,0.04010297951254147,-0.005139254179835512,-0.024538674417883488,-0.005258457463392069,0.059694301126114735,-0.035563964098199945,8.001024129616225,5.080264125806253,3.424950184869399,2.194225062557181,1.1876754660555744,0.6526725104983608,0.35674415478520016,0.2747941319531422,0.1586799189369977,0.10429597343581362,0.06453111376472238,0.05540280056387278,0.042596418741022005,0.007774302364349808,-0.014000860014366493
0.0,35.0,35.0,0.0,120.0,0.0,0.0,0.0,0.0,-107.0,0.0,-45.0,0.0,0.0,0.0,34.27253218749016,17.55503396713325,5.679535094955789,2.7216782870333147,1.4976794911064133,0.7787273641470996,0.3288328442943506,0.09937983476042046,0.08090889884530922,0.08744862548961027,0.06665961166243133,0.050507424074323556,-0.001356173017996824,-0.04298915987100636,-0.002821343454349435,-0.01979231675459465,-0.00565166353196948,7.939693263498326,5.017677990304247,3.3670613383729195,2.100094620492748,1.1531547670520124,0.5823659414798308,0.3445594318642767,0.21541016320600712,0.16163633794993934,0.09152410027255184,0.062148131911114866,0.010106180865341624,0.09321829383515348,0.015074490012084362,-0.003785429724198976
0.0,36.0,36.0,0.0,120.0,0.0,0.0,0.0,0.0,-107.0,0.0,-45.0,0.0,0.0,0.0,34.27253218749016,17.55503396713325,5.676621048293238,2.64495320477197,1.4022556066010377,0.7242402393742979,0.3218662675602689,0.13600675157502964,0.08123834552310769,0.06523972605525785,0.06384186099097736,0.01980634263569265,0.024406929181404014,0.013318859048176281,0.016740210291338067,0.07907284834231426,0.01612816482295824,8.004574502732504,4.978738711540101,3.34217642676546,2.050047305107494,1.1113108780966923,0.6384809073620268,0.3289485197278239,0.2291432924519953,0.12161289291929955,0.07431044657058056,0.05729109034564244,0.04731654882756001,0.05180034217645156,0.025284023576870943,0.013038806030655225
0.0,37.0,37.0,0.0,120.0,0.0,0.0,0.0,0.0,-107.0,0.0,-45.0,0.0,0.0,0.0,34.27253218749016,17.55503396713325,5.694309147715232,2.6705856168451914,1.474227915890732,0.7167268939506246,0.32106634399663114,0.07884875270685987,0.10108408745986325,-0.002564867767897331,-0.015112969666728562,0.019600599585736816,0.0581796811960127,0.03795606192590214,0.03438062432880057,-0.02789431882688712,0.09017451806255466,7.981671597887452,4.875494322299506,3.256247298639248,2.0481111962497707,1.058879044947391,0.5704812677559681,0.3189347851909805,0.18350237623532142,0.14472631680002998,0.09824713015522504,0.0666215272896445,0.02706930819460416,0.028928846147960832,0.037330020937093374,0.0070113601939495365
0.0,38.0,38.0,0.0,120.0,0.0,0.0,0.0,0.0,-107.0,0.0,-45.0,0.0,0.0,0.0,34.27253218749016,17.55503396713325,5.741602838137557,2.593829758207413,1.4377762894621366,0.679782694324879,0.3093722719551044,0.019225375570790723,0.14902668054868018,-0.02609422057385374,0.026892827951892753,0.06161136124664564,0.0052166053772682835,-0.05500367572497835,-0.024909101616601984,0.02645287985766277,-0.0008780376633604381,7.9392586312030415,4.958358738210633,3.288758646959178,2.0005522725726754,1.0559410637150046,0.5553499451894096,0.30593214660845,0.2009465246937192,0.11795778380362955,0.1115783807587928,0.01913632323555449,0.05609319431244709,0.024241303772914037,0.017751710545216844,0.016653724250976623
0.0,39.0,39.0,0.0,120.0,0.0,0.0,0.0,0.0,-107.0,0.0,-45.0,0.0,0.0,0.0,34.27253218749016,17.55503396713325,5.617793888035384,2.6292473407944517,1.3511632373443077,0.7017166673070961,0.2900099249834165,0.05951488298377798,0.06932602557604615,-0.0015271143118031072,0.04661702272260914,0.04540920154817274,-0.014972398904582324,0.0022700365391688463,0.031177060685663942,0.003578433446363777,0.00478450030708837,7.918769222126389,4.84872947057901,3.2347765938888635,1.9640645241948456,1.0516496730445504,0.5365855583893065,0.29382239406293326,0.19406678863027205,0.16595118180062002,0.09999996798771521,0.09419544514143616,0.041293573541509754,0.042211360147957414,0.012900940271592717,-0.030982970088319108
0.0,40.0,40.0,0.0,120.0,0.0,0.0,0.0,0.0,-107.0,0.0,-45.0,0.0,0.0,0.0,34.27253218749016,17.55503396713325,5.599611436616305,2.525261056536696,1.3714147687144838,0.6677958495981504,0.24121316021827968,0.1429176601827552,0.12875079489823474,0.05209841014625452,-0.030247549928121238,0.050740225593434884,0.01089771035084484,0.011347687418325482,0.052029619767512976,-0.02308816947742976,0.037120329797518815,7.9111730767934025,4.78279413643777,3.1886805446882174,1.9163477312191106,1.0658348629106162,0.5547029980538762,0.305911692178715,0.18769370469220742,0.13924439284681916,0.0663650310477141,0.06407853273392111,0.031142682947233144,0.05213422966762982,0.0025020104278753383,0.016140222091344143
0.0,41.0,41.0,0.0,120.0,0.0,0.0,0.0,0.0,-107.0,0.0,-45.0,0.0,0.0,0.0,34.27253218749016,17.55503396713325,5.6454111830778,2.5607495116817254,1.347706453479087,0.5991751718932037,0.2417823150612242,0.15184388144455999,0.061242218543098234,0.017737815739051088,0.008568485523967526,0.01906903890537072,0.03862999671521846,0.006268052377932841,-0.016668382733894132,0.05616950217266982,0.00849800424994966,7.9427949538540155,4.746203260013673,3.1072669491663945,1.8647053553308564,0.9860310689772362,0.5449161595944431,0.305215926545874,0.17575029428494948,0.12931981005213336,0.05170928452796234,0.0672058136012118,0.018587248578298514,0.05697252462796952,0.03222151156121886,0.009915297531048334
0.0,42.0,42.0,0.0,120.0,0.0,0.0,0.0,0.0,-107.0,0.0,-45.0,0.0,0.0,0.0,34.27253218749016,17.55503396713325,5.594441117866565,2.416280885612444,1.356882728180404,0.5945236707624205,0.24647848356965127,0.11919617443943868,-0.012750889303342207,-0.0023595139444998053,0.052814284728845806,0.03280378414320262,0.022406227768309608,-0.03822239768903513,-0.03933856424012541,0.06777377874365773,0.023220999809558374,7.9076118594160425,4.695554021206816,3.0637621892038593,1.8051033331452007,0.96796823877901,0.5237337988042652,0.26050250542923165,0.18112977692127888,0.0952092382487812,0.08198905194281592,0.05076075495556319,0.05784929757497616,0.03018785033399536,0.04692889699866537,0.03198750470414631
0.0,43.0,43.0,0.0,120.0,0.0,0.0,0.0,0.0,-107.0,0.0,-45.0,0.0,0.0,0.0,34.27253218749016,17.55503396713325,5.608656688067798,2.3482562322002316,1.2632522953992897,0.5812347941076221,0.28541856370373136,0.10106287797803126,0.09618614937019675,0.030067078141792724,0.04220965731565083,-0.0009948853686718613,-0.013580936781745512,0.019358348392938606,0.026559564804799155,0.029942408277544637,0.0036293016866488885,7.817084066165876,4.565757155432286,2.9559343220407044,1.8138288268351412,1.0074764111707,0.5070398776564766,0.2593731719410364,0.19002749892832216,0.09224147944947789,0.07421894591088904,0.03461587394351812,0.042608768943805234,0.010048982537102081,-0.006262391592065604,0.015022312839099383
0.0,44.0,44.0,0.0,120.0,0.0,0.0,0.0,0.0,-107.0,0.0,-45.0,0.0,0.0,0.0,34.27253218749016,17.55503396713325,5.483771891222209,2.364792201953569,1.2243873902430118,0.60095358597361,0.17466145284094178,0.06584301850533203,0.10642720614355221,0.008987518260115962,0.021416156722887804,0.042718338415442016,0.07459622083945411,-0.018480600021639003,0.03524843855547231,-0.0733252678710763,-0.062348447936150624,7.813796245789922,4.611948369186605,2.950115021776713,1.7567454021759568,0.901071336501859,0.48303431333658364,0.2502889097052188,0.19213131687868323,0.13014288731242327,0.13205148975263487,0.07593025240591876,0.04510228192570767,0.03640697326051391,0.007488533436255644,0.03367271875946852
0.0,45.0,45.0,0.0,120.0,0.0,0.0,0.0,0.0,-107.0,0.0,-45.0,0.0,0.0,0.0,34.27253218749016,17.55503396713325,5.519126802452343,2.257520543392056,1.1444300245186896,0.5429214658382898,0.28277659751356427,0.08611010395752676,0.07719268453549283,-0.006751713975542421,0.02881959889422059,0.004600485084597195,-0.009806222699649425,0.045999497190289264,0.03427817508595771,-0.06049706453382163,-0.03552087806229491,7.825021062791083,4.533633409325875,2.9144285761716837,1.7447367376089509,0.9400355753724925,0.4873345006215512,0.24615866830268013,0.19479189452671736,0.10620745610438388,0.08660632623536947,0.05030989933834471,0.0337261158043721,0.05013725123193508,0.033876632799262466,-0.008928433444130881
0.0,46.0,46.0,0.0,120.0,0.0,0.0,0.0,0.0,-107.0,0.0,-45.0,0.0,0.0,0.0,34.27253218749016,17.55503396713325,5.487242769371477,2.3214826689217314,1.1049661173225978,0.5373690475464431,0.13326517957019363,0.07405247010981171,0.0031330966445411237,0.026983245165166696,0.04941796007721231,0.029060073875881533,0.02344193878613543,0.02352330632787655,-0.08681842097967571,-0.015200801943442466,-0.059207981279906424,7.779343229104224,4.460053447781678,2.852156289128328,1.6676940831528586,0.8901846450966078,0.4427403361971445,0.230178811140785,0.1955063592817689,0.12801032711022806,0.11977328119319992,0.06295956869441036,0.008050696355040583,0.02036153312618814,0.03506481813424708,0.016698040169965712
0.0,47.0,47.0,0.0,120.0,0.0,0.0,0.0,0.0,-107.0,0.0,-45.0,0.0,0.0,0.0,34.27253218749016,17.55503396713325,5.46986774864824,2.158719375386881,1.108090597735023,0.5408615512912542,0.2616586093376968,0.11022650591820586,0.038168438575746075,0.06502138777427173,0.031089366290804082,0.05221938885653278,-0.04570216322209173,0.005633610254615258,0.030202037076221287,0.01246867434668121,0.07800329302807074,7.76135467076185,4.418622500635953,2.804308272966367,1.642904683265972,0.8804830184111007,0.45549159094710356,0.25030853979762246,0.1705896173776707,0.09519013335336979,0.05839766541783624,0.050872048523921264,0.044573635112584414,0.03463464162150144,0.027152094845690346,0.020140726310582075
0.0,48.0,48.0,0.0,120.0,0.0,0.0,0.0,0.0,-107.0,0.0,-45.0,0.0,0.0,0.0,34.27253218749016,17.55503396713325,5.436911502410784,2.1444068776592804,1.1155245193368932,0.5692761685938419,0.21587692235962846,0.09967580250603901,0.06633891572650667,0.006995183875633226,0.008650682723362776,-0.019863237915830216,0.006826357952928902,0.04137175350268589,0.01186927069027259,-0.0012691239658237164,-0.004119773994330921,7.746333487476196,4.315822687345536,2.7361034124698604,1.6154332814973498,0.7967166711978805,0.4102577341614225,0.28827015800384004,0.16251231680605416,0.11204091150115507,0.078432811707514,0.0446948305065424,0.05313514204035953,0.025381223690950375,-0.004247039000613609,-0.018391065521030394
0.0,49.0,49.0,0.0,120.0,0.0,0.0,0.0,0.0,-107.0,0.0,-45.0,0.0,0.0,0.0,34.27253218749016,17.55503396713325,5.420061367221566,2.0201416608959275,1.025649135769482,0.5084331218939234,0.26370413324820396,0.1393921003762894,0.060592664242402214,-0.004036672028060965,-0.004210457243978699,-0.0010665915984075219,-0.0016929161780713858,-0.025486458725410464,0.021740181534976633,0.00810609008809111,-0.014884660289374433,7.690486412862239,4.239847994646082,2.6710616513365713,1.5604596526325447,0.8144690928751035,0.4050867357089073,0.263051733931146,0.1347886928308008,0.09963706870070925,0.10283744878028803,0.06084449526766504,0.03952218803493729,-0.03515059361984563,-0.006591151710318691,0.03923502293775296
0.0,50.0,50.0,0.0,120.0,0.0,0.0,0.0,0.0,-107.0,0.0,-45.0,0.0,0.0,0.0,34.27253218749016,17.55503396713325,5.294920366932555,2.007991226401102,1.0237514036467514,0.4812115134168452,0.1855388952907625,0.057710837246293,0.0903366640245358,0.05477597372554979,0.018059259279947875,-0.022872926009526662,-0.044225584231325145,0.029332314797816,0.0848889659086299,-0.022304802309039286,0.012550114111559,7.667096972051795,4.234563157948603,2.611134403292922,1.496852805851895,0.7878842822429386,0.40574605753914905,0.21089969293792593,0.13419995178567376,0.11891997067983101,0.07822602379529879,0.04705384024856366,0.008741610134070089,0.007842924017898514,-0.017322516111528755,0.024179549296817912
0.0,51.0,51.0,0.0,120.0,0.0,0.0,0.0,0.0,-107.0,0.0,-45.0,0.0,0.0,0.0,34.27253218749016,17.55503396713325,5.331847001245599,1.9839559549321673,0.9920895770543385,0.4626313417689815,0.22112376641996206,0.0669569042217124,0.06695821017839598,-0.008125134328029637,0.006743195810792054,0.025731044546731703,0.04211750815989179,0.05495839966223761,0.0016393595471119898,0.001836018680606823,-0.049538153443810316,7.573631889986613,4.15926854800296,2.538842063356172,1.4995661944360603,0.7470910152228514,0.3740682001329865,0.2787744246447302,0.15161350351196373,0.08817434059120412,0.03221377047765942,0.0454804628336495,0.08787964155028072,0.0048062435109808566,-0.008224680686476716,-0.002051809907420432
0.0,52.0,52.0,0.0,120.0,0.0,0.0,0.0,0.0,-107.0,0.0,-45.0,0.0,0.0,0.0,34.27253218749016,17.55503396713325,5.290296496381929,1.9730554722518758,0.9148808986042934,0.36359152359324637,0.16511643367083023,0.07994409723948102,0.018688159543831337,-0.001690820154288751,0.010131263052182189,-0.01820123772173081,-0.0120474204300824,-0.0046069676437437155,0.031081602136870137,-0.003853992611165017,-0.024677934692967463,7.523629532289332,4.070080348451581,2.5170502457909483,1.4514329937948833,0.6874221440593091,0.4085531212351245,0.22184541316554574,0.1290520285718808,0.09860133785451572,0.06895978817639026,0.07585827114234919,0.04737265552577086,0.008755374244917851,0.017083182124819466,0.004256487303766012
0.0,53.0,53.0,0.0,120.0,0.0,0.0,0.0,0.0,-107.0,0.0,-45.0,0.0,0.0,0.0,34.27253218749016,17.55503396713325,5.119786383684181,1.8928619243077105,0.91323635665048,0.4161748555271285,0.19526107782975333,0.02590786416855937,0.045162328169213076,0.0318972589956233,0.04096653601153664,0.04912968757393936,0.04096265420876476,-0.03923848670701937,-0.026289361478180114,0.03465944643690375,-0.013952988454210218,7.534861996601627,3.9585610229602657,2.416861282553919,1.396618606916291,0.7395883284662146,0.38527439445513795,0.20626235911693788,0.10809105069944017,0.09265838178597154,0.04123640143150463,0.0735863646048237,-0.005005201869660508,0.0058144698930926095,0.020705714349425808,0.015531781109825997
0.0,54.0,54.0,0.0,120.0,0.0,0.0,0.0,0.0,-107.0,0.0,-45.0,0.0,0.0,0.0,34.27253218749016,17.55503396713325,5.184320854011,1.7747322330304967,0.8941095102723787,0.46299850773872,0.16403946469894032,0.1319588550860274,0.045524882325859786,0.013682767942782404,-0.004948739854754304,-0.002283517575950451,0.013639311105672909,-0.02094485392424326,0.02249588768735301,-0.015544950737141829,-7.021888671927606e-05,7.450938546492897,3.9176151816623492,2.401902050051036,1.357829956237426,0.7279556258434305,0.34444808570540714,0.1917929445444677,0.10858436231689325,0.08240987595111833,0.10126190553362685,0.030065517732451114,-0.015555177812900674,0.005626332211445912,-0.0035692542790966494,-0.0031347982112683833
0.0,55.0,55.0,0.0,120.0,0.0,0.0,0.0,0.0,-107.0,0.0,-45.0,0.0,0.0,0.0,34.27253218749016,17.55503396713325,5.078171360139817,1.7588036483867104,0.8416085064443559,0.3642847529123454,0.1128772096792424,0.02319494785783832,0.01622614375838569,0.03015308023865966,-0.06420106045020689,0.01465358970132653,0.0694447321200648,0.06303105317213946,0.00046048354345112896,0.06948164509399457,-0.004474207879639362,7.415430348626291,3.8519340357809,2.293521893718905,1.2639825457321474,0.7080664599700547,0.3161928216571523,0.22956690480176437,0.1136689302202712,0.12568989582055487,0.059880627317473366,0.040323549186084294,0.02081551378837664,0.005023336207679157,-0.02265297561023273,-0.004344951689411483
0.0,56.0,56.0,0.0,120.0,0.0,0.0,0.0,0.0,-107.0,0.0,-45.0,0.0,0.0,0.0,34.27253218749016,17.55503396713325,4.918025948940618,1.6817465089960904,0.8067768977029003,0.408294228982225,0.14980043762159556,-0.03658550590511645,-0.011515761012240198,0.045901591684607994,0.0006205302723275696,0.007332779592458983,-0.03792653508809841,0.0695014431526594,0.0212989477805779,0.09566642563682891,0.001967922073385456,7.359106880236629,3.7263676724355634,2.2152823658589003,1.3053852461129778,0.6963933475104906,0.30979667409156686,0.22150870506302345,0.13291844062905148,0.09739650866277375,0.04157788458624194,0.019105959071018856,0.03742087196144709,0.012423001840707402,0.019178214912499957,0.002207012373530233
0.0,57.0,57.0,0.0,120.0,0.0,0.0,0.0,0.0,-107.0,0.0,-45.0,0.0,0.0,0.0,34.27253218749016,17.55503396713325,4.917704929109189,1.7010039196609057,0.7204783864177083,0.29983471821568286,0.14515321562408817,0.07348115991289235,-0.031861870943817025,0.028820303402241863,0.057099860620393295,0.08409424066611033,0.0009477399995130279,0.03045535215396361,0.022009524966662197,-0.05111521215952815,0.05225486377200719,7.246447935155897,3.67005879929282,2.1908681601833666,1.2123735274645546,0.6737140040479584,0.3535596924476195,0.16453639495722183,0.09503976894395012,0.10586519625095847,0.03839125315326944,0.010593748181164361,0.0701779107222962,0.026707546457107822,0.01742546380305955,0.014026488868552671
0.0,58.0,58.0,0.0,120.0,0.0,0.0,0.0,0.0,-107.0,0.0,-45.0,0.0,0.0,0.0,34.27253218749016,17.55503396713325,4.821370960810763,1.6673833831657703,0.7832709999048716,0.40072596483389517,0.17572871346742525,0.08722155260535638,-0.015045703237860437,0.029986225616895054,0.05283657757472592,-0.007480581857734798,0.03500071730603451,0.039081195595189064,-0.04625584270309187,-0.025825194016840088,-0.025454849156846537,7.201677310275402,3.5631802880564742,2.0916744150007283,1.184614699778755,0.6145212567336393,0.3410975387295905,0.16539670436785073,0.12597665568669567,0.1124992287322895,0.0703432591819923,0.06310669840578087,0.019747850579904597,0.03809296961343653,-0.022280056534529552,0.055111080034498765
0.0,59.0,59.0,0.0,120.0,0.0,0.0,0.0,0.0,-107.0,0.0,-45.0,0.0,0.0,0.0,34.27253218749016,17.55503396713325,4.740275062321293,1.5764331878089715,0.675819416750958,0.3609918201748036,0.17794438995626732,-0.025309004617300318,0.05538293926811991,0.0014078191547220228,-0.029683085080970582,0.020038194271328982,0.029824633512633647,-0.037355522285112845,0.05453095622999453,0.0026152641025872963,-0.010331372792944472,7.168064227959941,3.49806070036662,2.0276067776936757,1.2044967933344966,0.6014078637529484,0.28200268465207656,0.20003424408976417,0.11871464943165644,0.08947028865774119,0.047243870559458015,0.013119063651345703,0.06932190082451711,0.04247470126627974,-0.002456356598821199,0.010885890199634807
0.0,60.0,60.0,0.0,120.0,0.0,0.0,0.0,0.0,-107.0,0.0,-45.0,0.0,0.0,0.0,34.27253218749016,17.55503396713325,4.69863590922697,1.4887320682428322,0.7352285547589089,0.31156491389064905,0.10299253303112091,0.05971977694353776,-0.008470744697755776,0.06294251194861142,-0.007396061728749575,-0.02763546269898525,0.03190745814936374,-0.0009251677804056656,-0.01596722021235706,-0.011213777712722733,0.03184698693723941,7.090451903675139,3.4127177086730627,1.9566746119405096,1.1363837063103643,0.5834813412573465,0.2899264968554272,0.17485992304753634,0.07349680564316524,0.09924132668032713,0.07306018135479919,0.04321556670332728,0.01782112478339659,0.022630936817946118,0.004060492890908051,0.030620945022429975
0.0,61.0,61.0,0.0,120.0,0.0,0.0,0.0,0.0,-107.0,0.0,-45.0,0.0,0.0,0.0,34.27253218749016,17.55503396713325,4.647311395514729,1.4089723591102716,0.625407422646157,0.2820854396521043,0.11467419185437183,0.05731579286287443,-0.007320514485557303,0.014973330106194198,0.01812043536872874,7.739996276943419e-05,-0.00802997804023801,-0.06090286290405192,0.03313930362645265,-0.09486052136662461,-0.02503182127343501,6.963768924300419,3.302118514371463,1.9246801427664955,1.084760729628232,0.5856460585548735,0.28488654374954014,0.14844756868201112,0.09887716225085288,0.07476111880842654,0.05506436291160738,0.040594586472916215,0.06426266532356058,0.03378002039005973,-0.014384143601099528,-0.011611943187356904
0.0,62.0,62.0,0.0,120.0,0.0,0.0,0.0,0.0,-107.0,0.0,-45.0,0.0,0.0,0.0,34.27253218749016,17.55503396713325,4.544239531861322,1.401908671007793,0.6046181641251435,0.302082304301308,0.08117433346517819,0.056301253503239425,0.029227037490266256,0.08451392027571943,0.020978066605973934,0.0037522330433724755,0.05735417711658752,-0.01635459326279012,0.025529945366343443,-0.022760083153942783,0.01702196427129844,6.880361829346239,3.1997960758182518,1.8344703168180485,1.009892853021577,0.5555779788834346,0.27711171959890174,0.15939986113882476,0.09868564558655527,0.08269108220166906,0.06049755112863307,0.024678566636247637,0.0136300375672435,-0.0057593848621523905,0.012605828676914293,0.028008463065270165
0.0,63.0,63.0,0.0,120.0,0.0,0.0,0.0,0.0,-107.0,0.0,-45.0,0.0,0.0,0.0,34.27253218749016,17.55503396713325,4.428403038057437,1.3334875110583861,0.616662004464213,0.2658224001902726,0.1459548270231416,0.05111931714128446,0.025482260188053045,0.040903712980525114,0.021490359989139386,-0.031508003932823395,0.04353353659163528,-0.03331514513637662,-0.020147750583878268,0.009004553013785749,0.004781602182158602,6.719254779955624,3.0826831576758025,1.7871624265348558,1.004794156729653,0.4553533724931182,0.2537733624833822,0.15760103893470123,0.09063372627428272,0.0651839362426743,0.0914218571593145,0.0401533744153683,0.051708995161784004,0.017178721168247094,0.015388994895479569,-0.011834098233950026
0.0,64.0,64.0,0.0,120.0,0.0,0.0,0.0,0.0,-107.0,0.0,-45.0,0.0,0.0,0.0,34.27253218749016,17.55503396713325,4.262010848672419,1.2678634259756538,0.5002358042374465,0.200372052409401,0.13332577403264295,-0.034757612989139285,0.018709144546422342,-0.008477766031244907,0.024780612288077635,0.05049715648125559,0.01393149507226766,-0.05745070420138131,-0.016827260964716442,0.016815973910564778,-0.012582688555015665,6.638720596231015,3.006204411906319,1.7116498411443113,0.9569900890636132,0.5237802246755048,0.29330436201598553,0.16412054942708534,0.08760288374718621,0.08111103829373711,0.03309263268146795,0.0457771481862716,0.02263351899021543,0.008965162175254516,-0.008335936065351745,0.019136974872121477
0.0,65.0,65.0,0.0,120.0,0.0,0.0,0.0,0.0,-107.0,0.0,-45.0,0.0,0.0,0.0,34.27253218749016,17.55503396713325,4.135650240999995,1.1608513663185396,0.5050985131502574,0.22698244637459292,0.13605567367487562,0.10014727472955008,0.019807907119559792,0.049025140728399474,-0.015671053059741237,0.03385214784430711,-0.06737695061526601,-0.05016885170565419,-0.03917507220901538,-0.07713769850877653,-0.004391544669157622,6.565172807493951,2.8797044070921114,1.6811302692442398,0.991444584332901,0.4884645232557392,0.22870287414220275,0.13009473124237406,0.08401690643498855,0.10711688111215747,0.031076023130303734,0.06610886304223568,0.01571119015426561,0.04066135468876094,0.03668996358515933,-0.001255769067084544
0.0,66.0,66.0,0.0,120.0,0.0,0.0,0.0,0.0,-107.0,0.0,-45.0,0.0,0.0,0.0,34.27253218749016,17.55503396713325,4.032303075260095,1.095933634299489,0.48562486950670436,0.24171099084576753,0.038169769421247154,0.04683337089550689,0.04352548001246834,0.0538378565390764,0.03196082745338673,0.049283331086012586,-0.08666526827080563,0.02257129993231904,0.0470667176336087,0.017791155751165324,0.020837272622560597,6.454860431538979,2.7046023621547195,1.609956369171991,0.8888655996591074,0.44363732654230814,0.25237369522271197,0.1639126621664652,0.12068706614285594,0.1020449804577371,0.02215923386310882,0.016677500479211623,-0.017630121921314378,0.0067476167716868825,-0.0029057746192073484,0.00023843816194356153
0.0,67.0,67.0,0.0,120.0,0.0,0.0,0.0,0.0,-107.0,0.0,-45.0,0.0,0.0,0.0,34.27253218749016,17.55503396713325,3.961233108868562,1.053090672424466,0.3826374784583033,0.18061679359440547,0.07044184690495459,0.029939526715656223,-0.0032130547984675108,0.03980634010432931,0.09274288305554183,0.05430995683859639,-0.02691146453642117,0.06516771716965684,0.027425042132083008,-0.0286042886259112,0.016570612388386544,6.313261026758926,2.6105805882601847,1.5160650242875446,0.8736780224629009,0.47091509247632,0.2667673025968978,0.1530962700335565,0.07820000371436188,0.06337772927755485,0.04236243044538709,-0.016753064565125368,0.07984977103337139,0.024542061357134284,0.05567635731254972,-0.00354621704576725
0.0,68.0,68.0,0.0,120.0,0.0,0.0,0.0,0.0,-107.0,0.0,-45.0,0.0,0.0,0.0,34.27253218749016,17.55503396713325,3.821002815755571,0.9902721236066077,0.44670997961224557,0.26717622085378634,0.09639655829833758,0.02489697355148114,0.044471934181856465,0.08451809197482374,0.011161130369753573,-0.02748629406787386,-0.04896836149663565,0.00260788902303809,0.02062717793901047,-0.07527124010449013,-0.005142898992814089,6.138017652226105,2.569458116488932,1.449279283396139,0.8391030858777128,0.4280619043160525,0.2607441617103769,0.14760347769512516,0.1043606540222778,0.06190882630110793,0.03685516710850586,0.050086787556591544,0.043435446839064085,0.03897299228305843,0.05542902131290972,-0.002687861553593217
0.0,69.0,69.0,0.0,120.0,0.0,0.0,0.0,0.0,-107.0,0.0,-45.0,0.0,0.0,0.0,34.27253218749016,17.55503396713325,3.6333588402816583,0.9106277076056016,0.3091216052809811,0.17013941646061834,0.09018138236798713,0.022744998999674918,0.020513932987325966,0.06092361005733195,0.08640508276955097,0.03171407287488138,0.046052075400975945,0.019398897938252745,-0.03362977298983184,0.011239246131756891,-0.030152683076157052,5.9830882896247966,2.41772557422103,1.3597482281691584,0.8027765356206288,0.45186384365575677,0.25700841561419735,0.13732199285495353,0.0845622843513186,0.04682540987362456,0.05165410218258668,0.042615888683657586,0.021641237541687123,0.02144831549250498,0.009885809984012919,0.02534307654467561
0.0,70.0,70.0,0.0,120.0,0.0,0.0,0.0,0.0,-107.0,0.0,-45.0,0.0,0.0,0.0,34.27253218749016,17.55503396713325,3.506870599059983,0.8543647714671257,0.3496776991577546,0.17130359080900442,0.077862629252935,0.06414679542405022,0.13126068304943486,0.03372412036578243,-0.02127075122861609,-0.023210911753960305,0.028116764002538954,-0.04447863577904478,-0.0332461341333587,-0.06424644677786892,-0.0017376896020417929,5.809400557846171,2.372710957337541,1.3356637665899271,0.7804630185148731,0.3630999904505899,0.1912543994949834,0.16223843200664373,0.09323521243541871,0.054535330713097685,0.057991774095740016,0.04565410326474663,0.03320794617248934,0.0007920018207144275,0.010666009052635466,-0.046293441558895046
0.0,71.0,71.0,0.0,120.0,0.0,0.0,0.0,0.0,-107.0,0.0,-45.0,0.0,0.0,0.0,34.27253218749016,17.55503396713325,3.3249287126784246,0.8332060797264131,0.3770051375600283,0.13851578477435517,0.0590793791193656,0.026340536606895976,0.0074268862458529376,-0.04358878905165797,0.035236779744277656,-0.0020207785438817938,-0.011125291033350805,0.06877487785559265,-0.0590883648818303,-9.58299701512154e-05,0.007799028142560174,5.545438628335435,2.2044840110748165,1.2594317140725466,0.7032770484921926,0.4018923444948154,0.2223500482283769,0.1404703611783215,0.06404621773518038,0.08385586590695653,0.060159035652070196,0.03054975673403237,0.019137837541397227,0.03251253125107794,-0.0036677901244026086,-0.009459466330176546
0.0,72.0,72.0,0.0,120.0,0.0,0.0,0.0,0.0,-107.0,0.0,-45.0,0.0,0.0,0.0,34.27253218749016,17.55503396713325,3.149599974844068,0.6777938604691076,0.3500552975115871,0.1144882576833437,0.09657575872705579,-0.02143670647051508,0.003679248024984434,0.0178980150805109,-0.010609214278911662,0.021822145855147364,0.01627448928800015,0.0066547855526653005,0.028285527357106058,0.027450234286869622,-0.026636777135326663,5.455790360003187,2.0874394263924496,1.1822896446874938,0.68368608443478,0.3650661500123505,0.20136952197499766,0.12222436287851267,0.10050318972527957,0.0666123275054958,0.019425860658914818,0.01661890084642907,0.010365250421157145,-0.005500675614946363,-0.0013650945488409335,0.006703439219467871
0.0,73.0,73.0,0.0,120.0,0.0,0.0,0.0,0.0,-107.0,0.0,-45.0,0.0,0.0,0.0,34.27253218749016,17.55503396713325,2.9281317614397406,0.6061506051871165,0.2583281911849806,0.12402419307364151,0.0657470854662364,-0.030317346407815353,0.07156035891089077,0.05831486583286807,0.010419279932135934,-0.03296017134131789,0.027142687704455506,-0.019657994489843986,0.02319015333843421,-0.07513768735232093,-0.007702256539483179,5.208142980922103,1.9777677588499047,1.1638503061047314,0.6586182855863115,0.34047920307073215,0.2355107942466192,0.12699073285472082,0.08277872473058125,0.08673175172470837,0.04980794554566844,0.022490750835398345,0.0021729274931090066,0.03291246938193952,0.023685756304861173,-0.027706355155745713
0.0,74.0,74.0,0.0,120.0,0.0,0.0,0.0,0.0,-107.0,0.0,-45.0,0.0,0.0,0.0,34.27253218749016,17.55503396713325,2.7354043110106234,0.6323327474522537,0.32761739823759106,0.17758281272351545,0.05562105049252136,-0.034869541266486885,0.06265969537590341,0.01874499528358258,0.005855537420338561,-0.014462399966697861,0.008190059338088545,-0.03711941955111634,0.09529142740768372,-0.04292263876710293,0.01209007936413444,5.008206841810169,1.9547026670410639,1.1555635226942598,0.6496640280938387,0.38663068428130254,0.2102579365552563,0.1294310036834594,0.07176664555766919,0.043393926480185925,0.0405775712472743,0.016641988164629973,0.020160392360003443,0.006609315724656694,0.004743604599224366,0.05129872307024755
0.0,75.0,75.0,0.0,120.0,0.0,0.0,0.0,0.0,-107.0,0.0,-45.0,0.0,0.0,0.0,34.27253218749016,17.55503396713325,2.5172915800590046,0.6193622646625365,0.2828855835901183,0.14900441636313128,0.12776578560266733,0.03452059015474109,0.034251414359986604,0.010672084159910314,0.019573980391141322,-0.07365534340822207,0.016784340348028483,0.08137875833541444,0.03049438140991384,-0.01519209164079892,0.04873657100136034,4.701814652805348,1.7973022285561775,1.0781882000521739,0.6115093044287828,0.3353293230082872,0.19448621158691942,0.10876882245602075,0.0332678789320884,0.07867736529434013,0.018499704533654827,0.04186227324484445,0.008849050984688035,0.005652403287477336,-0.03072436306875074,-0.02898131286512269
0.0,76.0,76.0,0.0,120.0,0.0,0.0,0.0,0.0,-107.0,0.0,-45.0,0.0,0.0,0.0,34.27253218749016,17.55503396713325,2.3357707718109593,0.5525667856400157,0.2443044991660983,0.15222745677869404,0.05811574595026473,0.09145402136839548,-0.003285733336939765,0.018678834515091215,0.004903775210599882,0.015570214900495443,-0.04838956511367846,-0.03473178804020209,-0.030386783438213143,-0.00989095019657382,-0.0030179010677463198,4.491423914367799,1.714093910693239,1.0196525706367703,0.569940991856597,0.32049165671183655,0.18072712728438037,0.11794819662453206,0.06013591957347915,0.06218207815286033,0.03097178707080237,0.02024827449947253,0.04552741126840418,0.0072371970101898185,0.0006285170352699244,-0.06623816877491216
0.0,77.0,77.0,0.0,120.0,0.0,0.0,0.0,0.0,-107.0,0.0,-45.0,0.0,0.0,0.0,34.27253218749016,17.55503396713325,2.0823074733958813,0.5367812029317974,0.20344977178643717,0.13047183005804364,0.085583585307609,0.06793391158633914,0.022279416807797735,-0.035237584060414856,-0.018854412945527387,0.0033065832794869124,0.01284428410922595,0.004891355310733508,-0.05096619239755714,0.03346893649090514,-0.009836803083798145,4.163293244581008,1.588384198338394,0.9286844741528905,0.5860300214405574,0.3488040868631514,0.2049801973381233,0.07392610535351965,0.08046318939763512,0.07055322740860254,0.03444125512351907,0.006646547740910287,0.005921593788597341,0.003373054557545942,-0.006677346136924637,0.0030240121330947726
0.0,78.0,78.0,0.0,120.0,0.0,0.0,0.0,0.0,-107.0,0.0,-45.0,0.0,0.0,0.0,34.27253218749016,17.55503396713325,1.9164110779717567,0.4640661235647623,0.2363491889053621,0.08712314565819546,0.03583170798420704,0.009174872234778877,0.04300984821304703,0.047104830615068004,-0.026747275582305288,0.01302509398772094,0.0017676734281775353,-0.015227230369624761,0.0013311024964072003,-0.005641314790512032,-0.009152610356654165,3.896048111588801,1.5214277702069579,0.878282809442908,0.5376641027118916,0.2824052162057372,0.185984944428154,0.12030985413852872,0.1201286521687189,0.015033938264139131,0.04179713574746223,0.038718948291491515,0.0399881813197455,0.03106492897578265,-0.007591157986172362,0.01453015561498535
