Line_number,Fiducial,Easting,Northing,Height,Elevation,tx_pitch,tx_roll,tx_yaw,txrx_dx,txrx_dy,txrx_dz,rx_pitch,rx_roll,rx_yaw,PX,PZ,S0X_time_1.086e-05,S0X_time_3.256e-05,S0X_time_5.426e-05,S0X_time_8.680e-05,S0X_time_1.411e-04,S0X_time_2.279e-04,S0X_time_3.689e-04,S0X_time_5.860e-04,S0X_time_9.115e-04,S0X_time_1.411e-03,S0X_time_2.192e-03,S0X_time_3.418e-03,S0X_time_5.339e-03,S0X_time_8.301e-03,S0X_time_1.338e-02,S0Z_time_1.086e-05,S0Z_time_3.256e-05,S0Z_time_5.426e-05,S0Z_time_8.680e-05,S0Z_time_1.411e-04,S0Z_time_2.279e-04,S0Z_time_3.689e-04,S0Z_time_5.860e-04,S0Z_time_9.115e-04,S0Z_time_1.411e-03,S0Z_time_2.192e-03,S0Z_time_3.418e-03,S0Z_time_5.339e-03,S0Z_time_8.301e-03,S0Z_time_1.338e-02
0.0,0.0,0.0,0.0,120.0,0.0,0.0,0.0,0.0,-107.0,0.0,-45.0,0.0,0.0,0.0,34.27253218749016,17.55503396713325,5.882553229630937,3.3634865661513613,2.279280378716557,1.4791395409271644,0.88107955907174,0.5042323072181613,0.27651643360090145,0.14841130009722364,0.07897375751268917,0.040773252686450004,0.02016457496751536,0.009554022645441872,0.00434673696635272,0.001898612941886697,0.0006628458754571698,8.121375666504534,5.7906611689641,4.51572258435017,3.3870460174498382,2.3756666761755945,1.6035553276100984,1.041924333128433,0.6626926807941954,0.41668184514813467,0.25488376608508473,0.15015528948061968,0.08511151809543879,0.0464850613647858,0.024610554617550157,0.011894400008422247
0.0,1.0,1.0,0.0,120.0,0.0,0.0,0.0,0.0,-107.0,0.0,-45.0,0.0,0.0,0.0,34.27253218749016,17.55503396713325,5.881864872523889,3.3487484492956288,2.2490414223844106,1.4409298194271927,0.8460017418351159,0.47957542211823684,0.2623358144743841,0.14118304345672905,0.0755032188099928,0.039204386462733005,0.01949954151107436,0.009287882606190609,0.004245498507668371,0.0018617707626329384,0.0006518515033905482,8.120881679411157,5.774980038807047,4.4773052570808805,3.328972447660489,2.3109724532759945,1.5482078269573718,1.0030859946761885,0.6386597812829146,0.4027877950637885,0.2473259911524012,0.14628784795565686,0.08323874675934952,0.045621688689085255,0.024228100918344205,0.011743623224562388
0.0,2.0,2.0,0.0,120.0,0.0,0.0,0.0,0.0,-107.0,0.0,-45.0,0.0,0.0,0.0,34.27253218749016,17.55503396713325,5.881163144136862,3.3350631838627374,2.221496866925439,1.4061080096372354,0.8137679759871038,0.45671201776177445,0.24909077197422333,0.13438928247342394,0.07222030323123496,0.03771015950343352,0.018861753196717283,0.009030978351625564,0.004147205747143331,0.0018258145185026985,0.0006410226511877057,8.12037328763512,5.760235872508022,4.441750521792014,3.2751451949741637,2.25050226963241,1.4960211700161683,0.9662318004014495,0.615748135204507,0.38948306181309844,0.24005383476506925,0.14254771208540754,0.08141867740316092,0.044778815856613155,0.023853225957783393,0.011595196417844764
0.0,3.0,3.0,0.0,120.0,0.0,0.0,0.0,0.0,-107.0,0.0,-45.0,0.0,0.0,0.0,34.27253218749016,17.55503396713325,5.880427766140201,3.3220903708210856,2.196088442474496,1.374165046879493,0.7840636003728287,0.43548184029454934,0.23670591178182473,0.1279974169922717,0.06911217061058599,0.03628603325530557,0.018249773115777152,0.008782894149508487,0.004051745726168025,0.0017907164294323336,0.0006303606351767217,8.119834626423613,5.746117518705729,4.408478826535551,3.2249702187547866,2.1938523388563174,1.4467706645715035,0.93123785951793,0.5938914881412264,0.37673530931884985,0.2330531929782435,0.1389293792637815,0.0796493584469718,0.04395580096839285,0.023485732731818337,0.011449077953122647
0.0,4.0,4.0,0.0,120.0,0.0,0.0,0.0,0.0,-107.0,0.0,-45.0,0.0,0.0,0.0,34.27253218749016,17.55503396713325,5.8796423737122625,3.3095714704059143,2.1723653682792055,1.3446623366702672,0.7566038671859485,0.4157385717310924,0.22511312633735014,0.12197801805504323,0.06616714261700954,0.03492783761347377,0.017662266256662208,0.008543239823232997,0.0039590116270091895,0.00175644993124365,0.000619866129165232,8.119252635607415,5.732386031735231,4.377017324404213,3.177926523718615,2.140645204443044,1.400242574016765,0.8979886835017756,0.5730287053124797,0.36451461280428166,0.22631091999970596,0.13542767579659382,0.0779289387621735,0.04315203027413801,0.02312543139887156,0.011305226855331895
0.0,5.0,5.0,0.0,120.0,0.0,0.0,0.0,0.0,-107.0,0.0,-45.0,0.0,0.0,0.0,34.27253218749016,17.55503396713325,5.878792776082945,3.2973060743209466,2.1499624647680373,1.3172241969122742,0.7311329781938188,0.39734865341879083,0.2142506275442365,0.11630441353732623,0.06337456321193538,0.033631731199441336,0.017097989846701446,0.008311648578391282,0.0038689022798005833,0.0017229896009735026,0.000609539290741944,8.118615752349992,5.718853247348004,4.3469779746985004,3.1335600244859276,2.0905321976746607,1.3562346384090185,0.8663763346924175,0.5531031986273038,0.35279320933646957,0.21981473848415925,0.13203772981044382,0.07625566047793313,0.04236691644280682,0.022772138911814784,0.011163602790966967
0.0,6.0,6.0,0.0,120.0,0.0,0.0,0.0,0.0,-107.0,0.0,-45.0,0.0,0.0,0.0,34.27253218749016,17.55503396713325,5.877865929703486,3.2851357691728538,2.128582496582787,1.2915299036092542,0.707422482717445,0.38019030042667934,0.20406216748272268,0.11095234219377566,0.060724680031980074,0.03239416697858996,0.016555784853015156,0.008087775077572535,0.0037813217264019016,0.0016903110882042442,0.0005993798535032174,8.117913152617476,5.705367418790896,4.318040051625951,3.0914762628818813,2.0431941414811545,1.314556451558665,0.8362997581489982,0.5340624391911736,0.3415452814038683,0.21355316055049983,0.12875494702849405,0.07462785246477127,0.041599896973859234,0.02242567867525901,0.011024166058203532
0.0,7.0,7.0,0.0,120.0,0.0,0.0,0.0,0.0,-107.0,0.0,-45.0,0.0,0.0,0.0,34.27253218749016,17.55503396713325,5.876849285954577,3.2729329790263555,2.1079821980505815,1.267306090601331,0.685269280426171,0.3641526234402125,0.19449640368785232,0.10589966336389357,0.05820854304789508,0.031211862380086147,0.016034568475500433,0.007871293728053771,0.0036961788330664765,0.0016583910518221498,0.0005893871969306336,8.117134275473251,5.691803409797511,4.2899363989179164,3.0513330359755195,1.9983408368209523,1.2750296397885275,0.8076642498084757,0.5158575419234899,0.3307467684495008,0.2075154180116552,0.12557498904452183,0.07304392441382455,0.04085043273363551,0.022085880225722946,0.0108868775843171
0.0,8.0,8.0,0.0,120.0,0.0,0.0,0.0,0.0,-107.0,0.0,-45.0,0.0,0.0,0.0,34.27253218749016,17.55503396713325,5.875730347151694,3.2605931141289903,2.0879613040231435,1.244319857982541,0.6644934323435971,0.3491348133477674,0.1855063749654369,0.10112611214796505,0.055817917562398595,0.030081773229159364,0.015533327492606101,0.007661897152273914,0.0036133869447784353,0.0016272071016806857,0.0005795604013669202,8.116268499966333,5.6780558682932,4.262442691276155,3.0128334747706482,1.9557097663725498,1.2374878368001319,0.7803810226008304,0.49844291084738235,0.3203752021607928,0.2016914005497555,0.12249375378375589,0.07150236144290911,0.040118006603849586,0.021752578932692224,0.01075169892818695
0.0,9.0,9.0,0.0,120.0,0.0,0.0,0.0,0.0,-107.0,0.0,-45.0,0.0,0.0,0.0,34.27253218749016,17.55503396713325,5.874496344295387,3.2480289497674546,2.0683539590160813,1.2223727136209368,0.6449359308165332,0.33504536761786874,0.17704906164670048,0.09661309183836035,0.053545209168995696,0.029001070920388023,0.0150511123431753,0.007459294815742081,0.0035328635751257238,0.0015967377447005634,0.0005698982927698239,8.115304907729163,5.664034381822298,4.235369045621874,2.9757198097414115,1.9150643414638293,1.201776476315301,0.7543668409264237,0.4817759352088187,0.3104095620273529,0.19607160076731006,0.11950735788552821,0.07000171917072287,0.039402122231160665,0.021425615718842928,0.010618592285783048
0.0,10.0,10.0,0.0,120.0,0.0,0.0,0.0,0.0,-107.0,0.0,-45.0,0.0,0.0,0.0,34.27253218749016,17.55503396713325,5.873133989054385,3.235166535024524,2.0490219811823835,1.2012953478490467,0.6264565304965443,0.3218013510599083,0.16908501062598374,0.09234349694847205,0.051383398736335566,0.0279671223568385,0.014587031846204988,0.007263211791184677,0.0034545301265660427,0.0015669623349891788,0.0005603994802153111,8.114232095528664,5.649659973358853,4.2085534472499155,2.939767890943228,1.8761919234761195,1.1677524363412535,0.7295437017552171,0.4658167279809501,0.3008301482525265,0.1906470652076423,0.11661212078096538,0.06854061920892619,0.03870230286841149,0.02110483679792286,0.010487520496967898
0.0,11.0,11.0,0.0,120.0,0.0,0.0,0.0,0.0,-107.0,0.0,-45.0,0.0,0.0,0.0,34.27253218749016,17.55503396713325,5.87162927254464,3.2219421688780496,2.029849564478947,1.1809431803808945,0.6089317034297507,0.309327690318912,0.16157801059304722,0.08830156142901908,0.049325985834291826,0.026977472258288206,0.01414024847565914,0.0070733876412385575,0.0033783116368143657,0.0015378610276035626,0.0005510623880730536,8.113038017914088,5.634862519283083,4.181856572801425,2.9047824428126816,1.8389017763927078,1.135283571744706,0.7058385470970918,0.4505278995648443,0.2916184695706374,0.18540935057246,0.11380455027048703,0.0671177450286476,0.03801809029933712,0.020790093428928038,0.010358447052384295
0.0,12.0,12.0,0.0,120.0,0.0,0.0,0.0,0.0,-107.0,0.0,-45.0,0.0,0.0,0.0,34.27253218749016,17.55503396713325,5.86996729426262,3.2083001331038563,2.0107390950465875,1.1611925935157947,0.5922527527012099,0.2975565041921348,0.1544948067428813,0.08447272767203962,0.04736693929886482,0.026029827505925848,0.013709974120098533,0.006889575404906091,0.003304136547863448,0.0015094147356375478,0.0005418852841226862,8.111709848468616,5.619578812256368,4.155157689538026,2.87059299260153,1.8030230518124213,1.104248169496464,0.6831829976328059,0.4358743606272303,0.28275714390202955,0.1803504844767955,0.11108132943218102,0.0657318381635842,0.037349043839585566,0.020481241685361126,0.010231336099561396
0.0,13.0,13.0,0.0,120.0,0.0,0.0,0.0,0.0,-107.0,0.0,-45.0,0.0,0.0,0.0,34.27253218749016,17.55503396713325,5.868132110584561,3.1941909700965554,1.991607832589151,1.1419377601431888,0.5763240992502526,0.2864264723930737,0.1478048471302504,0.0808435327270142,0.045500653858541594,0.02512204324370265,0.013295466267322347,0.006711540675357832,0.003231936494753878,0.001481605090329477,0.000532866304392231,8.11023385457762,5.6037510874916405,4.128351394793082,2.8370504035815953,1.7684028685692517,1.0745343506739624,0.6615131037975646,0.4218231480595883,0.27422981035300315,0.17546293012432237,0.10843930472159685,0.06438169471573098,0.036694739407531464,0.020178142238633692,0.010106152504520531
0.0,14.0,14.0,0.0,120.0,0.0,0.0,0.0,0.0,-107.0,0.0,-45.0,0.0,0.0,0.0,34.27253218749016,17.55503396713325,5.866106595588651,3.1795701587635135,1.9723852659842074,1.1230879797096553,0.5610617437446248,0.2758822445666636,0.1414800550441338,0.0774015087885894,0.04372191194000366,0.024252110496719805,0.012896024563566878,0.006539060758467643,0.0031616461117648428,0.001454414403942371,0.0005240034772033979,8.10859530994649,5.587325964306199,4.1013451238708125,2.804024048298053,1.734904525165423,1.0460393610906467,0.6407691518276665,0.4083432555665557,0.26602105496225725,0.17073955365304738,0.10587547524476529,0.06306616212270211,0.03605476865743331,0.019880660157433522,0.009982862814953255
0.0,15.0,15.0,0.0,120.0,0.0,0.0,0.0,0.0,-107.0,0.0,-45.0,0.0,0.0,0.0,34.27253218749016,17.55503396713325,5.863872310682342,3.1643970859788726,1.9530109967507696,1.1045654424564044,0.5463918955490521,0.2658738915437691,0.13549462301583542,0.07413509567622688,0.042025849870804294,0.02341814511786563,0.012510987700556572,0.0063719239037915865,0.003093202853962332,0.001427825635163375,0.0005152947431810149,8.106778270590251,5.570253236117417,4.074056605118856,2.7713988645446364,1.7024058383334306,1.0186692642979709,0.6208952740285009,0.3954055515672939,0.25811632547196206,0.16617359833276427,0.10338698242803927,0.06178413623206647,0.03542873818006304,0.019588664705082675,0.009861432037306906
0.0,16.0,16.0,0.0,120.0,0.0,0.0,0.0,0.0,-107.0,0.0,-45.0,0.0,0.0,0.0,34.27253218749016,17.55503396713325,5.86140937700436,3.1486342378535523,1.9334330366840589,1.0863033538660645,0.5322497601936033,0.25635639854993525,0.1298248251423724,0.0710335634350319,0.040407927867513106,0.022618377882552852,0.01213973059580488,0.0062099285994516445,0.00302654683268483,0.0014018223568066414,0.0005067379673090028,8.104765571574596,5.55248545489745,4.0464125913196245,2.739073673246143,1.6707976629579706,0.9923380049035214,0.6018393875251721,0.3829825997763735,0.25050188357328484,0.16175865552443788,0.10097110139159837,0.06053455850810408,0.034816268744467645,0.019302029170011215,0.009741826973149171
0.0,17.0,17.0,0.0,120.0,0.0,0.0,0.0,0.0,-107.0,0.0,-45.0,0.0,0.0,0.0,34.27253218749016,17.55503396713325,5.858696350252498,3.1322465603541767,1.9136064354848228,1.0682443620468765,0.5185784703714623,0.24728919871975857,0.12444884608994684,0.06808694326686165,0.03886390333201428,0.021851145581994712,0.011781661832674038,0.0060528829247623265,0.002961620663428468,0.0013763887256752628,0.0004983309583688467,8.1025386756384,5.5339772321271825,4.018347310644551,2.70695921678158,1.6399825363640017,0.9669669266231584,0.5835529221571926,0.3710485669219073,0.24316474281173256,0.15748864208316626,0.09862523249380756,0.05931641350660605,0.034216994598614985,0.019020630691617274,0.009624015085832504
0.0,18.0,18.0,0.0,120.0,0.0,0.0,0.0,0.0,-107.0,0.0,-45.0,0.0,0.0,0.0,34.27253218749016,17.55503396713325,5.85571009547449,3.1152009491942594,1.8934921695069031,1.0503392369680742,0.5053281464683161,0.23863574663358322,0.11934662432974727,0.06528596573725982,0.03738980695836138,0.02111488300111293,0.011436221330274238,0.005900603954955574,0.002898369324991521,0.0013515094543668914,0.0004900714834148146,8.100077558005383,5.514684748527758,3.9898013212974686,2.6749766220745506,1.6098734676844644,0.9424842063280896,0.5659906112685418,0.3595791210403076,0.23609261718202304,0.15335777885509363,0.0963468937044145,0.05812872651966956,0.03363056281384064,0.018744350099537174,0.009507964495936952
0.0,19.0,19.0,0.0,120.0,0.0,0.0,0.0,0.0,-107.0,0.0,-45.0,0.0,0.0,0.0,34.27253218749016,17.55503396713325,5.852425660414932,3.097465840590099,1.8730562397536235,1.0325457605620285,0.4924550727924737,0.23036312958449792,0.11449970829453494,0.06262200517222022,0.03598192129248645,0.02040811567096951,0.011102878218854584,0.005752917212880329,0.002836740028865927,0.001327169784886124,0.0004819572806066261,8.097360588876745,5.4945653435970545,3.960720569085331,2.6430560943868318,1.5803928567098624,0.9188243186310208,0.5491102904019328,0.34855133805877125,0.2292738745027177,0.14936057105752273,0.09413371358986428,0.056970561390048934,0.033056632671737224,0.01847307176187205,0.009393643974952326
0.0,20.0,20.0,0.0,120.0,0.0,0.0,0.0,0.0,-107.0,0.0,-45.0,0.0,0.0,0.0,34.27253218749016,17.55503396713325,5.848816146361605,3.0790108815389132,1.8522689382630095,1.0148277931080574,0.47992097624754126,0.22244171430566573,0.10989112424689898,0.060087029401225,0.03463676142771431,0.019729453304059293,0.010781128898824873,0.005609656163229372,0.002776682097971501,0.0013033554639116942,0.0004739860704970163,8.094364412684385,5.473577167909381,3.931055609058395,2.611135806533461,1.5514715313321723,0.895927533395821,0.5328727042120216,0.33794361552115065,0.22269749397802632,0.14549179033570028,0.09198342485031613,0.05584101848015908,0.03249487509016411,0.01820668344174728,0.009281022937409707
0.0,21.0,21.0,0.0,120.0,0.0,0.0,0.0,0.0,-107.0,0.0,-45.0,0.0,0.0,0.0,34.27253218749016,17.55503396713325,5.844852575676726,3.0598066635567305,1.8311042507976567,0.9971544871270467,0.46769239519787675,0.2148448266997894,0.10550525483453345,0.05767355415251875,0.03335105756675133,0.0190775838333223,0.010470495264208438,0.005470661745345521,0.0027181468539374605,0.0012800527195982578,0.0004661555658772383,8.091063823312975,5.451678885494768,3.900760960702779,2.5791609538513884,1.5230478924806234,0.873739447112398,0.5172413218728775,0.3277355925412978,0.21635302743821014,0.14174645831575303,0.0898938583547268,0.05473923278233013,0.03194497208534904,0.01794507616164258,0.009170071431698247
0.0,22.0,22.0,0.0,120.0,0.0,0.0,0.0,0.0,-107.0,0.0,-45.0,0.0,0.0,0.0,34.27253218749016,17.55503396713325,5.84050375537297,3.0398245076936914,1.8095393705445322,0.9794996248779089,0.45574012741252296,0.20754846203787505,0.10132772744149095,0.05537460152613871,0.03212173922074444,0.0184512679863687,0.010170523073636502,0.005335781941102437,0.002661087512220594,0.0012572482397954464,0.0004584634802905402,8.08743163458857,5.42882941674422,3.869794572632178,2.547082950011569,1.4950671557532846,0.852210548029305,0.5021821611757528,0.31790807524812875,0.21023056382203215,0.13811983149561938,0.08786293762631099,0.05366437215823062,0.03140661626730738,0.01768814407497348,0.009060760129799082
0.0,23.0,23.0,0.0,120.0,0.0,0.0,0.0,0.0,-107.0,0.0,-45.0,0.0,0.0,0.0,34.27253218749016,17.55503396713325,5.835736136215369,3.0190362915342512,1.787554302809014,0.961841059587445,0.44403874713181285,0.20053102310496665,0.09734531154391028,0.0531836620660131,0.030945920849516254,0.017849334335456796,0.00988078045395909,0.005204871374695873,0.002605459084407029,0.0012349291515687175,0.0004509075353125833,8.083438545386898,5.404987714562966,3.8381173777690254,2.5148587427659406,1.4674806795567843,0.8312958141964285,0.4876636214176187,0.3084429671278869,0.2043206965263492,0.134607387335247,0.08588867373591053,0.05261563569653254,0.030879510366013847,0.017435784344430123,0.00895306031614487
0.0,24.0,24.0,0.0,120.0,0.0,0.0,0.0,0.0,-107.0,0.0,-45.0,0.0,0.0,0.0,34.27253218749016,17.55503396713325,5.830513666909597,2.9974143110730993,1.765131544811115,0.9441602438908325,0.43256618241948974,0.1937730838419251,0.09354582435565337,0.05109466002920188,0.029820888775234984,0.01727067477146422,0.009600856523297329,0.005077790941531706,0.0025512182871212648,0.00121308300193738,0.0004434854667150234,8.079052998739176,5.380112568174253,3.805692923964361,2.4824502320718196,1.4402453703307425,0.8109543430681199,0.47365632508384004,0.29932320377906096,0.19861449330064465,0.13120481142401902,0.0839691605654315,0.051592252178977706,0.030363366786011016,0.017187897026641523,0.008846943875813976
0.0,25.0,25.0,0.0,120.0,0.0,0.0,0.0,0.0,-107.0,0.0,-45.0,0.0,0.0,0.0,34.27253218749016,17.55503396713325,5.824797642980756,2.974931172033259,1.7422558279267366,0.9264418317247303,0.4213033450071987,0.1872571761449793,0.08991804411132406,0.049101921512152175,0.028744089225473623,0.016714240356704137,0.009330360121848033,0.004954407463659009,0.0024983234570017257,0.0011916977397284255,0.00043619502961510286,8.074241034308635,5.354162430242488,3.772487068128924,2.4498237758374692,1.413323156259667,0.7911490109958599,0.46013296823833466,0.2905326916808923,0.19310346840927042,0.12790798561797337,0.0821025704075561,0.05059347864591234,0.029857907187312793,0.01694438496274766,0.008742383282231956
0.0,26.0,26.0,0.0,120.0,0.0,0.0,0.0,0.0,-107.0,0.0,-45.0,0.0,0.0,0.0,34.27253218749016,17.55503396713325,5.8185465499598505,2.951559706499904,1.718913912264526,0.908673342197894,0.41023380579047275,0.1809675976233675,0.08645163038622047,0.047200145143707135,0.027713117381580513,0.016179037517091113,0.009068918640080295,0.004834593369460121,0.002446734471265125,0.0011707616984758208,0.0004290340027215044,8.068966133577582,5.3270952639613895,3.7384677244234403,2.4169497708738046,1.3866805217035605,0.7718461607530839,0.4470681794560791,0.2820562506425166,0.1877795568224765,0.12471297705198961,0.08028714987154457,0.04961859905323094,0.02936286209064902,0.016705153674505493,0.008639351584542126
0.0,27.0,27.0,0.0,120.0,0.0,0.0,0.0,0.0,-107.0,0.0,-45.0,0.0,0.0,0.0,34.27253218749016,17.55503396713325,5.811715900480184,2.9272729117807974,1.6950944254829559,0.8908448758487608,0.39934350999012147,0.17489023826832042,0.08313705089818961,0.04538437509510626,0.026725707325164067,0.01566412453903697,0.008816176935103797,0.00471822639551936,0.0023964126734082494,0.0011502635802821848,0.0004220001917745823,8.06318905702224,5.2988684075278565,3.7036046590260225,2.383802298595052,1.3602880953734455,0.7530153151472938,0.4344383870676815,0.27387955965097077,0.18263509022997274,0.12161602794318499,0.07852121606810268,0.048666923013403314,0.028877970505266325,0.01647011126557297,0.008537822394777862
0.0,28.0,28.0,0.0,120.0,0.0,0.0,0.0,0.0,-107.0,0.0,-45.0,0.0,0.0,0.0,34.27253218749016,17.55503396713325,5.80425806484474,2.902043909242276,1.6707877393499198,0.8729488752554722,0.38862052675160913,0.16901242414543768,0.07996551427713129,0.04364997619028026,0.025779722789742596,0.015168608340643607,0.0085717963270022,0.004605189308802058,0.0023473208036425197,0.0011301924405766786,0.00041509143227702887,8.056867672460008,5.269438454055903,3.6678693255695074,2.3503588266504485,1.3341202860194752,0.7346289147583299,0.4222216944341934,0.265989105875934,0.17766277469845587,0.11861354611132624,0.07680315304909965,0.047737784613957876,0.02840297957764481,0.01623916832765059,0.008437769874945766
0.0,29.0,29.0,0.0,120.0,0.0,0.0,0.0,0.0,-107.0,0.0,-45.0,0.0,0.0,0.0,34.27253218749016,17.55503396713325,5.796122094559133,2.8758459215587355,1.645985878819076,0.8549799232487894,0.3780548286227182,0.1633227763810178,0.07692890832530694,0.04199261092697944,0.02487314863670575,0.014691641490399351,0.008335453667820996,0.004495369647448309,0.002299422933693113,0.0011105376737093886,0.0004083055916101404,8.04995677362983,5.238761145519311,3.631234736607174,2.3165999590427964,1.3081549600772922,0.716662077875217,0.4103977629314696,0.2583721366199773,0.17285566981814823,0.11570209615052077,0.0751314084804236,0.04683054130739793,0.027937644259641976,0.01601223785118081,0.008339168724122568
0.0,30.0,30.0,0.0,120.0,0.0,0.0,0.0,0.0,-107.0,0.0,-45.0,0.0,0.0,0.0,34.27253218749016,17.55503396713325,5.787253538232979,2.8486522673904795,1.620682459412833,0.8369345730395411,0.3676380969339547,0.15781108386703044,0.07401974332640152,0.040408218241813794,0.024004082985001587,0.014232419449717293,0.00810684047666958,0.00438865947864673,0.0022526844056215928,0.0010912889993246995,0.0004016405706167163,8.042407887908814,5.206791279776249,3.5936753674884843,2.2825092284422857,1.2823731563299186,0.6990923807714836,0.3989477022959927,0.2510166140271778,0.16820716920340104,0.11287839119376365,0.07350449052844456,0.04594457286707472,0.027481726994685016,0.01578923514032678,0.008241994165637296
0.0,31.0,31.0,0.0,120.0,0.0,0.0,0.0,0.0,-107.0,0.0,-45.0,0.0,0.0,0.0,34.27253218749016,17.55503396713325,5.77759424913616,2.8204363729968924,1.5948726495155332,0.8188112054481984,0.35736354961497024,0.15246818825633704,0.07123109999395745,0.03889299387118078,0.02317072993268705,0.013790178018378202,0.007885662135090721,0.004284955172192024,0.0022070717743549032,0.001072436449452227,0.0003950943047238491,8.034169071875658,5.17348263014548,3.5551670898607877,2.2480729253704244,1.2567588331883814,0.6818996565479938,0.3878539679666686,0.2439111723821348,0.16371098222943395,0.11013928521838656,0.0719209649425215,0.045079280404041536,0.027034997420759863,0.01557007773196939,0.008146221934404054
0.0,32.0,32.0,0.0,120.0,0.0,0.0,0.0,0.0,-107.0,0.0,-45.0,0.0,0.0,0.0,34.27253218749016,17.55503396713325,5.767082183554992,2.791171800719337,1.5685531548332061,0.8006099091465978,0.347225788422127,0.1472858799579238,0.06855658168050574,0.03744337217597839,0.022371392815933602,0.013364190964318795,0.007671637137470789,0.004184157188475158,0.00216255275364891,0.0010539703562813768,0.0003886647646859653,8.025184693200565,5.138787877387178,3.5156871326989787,2.2132799597393196,1.231298644678109,0.665065810874493,0.3771002650479766,0.237045077846702,0.15936111690174287,0.10748176584609317,0.07037945231773468,0.0442340854403571,0.02659723208904227,0.015354685318486916,0.008051828264462624
0.0,33.0,33.0,0.0,120.0,0.0,0.0,0.0,0.0,-107.0,0.0,-45.0,0.0,0.0,0.0,34.27253218749016,17.55503396713325,5.755651188927829,2.7608322946474337,1.5417222228010035,0.7823323804164136,0.3372206629351775,0.14225680397027415,0.06599027049772317,0.03605600931158731,0.021604467957462847,0.012953767821257787,0.0074644963917834,0.00408616987975085,0.002119096165214557,0.0010358813405611607,0.0003823499570006763,8.015395197070522,5.102658554305322,3.475214069336751,2.1781217509092063,1.2059817416441403,0.6485746530694425,0.36667145851777044,0.23040819049426686,0.1551518637670349,0.10490294759622643,0.06887862552355062,0.04340842903470429,0.026168214197118254,0.015142979674094415,0.007958789876769531
0.0,34.0,34.0,0.0,120.0,0.0,0.0,0.0,0.0,-107.0,0.0,-45.0,0.0,0.0,0.0,34.27253218749016,17.55503396713325,5.74323078075427,2.729391844498888,1.5143796653162396,0.7639818391136517,0.3273451491087495,0.1373743744796215,0.0635266870388791,0.034727767632093356,0.020868438862686644,0.012558251839313654,0.0072639825664784895,0.003990901303647335,0.0020766718907781105,0.0010181603005915154,0.0003761479252382785,8.004736844986,5.065045004048306,3.4337278402559392,2.1425921470901717,1.1807995897300945,0.6324117429488523,0.35655348897172023,0.2239909285141442,0.1510777807980982,0.10240006555071467,0.06741720728679117,0.04260177095623564,0.025747733335884142,0.014934884584530617,0.007867083960708263
0.0,35.0,35.0,0.0,120.0,0.0,0.0,0.0,0.0,-107.0,0.0,-45.0,0.0,0.0,0.0,34.27253218749016,17.55503396713325,5.72974591082091,2.696824767624312,1.4865268931901259,0.7455629571142647,0.3175972424794256,0.1326326965293217,0.06116075352304469,0.033455701240382246,0.020161870818023297,0.012177018077832582,0.007069849479104579,0.0038982630481177137,0.002035250826827045,0.001000798401769913,0.00037005675255314015,7.993141452295793,5.025896350637432,3.3912097790671134,2.1066873600845484,1.1557458166513388,0.616564246692846,0.3467332944810882,0.21778423446854123,0.14713367914065598,0.09997046941124281,0.06599396791346145,0.04181358890414126,0.025335585249047922,0.014730325779908602,0.0077766881655927916
0.0,36.0,36.0,0.0,120.0,0.0,0.0,0.0,0.0,-107.0,0.0,-45.0,0.0,0.0,0.0,34.27253218749016,17.55503396713325,5.715116710448744,2.663105810419999,1.458166976098112,0.7270818033450822,0.3079758565084805,0.1280264966481725,0.05888775958774356,0.03223704260749878,0.01948340587450565,0.011809471622493137,0.006881861525002894,0.0038081700665245724,0.0019948048419377524,0.0009837870666456483,0.00036407455384400547,7.980536124665947,4.985160486024941,3.3476426413687106,2.0704059098832794,1.130816087788666,0.6010207999882263,0.3371987383684734,0.21177954345408895,0.14331460966341453,0.09761161791827072,0.06460772313886862,0.041043377769809666,0.02493157160439082,0.014529230870538772,0.007687580612819151
0.0,37.0,37.0,0.0,120.0,0.0,0.0,0.0,0.0,-107.0,0.0,-45.0,0.0,0.0,0.0,34.27253218749016,17.55503396713325,5.699258223813723,2.6282102741206397,1.4293047132250447,0.7085457940317067,0.2984807333473985,0.123551058615773,0.05670333111981363,0.031069190131537316,0.018831758176773194,0.011455045921133819,0.006699793141380694,0.003720540522518117,0.001955306736403245,0.0009671179654678664,0.0003581994802545059,7.966842891371435,4.942784077007377,3.303010739181161,2.0337486191666008,1.106007955580565,0.5857713957119245,0.32793853921429006,0.20596875312022134,0.13961585037265684,0.0953210735622873,0.06325733210844237,0.04029064893564699,0.02453549977667807,0.014331529285570953,0.007599739855085168
0.0,38.0,38.0,0.0,120.0,0.0,0.0,0.0,0.0,-107.0,0.0,-45.0,0.0,0.0,0.0,34.27253218749016,17.55503396713325,5.682080123992459,2.5921141617494357,1.399946713862455,0.6899636515531691,0.28911236303686927,0.11920216456503539,0.05460340162487107,0.029949696621614473,0.018205709601417572,0.011113201229871913,0.006523428303963362,0.003635295643955129,0.0019167302040244566,0.0009507830071876551,0.00035242971799494385,7.951978372565918,4.898712587606658,3.257300030493998,1.996718598076753,1.0813207553679394,0.5708072687707273,0.31894220746996343,0.2003441954046882,0.1360328944579991,0.09309649762687824,0.06194169546283239,0.039554929612364204,0.024147182640600784,0.014137152214289092,0.007513144876356234
0.0,39.0,39.0,0.0,120.0,0.0,0.0,0.0,0.0,-107.0,0.0,-45.0,0.0,0.0,0.0,34.27253218749016,17.55503396713325,5.663486406687604,2.5547943514336464,1.3701014930962003,0.6713453696704761,0.27987190840992354,0.1149760413967331,0.052584185888397895,0.028876258609286134,0.017604105692109035,0.010783423157888876,0.006352560054397232,0.0035523595850492115,0.0018790497959224267,0.000934774330878575,0.0003467634876538792,7.93585339464422,4.85289032453479,3.2104982529807184,1.9593212502616741,1.0567555025913271,0.5561207924069573,0.3101999856743548,0.19489860990043342,0.1325614390312174,0.09093564550409669,0.060659753529710383,0.038835762209705506,0.023766438373627005,0.013946032549909665,0.007427775081867708
0.0,40.0,40.0,0.0,120.0,0.0,0.0,0.0,0.0,-107.0,0.0,-45.0,0.0,0.0,0.0,34.27253218749016,17.55503396713325,5.643375060588653,2.516228797889375,1.3397795796538758,0.6527021833174279,0.27076113544340563,0.11086931168734852,0.050642155776428624,0.027846706431953045,0.01702585186560655,0.010465221304247064,0.006186990055849847,0.0034716592962304774,0.0018422408862389644,0.0009190842975662067,0.0003411990433644261,7.918372566283366,4.805260507581974,3.1625950834072776,1.9215642917350297,1.0323147989394796,0.5417053818140548,0.3017027925591708,0.18962511876445362,0.12919737449160743,0.08883636227059573,0.05941048461276085,0.03813270373895173,0.023393090268064756,0.013758104835757871,0.007343610288495847
0.0,41.0,41.0,0.0,120.0,0.0,0.0,0.0,0.0,-107.0,0.0,-45.0,0.0,0.0,0.0,34.27253218749016,17.55503396713325,5.621637711664752,2.4763967648695226,1.3089936352066123,0.6340465414975294,0.2617823481138199,0.10687894862441973,0.04877401800147844,0.026858995031742338,0.016469909868471334,0.01015812797975684,0.006026528174724479,0.0033931244011695338,0.001806279639590666,0.0009037054824338412,0.0003357346718141431,7.899433809595153,4.755765368664939,3.113582323679066,1.8834577810922406,1.0080027458808842,0.5275554042679349,0.29344217077134027,0.18451720308398945,0.12593677447900783,0.08679657850655914,0.05819290337123001,0.03744532524515441,0.023026966551781086,0.01357330521369003,0.007260630715444795
0.0,42.0,42.0,0.0,120.0,0.0,0.0,0.0,0.0,-107.0,0.0,-45.0,0.0,0.0,0.0,34.27253218749016,17.55503396713325,5.5981592385930705,2.4352790917022826,1.2777585843758392,0.6153920818886458,0.2529383269229965,0.10300223455790157,0.046976693694876906,0.025911195417852886,0.015935294466138547,0.009861697007569371,0.00587099208659007,0.003316687080470414,0.0017711429801573115,0.0008886306673784004,0.00033036869110048727,7.878927840164791,4.704346283979809,3.063454114626588,1.8450141596602416,0.9838248641245322,0.5136660950509173,0.2854102379584468,0.17956868062001152,0.12277588637891104,0.08481430634110892,0.05700605928396547,0.03677321126721413,0.022667900217062012,0.01339157137463699,0.007178816975173865
0.0,43.0,43.0,0.0,120.0,0.0,0.0,0.0,0.0,-107.0,0.0,-45.0,0.0,0.0,0.0,34.27253218749016,17.55503396713325,5.572817357007877,2.3928584977345686,1.2460917546446126,0.5967536053973923,0.24423227023421568,0.09923672295920154,0.04524729959261697,0.025001486751295876,0.015421070347892028,0.009575502596336395,0.005720206904750044,0.003242281961540189,0.001736808562316197,0.0008738528339073016,0.0003250994503880297,7.856737598978027,4.65094396900389,3.0122072060871714,1.8062483083413332,0.9597879948722572,0.5000334879776726,0.2775996377087731,0.17477368591128264,0.11971112210120392,0.08288763575289315,0.05584903518583807,0.036115959324768916,0.02231572885725759,0.013212842510989796,0.00709815019505533
0.0,44.0,44.0,0.0,120.0,0.0,0.0,0.0,0.0,-107.0,0.0,-45.0,0.0,0.0,0.0,34.27253218749016,17.55503396713325,5.545482172113452,2.3491199297962493,1.2140130249487249,0.5781470472359534,0.23566773753806963,0.09558020407591221,0.04358313051787085,0.024128149024289103,0.014926349237873195,0.009299138277979272,0.00557400483069243,0.0031698460139965843,0.001703254742764773,0.0008593651563428861,0.00031992533289302763,7.8327376730603,4.595498853295767,2.9598414086301092,1.7671776573090885,0.9359000783118601,0.4866544027231225,0.2700034753279848,0.1701266574663339,0.11673904798644537,0.08101473131070709,0.05472094584150678,0.035473179433549405,0.021970294511281418,0.013037059269922128,0.007018612861373703
0.0,45.0,45.0,0.0,120.0,0.0,0.0,0.0,0.0,-107.0,0.0,-45.0,0.0,0.0,0.0,34.27253218749016,17.55503396713325,5.516015678857887,2.304050944640332,1.1815449814827665,0.5595894590789418,0.2272485976894653,0.09203066843748135,0.0419816447752442,0.023289556079567342,0.014450287173809254,0.009032215923536546,0.005432224818918822,0.003099318451931577,0.001670460553651521,0.0008451609953500198,0.00031484473229880005,7.806793322329799,4.537950714863303,2.906359191743161,1.7278220350353126,0.9121706717175954,0.4735261299118625,0.2626153621993782,0.16562229184287114,0.11385638313277292,0.07919382768625685,0.05362093680099452,0.034844493620765235,0.021631443511234194,0.012864163714199729,0.006940185436260011
0.0,46.0,46.0,0.0,120.0,0.0,0.0,0.0,0.0,-107.0,0.0,-45.0,0.0,0.0,0.0,34.27253218749016,17.55503396713325,5.484271249579389,2.2576421599057985,1.14871308182245,0.5410989660146092,0.21897897190901108,0.08858628107888027,0.040440448242261846,0.022484169485780085,0.013992081976971825,0.008774364795130192,0.005294712267890867,0.003030640638945638,0.0016384056775184696,0.0008312338916995775,0.0003098560790670661,7.778759957866425,4.478239695095423,2.8517667889102727,1.6882039627224004,0.8886102400945776,0.4606466301714065,0.25542928620998034,0.16125555592045587,0.11105998490714711,0.07742322769266818,0.05254818296655934,0.034229535500264495,0.021299026342658765,0.01269409927525801,0.006862850015830884
0.0,47.0,47.0,0.0,120.0,0.0,0.0,0.0,0.0,-107.0,0.0,-45.0,0.0,0.0,0.0,34.27253218749016,17.55503396713325,5.450093063715686,2.2098877466275586,1.115545821158185,0.5226947327938559,0.2108631826634375,0.08524535201518572,0.03895728154670097,0.021710532590451193,0.013550970878814149,0.008525230666516363,0.005161318722670148,0.002963755999479617,0.0016070704230426052,0.0008175775603313436,0.0003049578290429812,7.748482151752633,4.416306456466951,2.7960743023976784,1.6483486413944752,0.8652303089957545,0.448014377741757,0.24843960846373864,0.1570216601316279,0.10834684416712871,0.07570129883681075,0.05150188746826241,0.033627949841398164,0.0209728975065123,0.012526810714540657,0.00678658904479818
0.0,48.0,48.0,0.0,120.0,0.0,0.0,0.0,0.0,-107.0,0.0,-45.0,0.0,0.0,0.0,34.27253218749016,17.55503396713325,5.413315502186009,2.1607859853032036,1.0820749014251263,0.5043969199216438,0.20290570151495765,0.08200631032431982,0.03753000786201344,0.02096726507697807,0.013126228297560674,0.008284474991279931,0.0050319015946615675,0.0028986099342114984,0.0015764357019880547,0.0008041858846593269,0.00030014846301097903,7.71579264140199,4.3520926609834225,2.739296110328557,1.6082840183907325,0.8420433935173707,0.4356282993804968,0.2416410301926935,0.15291604302426617,0.1057140784717576,0.07402647045098427,0.05048128053282587,0.03303939216395759,0.02065291538802784,0.01236224408468225,0.006711385307293233
0.0,49.0,49.0,0.0,120.0,0.0,0.0,0.0,0.0,-107.0,0.0,-45.0,0.0,0.0,0.0,34.27253218749016,17.55503396713325,5.373762502988573,2.1103398873148076,1.0483353997686304,0.48622663166602137,0.19511109708655291,0.07886768012688511,0.036156601735502523,0.020253057917834424,0.012717163755198081,0.008051774118484421,0.004906323896176631,0.0028351497396286716,0.001546483007203506,0.0007910529111178972,0.0002954264868288522,7.68051122046706,4.285541542797163,2.6814513098172754,1.568040851236803,0.819062925057014,0.423487715637102,0.2350285617318927,0.1489343567552172,0.10315892566053442,0.0723972309693605,0.04948561840629356,0.03246352835122665,0.020338942131018993,0.012200346692164219,0.006637221917932909
0.0,50.0,50.0,0.0,120.0,0.0,0.0,0.0,0.0,-107.0,0.0,-45.0,0.0,0.0,0.0,34.27253218749016,17.55503396713325,5.331246880929981,2.0585578871636936,1.0143659329001802,0.4682058544458126,0.1874839829136023,0.07582805834320797,0.034835138875335535,0.01956666869640694,0.01232311992547826,0.007826818552637957,0.004784453988864006,0.0027733245315179947,0.001517194391601821,0.0007781728439262542,0.00029079043210908324,7.6424435052237865,4.21659858964846,2.622564196496617,1.5276527662023633,0.7963031748485055,0.41159228421030986,0.2285974934331069,0.14507245346577968,0.10067873778091621,0.07081212534083997,0.04851418232735522,0.03190003428013193,0.020030843517342068,0.012041067061369957,0.006564082313448527
0.0,51.0,51.0,0.0,120.0,0.0,0.0,0.0,0.0,-107.0,0.0,-45.0,0.0,0.0,0.0,34.27253218749016,17.55503396713325,5.285569616657955,2.0054546109747453,0.9802088131161293,0.45035738401182207,0.18002896502432983,0.07288609413057325,0.033563786829294784,0.018906917271955533,0.011943470804231918,0.007609312255093329,0.004666165345153694,0.0027130851721439025,0.001488552448072184,0.0007655400400728951,0.00028623885722103213,7.60137956505435,4.145212349716067,2.562664780124999,1.4871563084876347,0.7737791733269,0.3999419451491551,0.22234336840538726,0.1413263724927686,0.09827097534600451,0.06926975257058546,0.04756627754843114,0.031348595467549964,0.019728488851248983,0.011884354899976695,0.006491950245229602
0.0,52.0,52.0,0.0,120.0,0.0,0.0,0.0,0.0,-107.0,0.0,-45.0,0.0,0.0,0.0,34.27253218749016,17.55503396713325,5.236519123097388,1.9510517265367826,0.9459101908247647,0.4327047397992018,0.17275058916828143,0.0700404699238993,0.03234079649435851,0.018272681764035285,0.011577619993880751,0.0073989719842011475,0.004551336321900424,0.002654384200892058,0.001460540290262592,0.0007531490044973675,0.0002817703481184897,7.557092405538334,4.071335382559937,2.5017893350582012,1.4465909805642079,0.7515066244232589,0.38853686770417784,0.21626195698277179,0.13769232837184983,0.09593320190518909,0.06776876338301946,0.046641232401809854,0.030808906731894545,0.019431750848371798,0.011730161065617396,0.0064208097730068196
0.0,53.0,53.0,0.0,120.0,0.0,0.0,0.0,0.0,-107.0,0.0,-45.0,0.0,0.0,0.0,34.27253218749016,17.55503396713325,5.18387050125511,1.8953788796767361,0.9115201773466413,0.4152720648101589,0.16565328769373408,0.06728988402108091,0.03116449440186045,0.017662894834417672,0.01122499909460003,0.007195526671748022,0.004439849945494724,0.002597175768182159,0.001433141534194483,0.0007409943854672015,0.0002773835183031852,7.509336292779475,3.9949253751115834,2.439980983143861,1.405999264726097,0.7295018139476934,0.3773773986806205,0.210349232831179,0.13416669959263866,0.09366307891154,0.06630785799956165,0.04573839740834091,0.030280671869166914,0.019140505529114695,0.0115784375337556,0.006350645259601143
0.0,54.0,54.0,0.0,120.0,0.0,0.0,0.0,0.0,-107.0,0.0,-45.0,0.0,0.0,0.0,34.27253218749016,17.55503396713325,5.127384802575068,1.8384747208822747,0.8770929405162464,0.3980840093994773,0.15874132616097833,0.06463303467027687,0.030033275727976982,0.01707654024610265,0.010885066195083908,0.00699871683338517,0.004331593707746499,0.0025414155724580905,0.001406340280652082,0.0007290709701345854,0.00027307700719979717,7.457844908080408,3.91594644610468,2.377290304968278,1.365426625387067,0.70778151129591,0.36646401218986147,0.2046013506176026,0.13074601806768119,0.09145836087066364,0.06488578402483683,0.04485714442633738,0.02976360334270455,0.018854632116216623,0.01142913736671063,0.006281441366185872
0.0,55.0,55.0,0.0,120.0,0.0,0.0,0.0,0.0,-107.0,0.0,-45.0,0.0,0.0,0.0,34.27253218749016,17.55503396713325,5.066808333849274,1.780388019817055,0.8426867527935769,0.3811656043963239,0.1520187471659914,0.06206860641183855,0.028945597827002047,0.0165126496954293,0.010557304456712952,0.006808294010293577,0.004226459372165399,0.0024870608000079225,0.001380121098332478,0.0007173736802629188,0.0002688494942875483,7.402329279674965,3.8343707188052365,2.3137760147066593,1.324921444016444,0.6863628806738054,0.35579725662889916,0.19901462571408726,0.12742695930319706,0.0893168907317143,0.06350133444325437,0.04399686583638368,0.02925742198643692,0.01857401293618482,0.011282214683781301,0.006213183015883951
0.0,56.0,56.0,0.0,120.0,0.0,0.0,0.0,0.0,-107.0,0.0,-45.0,0.0,0.0,0.0,34.27253218749016,17.55503396713325,5.001872015510968,1.7211788685950178,0.808364005058527,0.3645421118171415,0.14548931546654253,0.059595257367912435,0.02789997457479593,0.015970299849685288,0.010241220789891812,0.0066240202400458794,0.0041243427898135674,0.0024340700675517853,0.0013544690076829824,0.0007058975681286913,0.0002646996847832935,7.342475681693196,3.750179944894041,2.2495055015873175,1.2845350725280387,0.665263324593926,0.34537771756123503,0.1935855134356456,0.124206333130833,0.08723659562025407,0.06215334568497846,0.04315697376973513,0.028761856718628274,0.01829853332487575,0.01113762463243412,0.006145855464717981
0.0,57.0,57.0,0.0,120.0,0.0,0.0,0.0,0.0,-107.0,0.0,-45.0,0.0,0.0,0.0,34.27253218749016,17.55503396713325,4.9322908276436355,1.66092000853392,0.7741911869055962,0.3482388290382231,0.13915647416679414,0.05721160545016967,0.026894971631744174,0.015448609627069428,0.009936344595199362,0.0064456675604968065,0.004025143722807565,0.002382403367743005,0.001329369465329239,0.0006946378125684153,0.000260626278638822,7.277943167192038,3.6633676254356127,2.184555539693027,1.244321677034724,0.6445003882890559,0.335205965150425,0.18831059184199725,0.1210810751597996,0.08521548270746539,0.06084069581611795,0.04233689936201929,0.028276644269452623,0.018028081536237688,0.010995323360475914,0.006079444249013901
0.0,58.0,58.0,0.0,120.0,0.0,0.0,0.0,0.0,-107.0,0.0,-45.0,0.0,0.0,0.0,34.27253218749016,17.55503396713325,4.857763481677446,1.599698198294845,0.740238753062135,0.3322809069812726,0.13302328792576443,0.05491621963465014,0.02592920170798568,0.014946737695842677,0.009642226595021357,0.00627301753453919,0.00392876567794285,0.002332022016703062,0.001304808349222242,0.0006835897151775457,0.0002566279887331885,7.208360964359007,3.573941371564434,2.119012936761998,1.2043380872515757,0.624091635750899,0.32528250778585094,0.18318654530681824,0.11804823877357268,0.08325163533918777,0.05956230280634074,0.0415360920418491,0.02780152891907494,0.01776254865459491,0.01085526798919066,0.006013935157574601
0.0,59.0,59.0,0.0,120.0,0.0,0.0,0.0,0.0,-107.0,0.0,-45.0,0.0,0.0,0.0,34.27253218749016,17.55503396713325,4.777972353422756,1.5376156547186617,0.7065809186958776,0.31669313534104,0.12709239208616877,0.05270761152600351,0.025001320567906864,0.014463880154160579,0.009358437733014643,0.006105860800953316,0.003835115747878262,0.0022828886040062116,0.0012807719443509522,0.0006727486966534612,0.0002527035445067909,7.133325742458805,3.4819255617608156,2.0529751120225788,1.1646436284270867,0.6040545038744016,0.31560775055953555,0.17821014896471868,0.11510498766995432,0.0813432094001961,0.05831712287288261,0.04075401885179966,0.0273362622459036,0.01750182851027294,0.010717416587393875,0.0059493142305515005
0.0,60.0,60.0,0.0,120.0,0.0,0.0,0.0,0.0,-107.0,0.0,-45.0,0.0,0.0,0.0,34.27253218749016,17.55503396713325,4.692583826133573,1.4747915288997198,0.673295350655763,0.3014997060962394,0.12136594402335782,0.05058422844800922,0.02411002351305756,0.013999268394590232,0.009084568138506973,0.005943996648613962,0.0037441044598805553,0.002234966944855072,0.0012572469290123912,0.0006621102932693491,0.00024885170839814106,7.052398737803343,3.3873643892633867,1.986550625275921,1.1252998785262807,0.584406154889379,0.3061819538967641,0.1733782546554055,0.11224858894383954,0.07948842987359198,0.057104148905736854,0.03999016379767986,0.02688060288510844,0.017245817598285692,0.010581728146359352,0.005885567751280112
0.0,61.0,61.0,0.0,120.0,0.0,0.0,0.0,0.0,-107.0,0.0,-45.0,0.0,0.0,0.0,34.27253218749016,17.55503396713325,4.6012492334917905,1.4113633763027507,0.6404627301474021,0.286723949125824,0.11584558339085316,0.048544446004780216,0.02325404278415975,0.013552167088721432,0.008820226149388434,0.005787232615078008,0.003655645630830042,0.002188222034606163,0.0012342203615515067,0.000651670153484589,0.00024507132315489827,6.965103000834214,3.2903256095877955,1.919859755606682,1.0863701112766184,0.5651633984802854,0.29700517021495765,0.16868778929018244,0.1094764032405943,0.07768558830384024,0.05592240884000275,0.03924402724459608,0.026434316294800794,0.016994414999587436,0.01044816255610614,0.0058226832210477265
0.0,62.0,62.0,0.0,120.0,0.0,0.0,0.0,0.0,-107.0,0.0,-45.0,0.0,0.0,0.0,34.27253218749016,17.55503396713325,4.5036065893189345,1.3474885389450315,0.6081662042754932,0.2723880747551887,0.11053237509143563,0.04658656944775992,0.022432143739484513,0.013121872516100882,0.008565037396300096,0.0056353840977755205,0.003569656232065661,0.002142620004347876,0.0012116796678385017,0.0006414240346493021,0.00024136129716482914,6.8709201414319185,3.1909035769221497,1.8530343987187468,1.047919566656562,0.5463423257691545,0.2880772697835258,0.164135714079814,0.10678588782862233,0.07593303787946575,0.054770964556572516,0.038515125270404696,0.025997174538264337,0.016747522306577643,0.010316680580585547,0.005760646838848074
0.0,63.0,63.0,0.0,120.0,0.0,0.0,0.0,0.0,-107.0,0.0,-45.0,0.0,0.0,0.0,34.27253218749016,17.55503396713325,4.399283506357519,1.283345384779627,0.576490655488747,0.25851286793253997,0.10542678127002411,0.04470882828282484,0.02164312339596598,0.012707710789247694,0.00831864394303099,0.00548827399179564,0.003486056257544078,0.0020981280793312246,0.0011896126289659633,0.0006313677998647375,0.00023772068734327607,6.769288103411654,3.0892240283994963,1.786218430617555,1.0100145469579784,0.5279582790568274,0.27939786366109803,0.15971903408845206,0.10417458500801204,0.07422919181116869,0.053648910291148696,0.037802989128283476,0.02556895606643651,0.01650504354956771,0.010187243835949041,0.005699445273947261
0.0,64.0,64.0,0.0,120.0,0.0,0.0,0.0,0.0,-107.0,0.0,-45.0,0.0,0.0,0.0,34.27253218749016,17.55503396713325,4.287901654027436,1.219134256424104,0.5455218066464548,0.2451173806060269,0.100528632265901,0.04290937475190337,0.020885808736248027,0.012309036311629265,0.0080807034672486,0.005345732345442269,0.0034047685986965527,0.0020547145389458454,0.0011680073694713725,0.0006214974149346503,0.00023414875415943233,6.659599328058099,2.985448752857896,1.7195675966987989,0.9727217999364094,0.5100257018287199,0.27096626538683627,0.1554347923077375,0.10164011611367733,0.07257252081016675,0.05255537129657024,0.037107164704480784,0.025149445511598457,0.016266885126404985,0.010059814768755606,0.0056390659991174
0.0,65.0,65.0,0.0,120.0,0.0,0.0,0.0,0.0,-107.0,0.0,-45.0,0.0,0.0,0.0,34.27253218749016,17.55503396713325,4.169083294302209,1.155077980342183,0.5153451515850341,0.2322186228561149,0.09583709953677079,0.041186285553707895,0.020159054999600988,0.011925230390869996,0.007850888490656864,0.00520759603041747,0.0033257189259495445,0.002012348678132037,0.0011468523460523002,0.000611808945424103,0.00023064501542217365,6.541199907917307,2.879780281390464,1.6532489754350996,0.9361079960582741,0.492557929716049,0.26278147380558686,0.15128005669308173,0.09918017847224608,0.07096155020008431,0.05148950265775339,0.03642721198488993,0.02473843349037708,0.01603295573484574,0.009934356634499042,0.005579496915465455
0.0,66.0,66.0,0.0,120.0,0.0,0.0,0.0,0.0,-107.0,0.0,-45.0,0.0,0.0,0.0,34.27253218749016,17.55503396713325,4.042460615355835,1.0914217480985489,0.48604469386432,0.21983125170811912,0.0913506790406867,0.039537564206101605,0.019461744493707665,0.011555699941196417,0.0076288856507525146,0.005073708429062997,0.003248835575444011,0.0019710007704863745,0.0011261363366634437,0.0006022985538174245,0.0002272093416688981,6.413390611576164,2.772466795385884,1.587440119860941,0.9002390030122955,0.47556701778802996,0.2548421488267054,0.14725191341964983,0.09679254120998113,0.06939485749475693,0.05045048810579204,0.03576270455203089,0.024335716413441417,0.015803166307099346,0.00981083347704417,0.005520726416560196
0.0,67.0,67.0,0.0,120.0,0.0,0.0,0.0,0.0,-107.0,0.0,-45.0,0.0,0.0,0.0,34.27253218749016,17.55503396713325,3.9076887658239254,1.028432130347736,0.45770153391632207,0.20796725325100554,0.08706718746294244,0.03796114455226912,0.018792785601243995,0.011199876336289214,0.007414394999914463,0.004943919139306412,0.003174049440580527,0.0019306420329531931,0.0011058484300060746,0.0005929624967682132,0.00022384206746553438,6.275430606559433,2.6638070565787615,1.5223275604386628,0.8651791287601293,0.45906355222028755,0.24714659581123608,0.14334746074083127,0.0944750414298133,0.06787107013384591,0.0494375388785242,0.035113229104827046,0.02394109630193101,0.015577429946714273,0.009689210108701907,0.005462743318114588
0.0,68.0,68.0,0.0,120.0,0.0,0.0,0.0,0.0,-107.0,0.0,-45.0,0.0,0.0,0.0,34.27253218749016,17.55503396713325,3.7644640819833004,0.9663948977030928,0.43039221570728137,0.19663568959661956,0.08298376155579025,0.03645489500114846,0.018151112700812346,0.010857214169387095,0.007207129376408118,0.004818083687203935,0.003101293869690053,0.0018912445918131033,0.0010859780153757782,0.0005837971224726533,0.00022054448116122264,6.126545677017646,2.5541539555952792,1.4581054113847027,0.8309900705650106,0.44305654834138025,0.2396927375861604,0.1395638061350086,0.09222558080552211,0.06638886326592267,0.048449892658111726,0.03447838499087253,0.023554380612610344,0.015355661867234577,0.00956945209093102,0.00540553735196938
0.0,69.0,69.0,0.0,120.0,0.0,0.0,0.0,0.0,-107.0,0.0,-45.0,0.0,0.0,0.0,34.27253218749016,17.55503396713325,3.6125487257542246,0.9056116410359616,0.40418693139293566,0.18584244914291492,0.07909686660142115,0.03501662741081644,0.017535685111863826,0.01052719035117501,0.007006813768133287,0.004696063259086874,0.0030305045681097995,0.0018527814499282047,0.001066514772944482,0.0005747988680852516,0.00021731901513977975,5.965942323388234,2.443917990365955,1.3949724992517292,0.7977300832991369,0.42755325929234217,0.23247811373321015,0.135898061781771,0.09004212243891051,0.06494695775833678,0.04748681252140144,0.03385778376775752,0.023175382067175235,0.015137779333407306,0.009451525715624737,0.005349099044029341
0.0,70.0,70.0,0.0,120.0,0.0,0.0,0.0,0.0,-107.0,0.0,-45.0,0.0,0.0,0.0,34.27253218749016,17.55503396713325,3.4518044358570763,0.8463944935407648,0.3791477042246218,0.1755900370906434,0.07540232556834355,0.03364410346863447,0.016945487140432237,0.010209303152602125,0.006813184718288105,0.0045777244466395335,0.0029616195042780073,0.0018152264555117903,0.001047448664305171,0.0005659642572445024,0.00021416994700546702,5.792831351875855,2.333568402885454,1.3331292365454108,0.7654529659874363,0.41255905239740026,0.22549987449167644,0.13234734244134183,0.08792268808580034,0.06354411826411929,0.04654758595295382,0.03325104877800338,0.022803918488995552,0.014923701604116208,0.009335397986969543,0.0052934200492127945
0.0,71.0,71.0,0.0,120.0,0.0,0.0,0.0,0.0,-107.0,0.0,-45.0,0.0,0.0,0.0,34.27253218749016,17.55503396713325,3.282237917760091,0.789058955297889,0.3553265135265255,0.1658774384102518,0.071895356280706,0.032335042996347846,0.016379528117245985,0.009903071337998144,0.006625989756015828,0.004462939004420328,0.0028945788204299814,0.0017785542720409812,0.0010287699233636255,0.0005572898976724869,0.00021110438364700467,5.606465371668461,2.22363170557461,1.272773656199071,0.7342070299798562,0.3980773151072002,0.21875478321020445,0.12890876198868964,0.08586535638060044,0.06217915124968909,0.04563152392693975,0.032657814737819604,0.022439812646272414,0.014713349877270646,0.009221036603742997,0.005238494204187736
0.0,72.0,72.0,0.0,120.0,0.0,0.0,0.0,0.0,-107.0,0.0,-45.0,0.0,0.0,0.0,34.27253218749016,17.55503396713325,3.104060989511766,0.7339146077238421,0.3327635126413734,0.15670005921859415,0.06857061846502727,0.031087133267703463,0.015836842667566787,0.009608033318066483,0.006444986860248158,0.0043515836177789495,0.0028293247478484223,0.001742740349254081,0.0010104690475511012,0.0005487724788582884,0.00020813366794547692,5.406195956969017,2.114686182847168,1.2140970433577283,0.7040341093788763,0.3841093773131648,0.21223921956803934,0.12557943506255353,0.0838682601346655,0.060850903359200015,0.04473795998582512,0.0320777273498045,0.022082892100135837,0.014506647236385756,0.00910840994231098,0.005184318101253739
0.0,73.0,73.0,0.0,120.0,0.0,0.0,0.0,0.0,-107.0,0.0,-45.0,0.0,0.0,0.0,34.27253218749016,17.55503396713325,2.917768629507076,0.681253719293423,0.31148549047158774,0.14804976106814538,0.06542226963650752,0.02989803846437174,0.015316491593990154,0.009323746202997954,0.006269943975528559,0.004243539677251054,0.002765801526974785,0.001707760895133083,0.0009925367893218859,0.0005404087698293833,0.00020527555801721286,5.191558583855094,2.007350948406053,1.1572796180450828,0.6749686330637187,0.3706544594785499,0.2059491749349986,0.122356488315557,0.08192958151205965,0.059558260327060616,0.043866249276815414,0.03151044294394905,0.021732989057119057,0.014303518598582405,0.008997487040477394,0.005130890625987441
0.0,74.0,74.0,0.0,120.0,0.0,0.0,0.0,0.0,-107.0,0.0,-45.0,0.0,0.0,0.0,34.27253218749016,17.55503396713325,2.724237392910912,0.6313383135760464,0.29150456370363625,0.13991500559046927,0.06244402972003088,0.028765411302518612,0.01481756178432443,0.009049785187555896,0.006100638488421284,0.004138693075509403,0.0027039553297018757,0.001673592849084635,0.000974964147977495,0.00053219561695576,0.0002025584530955359,4.962397993853984,1.9022707180520848,1.1024841103523986,0.6470368393274806,0.35770969939644076,0.1998802894738302,0.11923704722217518,0.08004755458731264,0.058300144545010486,0.04301576788131843,0.030955628096703,0.021389940230573095,0.014103890665066789,0.008888237580754021,0.005078218090314111
0.0,75.0,75.0,0.0,120.0,0.0,0.0,0.0,0.0,-107.0,0.0,-45.0,0.0,0.0,0.0,34.27253218749016,17.55503396713325,2.5248449540948896,0.5843857444837552,0.27281767705267435,0.13228104956324938,0.05962926623761178,0.02768690176820838,0.014339167191010192,0.00878574276197972,0.0059368567556370225,0.004036934011758477,0.0026437341854495333,0.0016402138562117547,0.0009577423616942466,0.0005241299418438182,0.00020002890541622492,4.719043464089223,1.8000924750516316,1.0498509387323054,0.6202561568248144,0.3452701726039432,0.1940278681246317,0.11621824423381953,0.07822046215033336,0.05707551389194866,0.04218591196559304,0.03041295929822834,0.021053586703525744,0.01390769187259736,0.008780631874967406,0.005026318591789872
0.0,76.0,76.0,0.0,120.0,0.0,0.0,0.0,0.0,-107.0,0.0,-45.0,0.0,0.0,0.0,34.27253218749016,17.55503396713325,2.3216061478098986,0.5405550663187357,0.25540653173162364,0.12513031136712915,0.0569710690734193,0.026660168374603183,0.01388044968535647,0.008531227875674945,0.005778393670408549,0.0039381568028156524,0.00258508791182731,0.0016076022422606999,0.0009408628998648033,0.000516208739306179,0.00019776715605977912,4.462545507966145,1.7014364140171534,0.9994932870239382,0.5946348542529455,0.3333289818379185,0.18838690402719863,0.11329722316631426,0.07644663415905907,0.05588336030548641,0.041376097029410266,0.029882122624239078,0.020723773797589922,0.013714852346530833,0.008674640849091114,0.004975231623458543
0.0,77.0,77.0,0.0,120.0,0.0,0.0,0.0,0.0,-107.0,0.0,-45.0,0.0,0.0,0.0,34.27253218749016,17.55503396713325,2.117313909809589,0.49993578652961806,0.23923832968833758,0.11844282457397931,0.05446232014486471,0.02568289218704922,0.013440579339557354,0.008285865157646791,0.005625052245644996,0.0038422597052967474,0.002527968048957539,0.0015757369892761977,0.0009243174557409352,0.0005084290753765062,0.000195922200142502,4.194978591410463,1.6068621451182348,0.9514928958136805,0.5701721479938242,0.32187735369325465,0.18295210697429537,0.11047114604277208,0.07472444567472901,0.0547227085413621,0.040585757165915025,0.02936281342643878,0.020400350945707375,0.013525303855318513,0.008570236028578244,0.004925042223504966
0.0,78.0,78.0,0.0,120.0,0.0,0.0,0.0,0.0,-107.0,0.0,-45.0,0.0,0.0,0.0,34.27253218749016,17.55503396713325,1.9156597411249823,0.46254157629581005,0.2242673666412932,0.11219673734499232,0.05209577421088221,0.02475278823675181,0.013018755216722666,0.008049294054999316,0.005476643221796504,0.0037491447511894403,0.0024723277959561307,0.0015445977123654973,0.0009080979392565683,0.000500788085398891,0.0001947988636859406,3.919793109812427,1.5168346327758748,0.9058982078970312,0.5468581513988212,0.310904841630507,0.17771794428949872,0.10773719338161226,0.07305231683481342,0.05359261460196079,0.039814344431754425,0.028854736025223142,0.0200831715703951,0.013338979766587872,0.008467389523825804,0.004875941316819824
