Line_number,Fiducial,Easting,Northing,Height,Elevation,tx_pitch,tx_roll,tx_yaw,txrx_dx,txrx_dy,txrx_dz,rx_pitch,rx_roll,rx_yaw,PX,PZ,S0X_time_1.086e-05,S0X_time_3.256e-05,S0X_time_5.426e-05,S0X_time_8.680e-05,S0X_time_1.411e-04,S0X_time_2.279e-04,S0X_time_3.689e-04,S0X_time_5.860e-04,S0X_time_9.115e-04,S0X_time_1.411e-03,S0X_time_2.192e-03,S0X_time_3.418e-03,S0X_time_5.339e-03,S0X_time_8.301e-03,S0X_time_1.338e-02,S0Z_time_1.086e-05,S0Z_time_3.256e-05,S0Z_time_5.426e-05,S0Z_time_8.680e-05,S0Z_time_1.411e-04,S0Z_time_2.279e-04,S0Z_time_3.689e-04,S0Z_time_5.860e-04,S0Z_time_9.115e-04,S0Z_time_1.411e-03,S0Z_time_2.192e-03,S0Z_time_3.418e-03,S0Z_time_5.339e-03,S0Z_time_8.301e-03,S0Z_time_1.338e-02
0.0,0.0,0.0,0.0,120.0,0.0,0.0,0.0,0.0,-107.0,0.0,-45.0,0.0,0.0,0.0,34.27253218749016,17.55503396713325,4.5537949340093995,2.66119604861026,2.177780255413544,1.7942036482452612,1.391149358713806,0.9995836750847158,0.6529129515672043,0.3930685963340001,0.22325497812689618,0.11908229028870841,0.05959043917338259,0.028213909445133144,0.012747824830358141,0.00554255486038822,0.002077918080238448,6.925324744975024,4.906824266144436,4.269777158494445,3.739128874145843,3.1468109265454727,2.511667371720756,1.8714097134048517,1.3106267376209917,0.8750677694596092,0.5542566636152121,0.3323472719484228,0.18963187108410035,0.10360975099984406,0.05473247254027149,0.026486841638445852
0.0,1.0,1.0,0.0,120.0,0.0,0.0,0.0,0.0,-107.0,0.0,-45.0,0.0,0.0,0.0,34.27253218749016,17.55503396713325,4.558316278122539,2.6803556355664573,2.203011344962526,1.8309939908345725,1.4429860654048192,1.0579961125387976,0.7049278731743899,0.4306713770734068,0.24633812300228725,0.13134609397744215,0.06531218111560796,0.030615273129844328,0.013677186281407053,0.005881749898610231,0.002183935322940681,6.928842520174627,4.927865628588541,4.300453041001444,3.787211810554201,3.221870075459132,2.6078971302534564,1.9713167670574825,1.3963969225981148,0.9382441851172186,0.5949730638783802,0.3556189838262081,0.20165850333171934,0.10934617547135882,0.05731243221733467,0.02751770769443717
0.0,2.0,2.0,0.0,120.0,0.0,0.0,0.0,0.0,-107.0,0.0,-45.0,0.0,0.0,0.0,34.27253218749016,17.55503396713325,4.563140195059302,2.699715451361584,2.2251966996483885,1.858140456461599,1.480934257936238,1.104317389065363,0.7498006560630046,0.465516636980012,0.2689553821216985,0.14386478707583863,0.07130982148008834,0.03316641454666138,0.014668058553064323,0.006242551403059235,0.0022965479138826075,6.932609963769468,4.949155522975838,4.327787027495224,3.8229568530204965,3.276257065869382,2.6827172980461107,2.055293440739915,1.4734703301807424,0.9981119533066817,0.6351538211697298,0.3792421176219555,0.2140733789480572,0.11531360041756039,0.06000083062991729,0.02859071286984952
0.0,3.0,3.0,0.0,120.0,0.0,0.0,0.0,0.0,-107.0,0.0,-45.0,0.0,0.0,0.0,34.27253218749016,17.55503396713325,4.568285249725491,2.7195812419806593,2.2467369268572934,1.8806569167176874,1.5096328067725386,1.1408932341370432,0.7879657628090522,0.4972220601998679,0.29069410990387057,0.15642174515122242,0.07750932344661499,0.03584993013623277,0.015717756754789224,0.006624832236930807,0.0024158243330909897,6.936643723576594,4.970983496006968,4.354443332040708,3.852929633142936,3.317293925926136,2.740981320821206,2.125272887045369,1.5418478712405925,1.0540329207552677,0.6742630475116467,0.402946930112603,0.2267792536848133,0.12148493239797793,0.06279162683496553,0.029704882189557608
0.0,4.0,4.0,0.0,120.0,0.0,0.0,0.0,0.0,-107.0,0.0,-45.0,0.0,0.0,0.0,34.27253218749016,17.55503396713325,4.573770587733137,2.7400053989142625,2.268412265161317,1.901260320464586,1.5325798939062776,1.1699358912132318,0.8201340020008114,0.5256808426465174,0.3112694658568884,0.1688295351525232,0.08383599540231576,0.03864564160526905,0.016822531166111057,0.007028204387913359,0.0025417871245212204,6.940961102797991,4.993397764198224,4.3812530611746885,3.8805551550075403,3.3502265975904635,2.7868383478876666,2.1833131513085156,1.601950920937662,1.1056808131476783,0.7118915979781192,0.4264897127744885,0.2396776618612215,0.12783019389409853,0.06567755844600079,0.03085890497110494
0.0,5.0,5.0,0.0,120.0,0.0,0.0,0.0,0.0,-107.0,0.0,-45.0,0.0,0.0,0.0,34.27253218749016,17.55503396713325,4.5796162811757,2.7610023551972747,2.290436089567655,1.9212641834270516,1.5522181656265086,1.193398344066772,0.8471268423514258,0.5509677258553841,0.3305056111521655,0.18093503943795677,0.09021862882030124,0.041531721516472955,0.01797772901085215,0.007452026142381789,0.0026744093704682025,6.9455803056358185,5.0164116075023415,4.408433273147434,3.9074369865062466,3.3785794874027517,2.8237252979845504,2.231405772448396,1.6544280883681641,1.1529599223725693,0.7477477460780118,0.4496597216420511,0.25267289791843,0.13431760159665915,0.06865032421822921,0.032051153324812925
0.0,6.0,6.0,0.0,120.0,0.0,0.0,0.0,0.0,-107.0,0.0,-45.0,0.0,0.0,0.0,34.27253218749016,17.55503396713325,4.585843394231862,2.7825822264505695,2.3128589731150986,1.9412389544420738,1.5701219216974074,1.2129114555418334,0.869786682475631,0.5732704161920321,0.34831315555549835,0.19261959272563658,0.09659228444754256,0.044485726665361866,0.0191779839908379,0.007895418046006214,0.0028136136834949915,6.95052052484469,5.040034210912415,4.436031871375242,3.934251387330293,3.4045551707955233,2.854384591943493,2.2713954065886655,1.7000355041488646,1.1959359548284179,0.7816408232598878,0.4722816601622281,0.2656750036730504,0.14091458053340888,0.07170078937832995,0.033279710042531746
0.0,7.0,7.0,0.0,120.0,0.0,0.0,0.0,0.0,-107.0,0.0,-45.0,0.0,0.0,0.0,34.27253218749016,17.55503396713325,4.592474002718459,2.8047544140580194,2.3356938284239686,1.9614090532904296,1.5872309886124785,1.2297630593934263,0.8889239453704285,0.5928432582957815,0.3646680399877648,0.20379624705264074,0.10289988393337636,0.04748546790637578,0.020417415355101196,0.008357286191455733,0.002959273023868353,6.955801942303154,5.064273893672285,4.464059297375186,3.961256491029759,3.42943501266822,2.8809083089568275,2.304941153432052,1.7395669258724218,1.2347825952206466,0.8134629775597563,0.4942150905507213,0.27860178846491046,0.14758865896022114,0.07481920020808101,0.03454240119359989
0.0,8.0,8.0,0.0,120.0,0.0,0.0,0.0,0.0,-107.0,0.0,-45.0,0.0,0.0,0.0,34.27253218749016,17.55503396713325,4.599531218425603,2.8275279897591354,2.358946953991147,1.9818556946763728,1.604068097491181,1.244915584267545,0.9052820306226179,0.6099766926123262,0.3795939168909509,0.21440569444264118,0.10909286809571778,0.05050968897248103,0.02168982158626983,0.008836350954556422,0.0031112128537602603,6.961445728904199,5.089138513961713,4.492519646104541,3.9885423515187632,3.4539156636792834,2.904817623290932,2.333493224520848,1.77381342697874,1.2697426520423247,0.8431718568081621,0.5153519638977921,0.2913800096706347,0.1543082147853696,0.0779953961246647,0.03583683199065196
0.0,9.0,9.0,0.0,120.0,0.0,0.0,0.0,0.0,-107.0,0.0,-45.0,0.0,0.0,0.0,34.27253218749016,17.55503396713325,4.607039216347569,2.8509118496760597,2.382623859243768,2.0026073534526434,1.620905768587243,1.2590517211979673,0.9195143744639505,0.6249764013138669,0.3931484074039418,0.22441181805577323,0.1151311933788597,0.0535385564694774,0.02298885811956012,0.009331179153055513,0.003269214263402672,6.96747405207681,5.114635626376832,4.521416175058386,4.016138880076786,3.478352672531115,2.927167474080183,2.3582807168535043,1.803538501209407,1.3011009657295476,0.8707754919259079,0.5356131701945456,0.3039458802229066,0.16104306500650803,0.0812190099787913,0.03716042449654707
0.0,10.0,10.0,0.0,120.0,0.0,0.0,0.0,0.0,-107.0,0.0,-45.0,0.0,0.0,0.0,34.27253218749016,17.55503396713325,4.6150232596296075,2.8749147697045765,2.4067299859240623,2.0236754023480867,1.6378780752966073,1.2726329364006268,0.9321726988745418,0.638148037272958,0.40541275266796956,0.23379743300759903,0.1209828996569822,0.05655398091249989,0.024308192635602924,0.009840217672971451,0.0034330178077043544,6.973910079151711,5.14077250677254,4.550751960888357,4.044057075114397,3.5029172806735493,2.948657372481117,2.380312123343882,1.8294606819033323,1.3291658752791033,0.8963197860378448,0.5549447256842011,0.316245072176515,0.16776490397634392,0.0844796499556279,0.038510455777418955
0.0,11.0,11.0,0.0,120.0,0.0,0.0,0.0,0.0,-107.0,0.0,-45.0,0.0,0.0,0.0,34.27253218749016,17.55503396713325,4.62350972117747,2.8995454040097965,2.4312707919160137,2.0450664794557305,1.655047972329442,1.2859576878230732,0.943705545543026,0.6497855009581822,0.4164840407481518,0.24256050322752135,0.12662342864905554,0.059539797255056114,0.02564163481131098,0.010361826865919332,0.0036023278585936127,6.980777976376648,5.167556117312685,4.580530011985659,4.072302868081198,3.5276880687029433,2.9697321546025126,2.400388539676439,1.8522405039298526,1.3542563452152157,0.9198785473671977,0.5733139863643295,0.32823236784945337,0.17444760495887615,0.0877670590112728,0.03988409544063327
0.0,12.0,12.0,0.0,120.0,0.0,0.0,0.0,0.0,-107.0,0.0,-45.0,0.0,0.0,0.0,34.27253218749016,17.55503396713325,4.63252610216599,2.924812272096067,2.456251822940891,2.0667861992177934,1.6724444215901415,1.2992114011438178,0.9544649503400153,0.660162080985781,0.4264692103590736,0.25071093696723773,0.13203482218210588,0.06248183525824883,0.026983239938691728,0.010894312393406198,0.0037768173097998637,6.988102904463059,5.194993065882139,4.610753362077797,4.100881117389856,3.552700233083657,2.990663979740146,2.4191266992814295,1.8724711988778715,1.376692554547358,0.941545754198956,0.5907061141838221,0.33987108332443644,0.18106740388613282,0.09107124997848783,0.041278441691687345
0.0,13.0,13.0,0.0,120.0,0.0,0.0,0.0,0.0,-107.0,0.0,-45.0,0.0,0.0,0.0,34.27253218749016,17.55503396713325,4.642101047621297,2.9507237519427285,2.481678770907239,2.0888400755503462,1.6900813033538726,1.3125051997282493,0.9647183637787533,0.6695243275076356,0.43548023931945623,0.2582679447912864,0.13720488963753613,0.06536790772823603,0.02832738764055279,0.01143595458347061,0.003956132482354511,6.995911011168952,5.223089575945171,4.641425128464712,4.129796550526658,3.577970115116987,3.011613615765911,2.436987540414997,1.8906733244554421,1.3967885584157194,0.9614296237249308,0.6071209146172877,0.35113236048778357,0.18760298579857315,0.09438261617795449,0.0426905552171354
0.0,14.0,14.0,0.0,120.0,0.0,0.0,0.0,0.0,-107.0,0.0,-45.0,0.0,0.0,0.0,34.27253218749016,17.55503396713325,4.652264358852664,2.9772880801211232,2.507557503437313,2.111233699346709,1.7079663419942344,1.3259036660266748,0.9746629861441473,0.6780885636476248,0.4436301703054242,0.265257878688643,0.14212640320755732,0.06818774041617075,0.02966883810223501,0.01198503470449951,0.004139898087947779,7.004229420825067,5.2518514655004305,4.672548530143716,4.159053931646908,3.6035065147128877,3.0326731975713273,2.45430614325904,1.9072933807265775,1.4148463203724992,0.9796480384361002,0.6225700928811617,0.36199439806115014,0.19403549405706935,0.09769201855551671,0.04411749037505136
0.0,15.0,15.0,0.0,120.0,0.0,0.0,0.0,0.0,-107.0,0.0,-45.0,0.0,0.0,0.0,34.27253218749016,17.55503396713325,4.663047002298143,3.004513356195316,2.533894074744059,2.1339727676446563,1.726104999485861,1.3394435146248689,0.9844402848944172,0.6860397704637564,0.45102981815420007,0.27171244926835697,0.14679635565914567,0.0709328628422965,0.031002768867638784,0.012539857831133072,0.004327722125062268,7.0130862204936255,5.281284131517516,4.704126885548367,4.188658087067124,3.6293155024954618,3.053894371620342,2.471319902717523,1.9227060225341615,1.4311508677368043,0.9963249367006198,0.6370749275973889,0.3724416713593993,0.200348480708827,0.10099085111791792,0.04555632335292942
0.0,16.0,16.0,0.0,120.0,0.0,0.0,0.0,0.0,-107.0,0.0,-45.0,0.0,0.0,0.0,34.27253218749016,17.55503396713325,4.674481114362893,3.032407549753872,2.5606947303716416,2.1570630977950396,1.7445020309179562,1.353145484428744,0.9941492379176435,0.6935324077788565,0.4577851126978322,0.277667226192035,0.15121529676538895,0.07359647524392067,0.0323247954228182,0.013098772187473892,0.004519200607628797,7.022510442449159,5.311392538238015,4.736163606317361,4.21861391749901,3.6554022841976628,3.0753058917835316,2.488193064648656,1.9372191088154296,1.4459665458481328,1.0115873664795514,0.6506643283643355,0.38246417480408257,0.20652781393935304,0.10427108687975453,0.04700417711676153
0.0,17.0,17.0,0.0,120.0,0.0,0.0,0.0,0.0,-107.0,0.0,-45.0,0.0,0.0,0.0,34.27253218749016,17.55503396713325,4.686600001833742,3.0609785097174287,2.5879659121648975,2.1805106415685866,1.7631620433660755,1.3670215490843851,1.0038575549317865,0.7006926420012259,0.4639950698572018,0.2831603502798322,0.1553867510439461,0.07617330341405958,0.033630978653918654,0.013660185017899852,0.004713922050315672,7.032532042597711,5.342181209324667,4.768662193912384,4.248926407344088,3.6817718427552903,3.0969241102685072,2.5050368517964667,1.9510806605730309,1.459534402400423,1.0255630020131261,0.6633732246760997,0.39205670949495286,0.21256155583710099,0.10752530676070073,0.04845824310682516
0.0,18.0,18.0,0.0,120.0,0.0,0.0,0.0,0.0,-107.0,0.0,-45.0,0.0,0.0,0.0,34.27253218749016,17.55503396713325,4.699438137395278,3.090233976150209,2.6157142649824516,2.204321495825642,1.782089670639667,1.3810790914290585,1.0136106606328168,0.7076214522055415,0.46975037768022354,0.28823141204879626,0.15931671076074128,0.07865945028813963,0.03491782196071355,0.014222575164078396,0.004911471654180843,7.043181874334662,5.373654224403827,4.801626239899008,4.279600627276357,3.7084291254311905,3.118758953495607,2.521925186219804,1.9644868172642576,1.4720706959078382,1.0383780105687417,0.6752412261801843,0.40121822921471856,0.21843982110147875,0.11074671394558033,0.04991579973070241
0.0,19.0,19.0,0.0,120.0,0.0,0.0,0.0,0.0,-107.0,0.0,-45.0,0.0,0.0,0.0,34.27253218749016,17.55503396713325,4.713031149729348,3.120181594895592,2.6439466446488016,2.2285019084757085,1.8012896184194962,1.3953232132077678,1.0234385606715304,0.7143981524673201,0.47513255841561425,0.29292047338440175,0.16301319378266985,0.08105225062448221,0.036182260441882726,0.014784502620134917,0.005111435151168075,7.054491657279583,5.405815220536466,4.835059428655978,4.310641730326934,3.7353790849070543,3.1408171736963943,2.538906474841101,1.9775900218148776,1.4837664531719148,1.0501552191170287,0.6863114960657761,0.4099512512812223,0.2241546250452945,0.11392913617375099,0.05137422776830048
0.0,20.0,20.0,0.0,120.0,0.0,0.0,0.0,0.0,-107.0,0.0,-45.0,0.0,0.0,0.0,34.27253218749016,17.55503396713325,4.727415807672744,3.1508289352653898,2.672670126315742,2.253058280997242,1.8207666738484136,1.409757955032719,1.0333608868065434,0.7210839695128239,0.4802136402196027,0.2972672236049727,0.16648585484572398,0.08335013295755087,0.03742164420852494,0.015344615396635605,0.005313402277309967,7.066493940304236,5.438667398972395,4.8689655412246875,4.342054944263804,3.7626266836853453,3.1631040350642015,2.556012130435864,1.9905068598623226,1.4947879366827719,1.0610125677562212,0.6966297874325511,0.41826133324653225,0.2296997273460579,0.11706701828263545,0.05283102284672099
0.0,21.0,21.0,0.0,120.0,0.0,0.0,0.0,0.0,-107.0,0.0,-45.0,0.0,0.0,0.0,34.27253218749016,17.55503396713325,4.74262999790623,3.1821835108960603,2.7018920126664905,2.2779971693077066,1.8405257088321747,1.424386909428726,1.0433904777892729,0.7277254233367796,0.4850562521067331,0.3013102684249903,0.16974563999253872,0.08555249119211449,0.038633717555111524,0.01590165405022637,0.005516969854443245,7.079222058242028,5.472213537363163,4.903348459503195,4.373845562985538,3.79017689345294,3.18562414292785,2.5732625350753278,2.0033251785991033,1.5052778412770764,1.071061852282386,0.7062436036781501,0.4261566124207963,0.2350704764590917,0.12015540711692804,0.0542838051736676
0.0,22.0,22.0,0.0,120.0,0.0,0.0,0.0,0.0,-107.0,0.0,-45.0,0.0,0.0,0.0,34.27253218749016,17.55503396713325,4.75871269563749,3.2142528037886184,2.7316198417009305,2.3033252842715646,1.860571683522933,1.4392135121121858,1.0535358422673882,0.7343573570153613,0.4897140464305094,0.3050865519109829,0.17280447623523534,0.08765956678220464,0.03981659542594138,0.016454454234830378,0.005721744470052347,7.092710081631491,5.506456007471946,4.938212170412778,4.406018938583742,3.818034695256537,3.2083818270704714,2.5906710898450345,2.0161102845863383,1.5153570235686866,1.0804077591824939,0.7152014556137001,0.4336474025035753,0.24026365835114227,0.12318993065789333,0.0557303267422846
0.0,23.0,23.0,0.0,120.0,0.0,0.0,0.0,0.0,-107.0,0.0,-45.0,0.0,0.0,0.0,34.27253218749016,17.55503396713325,4.775703927733199,3.247044291474967,2.761861394031919,2.3290494924929073,1.8809096501283504,1.4542411715419892,1.0638028037821312,0.741005541639637,0.4942323538722299,0.3086309095573182,0.17567499106272486,0.08967234141316076,0.04096873835417075,0.017001947609716905,0.00592734475504134,7.106992758823984,5.541396798316233,4.973560769893501,4.438580474746737,3.846205079982728,3.231381305888668,2.608246887428437,2.0289101549062885,1.5251265738112127,1.0891471890168671,0.7235521983368861,0.4407458401347885,0.2452773521760665,0.12616677295332174,0.05716847623990459
0.0,24.0,24.0,0.0,120.0,0.0,0.0,0.0,0.0,-107.0,0.0,-45.0,0.0,0.0,0.0,34.27253218749016,17.55503396713325,4.793644727765677,3.2805654771915447,2.792624699707582,2.3551768175976293,1.9015447563113026,1.469473322042833,1.074195569039234,0.7476888406617007,0.49864898419532033,0.3119757469816059,0.17837025868290382,0.09159243945577945,0.042088926813398084,0.017543161407448653,0.006133403269369408,7.122105449789076,5.577037544591437,5.009398466666798,4.471535621587399,3.8746930482380955,3.254626749900782,2.625996427395397,2.04175969024373,1.5346700612758906,1.097368853787667,0.7313444388879026,0.4474655737525751,0.2501107946427802,0.12908264616178086,0.05859628190752347
0.0,25.0,25.0,0.0,120.0,0.0,0.0,0.0,0.0,-107.0,0.0,-45.0,0.0,0.0,0.0,34.27253218749016,17.55503396713325,4.812577082470406,3.3148239228825545,2.823918044598641,2.3817144419926377,1.922482247853208,1.4849134434869564,1.0847174027466189,0.754420956494571,0.5029950989958359,0.31515083485263956,0.18090357159179815,0.0934220391338257,0.043176235705451635,0.01807721692750126,0.006339568014749112,7.138084050976695,5.613379560136374,5.045729585712051,4.504889871727165,3.9035036094431885,3.2781223029627475,2.643924686865186,2.0546840966435935,1.5440558141324172,1.1051531238926948,0.7386260111206672,0.45382148752219253,0.2547642540905223,0.13193476078084856,0.060011912604469635
0.0,26.0,26.0,0.0,120.0,0.0,0.0,0.0,0.0,-107.0,0.0,-45.0,0.0,0.0,0.0,34.27253218749016,17.55503396713325,4.832543869157802,3.3498272847946198,2.8557499763892626,2.4086697090197933,1.9437274706619416,1.5005650678190268,1.0953710421894254,0.7612118044249778,0.5072960977335103,0.3181832073923498,0.18328823712390963,0.09516379126582637,0.04423000951309755,0.01860332718415998,0.0065455036011232886,7.154964910637536,5.650423876108218,5.082558571391711,4.538648757415023,3.932641780447859,3.301872087915649,2.6620357700105237,2.0677015123139877,1.553339127577433,1.1125720925431695,0.7454435172562902,0.45982945401051667,0.25923891467582033,0.13472079491683386,0.0614136773326276
0.0,27.0,27.0,0.0,120.0,0.0,0.0,0.0,0.0,-107.0,0.0,-45.0,0.0,0.0,0.0,34.27253218749016,17.55503396713325,4.853588783027263,3.385583351096271,2.8881293103943446,2.436050126166028,1.9652858731719833,1.5164317806588474,1.1061589448120965,0.7680685688036002,0.5115724734693352,0.3210971495595936,0.18553739912468792,0.09682074452962516,0.045249838475471926,0.01912079390300861,0.006750892102021946,7.172784743119652,5.6881713076851375,5.119890024292577,4.57281788243021,3.9621125847417336,3.3258801832085574,2.680333302869491,2.0808250006051296,1.562564326696251,1.1196898206025396,0.7518419367538639,0.465506110466987,0.2635367705856721,0.1374388632758458,0.06280002372076977
0.0,28.0,28.0,0.0,120.0,0.0,0.0,0.0,0.0,-107.0,0.0,-45.0,0.0,0.0,0.0,34.27253218749016,17.55503396713325,4.875756253995327,3.4221000809456643,2.921065134938395,2.463863368974672,1.9871630093860053,1.5325172215699452,1.1170834316135716,0.7749964981354642,0.5158406085269184,0.32391425695906445,0.18766388491977398,0.09839627638235195,0.046235535999892934,0.0196290040301599,0.006955433631537595,7.1915805397503245,5.72662254407399,5.157728765303518,4.607402982440025,3.9919210527617177,3.3501505789106973,2.698820673899955,2.0940640309828127,1.5717666370668764,1.1265627233907558,0.7578643028891582,0.47086865483483725,0.26766052982250743,0.1400874864077217,0.06416953565373966
0.0,29.0,29.0,0.0,120.0,0.0,0.0,0.0,0.0,-107.0,0.0,-45.0,0.0,0.0,0.0,34.27253218749016,17.55503396713325,4.8990913593829974,3.4593856537066805,2.9545668175563504,2.4921172725786116,2.009364532755748,1.548825091066696,1.1281467656972224,0.7819994927691325,0.5201134917553715,0.32665355259633566,0.18968007746642485,0.09989402899451895,0.04718711740741968,0.020127425892239738,0.007158846639946256,7.211389354525623,5.765777936501748,5.1960794563662605,4.642409545193669,4.022072215032764,3.374687450152909,2.717501016219998,2.1074256158141518,1.5809738233218862,1.1332400649703882,0.7635514459696517,0.47593465883747055,0.271613526859537,0.1426655606018445,0.0655209267828315
0.0,30.0,30.0,0.0,120.0,0.0,0.0,0.0,0.0,-107.0,0.0,-45.0,0.0,0.0,0.0,34.27253218749016,17.55503396713325,4.92363971896599,3.4974484992399355,2.9886440074962484,2.5208198504444543,2.0318962054812664,1.5653591453705114,1.1393511974337804,0.7890805295140881,0.5244013496984815,0.32933164508104906,0.19159781222021566,0.10131784975572197,0.0481047800254823,0.020615605123394762,0.007360868076440783,7.232248289189888,5.805637845350485,5.234947041532374,4.677843248459221,4.052571108039028,3.399494845600079,2.736377429862517,2.120915038060089,1.5902076324746603,1.1397645167937225,0.7689418023504818,0.48072189630974876,0.2753996432879922,0.14517232877670844,0.06685303940806223
0.0,31.0,31.0,0.0,120.0,0.0,0.0,0.0,0.0,-107.0,0.0,-45.0,0.0,0.0,0.0,34.27253218749016,17.55503396713325,4.949447387462714,3.5362973415687096,3.023306637940195,2.5499792949598277,2.0547638966772825,1.5821232006163117,1.150698986041336,0.7962419647744999,0.5287121891409109,0.33196291488845425,0.1934282976316283,0.10267173612203323,0.048988884576483274,0.021093160455308495,0.007561253322080708,7.254194313730343,5.8462025844104035,5.274336594766164,4.713709807949828,4.083422772192841,3.424576799422812,2.7554529584942733,2.1345364231021224,1.5994850008989,1.146172759402314,0.7740712844342377,0.48524818597771885,0.2790232355624765,0.14760735255497642,0.06816483850123074
0.0,32.0,32.0,0.0,120.0,0.0,0.0,0.0,0.0,-107.0,0.0,-45.0,0.0,0.0,0.0,34.27253218749016,17.55503396713325,4.976560727442782,3.5759412497746434,3.058564935937382,2.5796039749874335,2.0779735868749185,1.5991211338295832,1.162192410705501,0.8034857463973238,0.5330522550378186,0.3345597166667797,0.1951820578206235,0.10395978469447635,0.04983993777799627,0.021559779449862298,0.007759775986587489,7.27726412090807,5.887472488024288,5.314253315950314,4.750014973770957,4.114632254869839,3.4499373330505225,2.7747306053415195,2.1482931222876243,1.608819065567713,1.1524960964169348,0.7789732075750228,0.4895312482181166,0.2824890689301393,0.14997048569787744,0.0694554065388742
0.0,33.0,33.0,0.0,120.0,0.0,0.0,0.0,0.0,-107.0,0.0,-45.0,0.0,0.0,0.0,34.27253218749016,17.55503396713325,5.005026281300372,3.61638967613103,3.0944294245916444,2.609702442394663,2.1015313691863926,1.6163568847059402,1.1738337757967774,0.8108135593047833,0.5374264103816607,0.33713258776127525,0.1968688955425713,0.10518614451990901,0.05065857605147955,0.022015214238503705,0.007956227590428374,7.301493965295013,5.929447958482952,5.3547025323548825,4.786764533679575,4.146204611044109,3.4755804573292117,2.7942133410766323,2.162187974583376,1.618219994644759,1.1587610610221313,0.7836782679460377,0.49358857574380793,0.28580225671202547,0.15226184898946335,0.07072393807598802
0.0,34.0,34.0,0.0,120.0,0.0,0.0,0.0,0.0,-107.0,0.0,-45.0,0.0,0.0,0.0,34.27253218749016,17.55503396713325,5.034890632487024,3.6576524968654107,3.1309109275556506,2.640283436056646,2.1254434517522696,1.6338344570917207,1.1856254133368525,0.8182269238764663,0.5418384464358429,0.3396904551045191,0.19849787327380786,0.1063549746529929,0.05144555023395203,0.022459277318728547,0.008150417151077298,7.326919494370959,5.972129518509427,5.395689697934056,4.823964314586136,4.178144905227793,3.501510174590345,2.813904107992879,2.176223482094971,1.6276956599789472,1.1649899990054693,0.7882145648943824,0.4974373182951009,0.2889682042056625,0.15448180661304145,0.07196973419989301
0.0,35.0,35.0,0.0,120.0,0.0,0.0,0.0,0.0,-107.0,0.0,-45.0,0.0,0.0,0.0,34.27253218749016,17.55503396713325,5.0662002594860285,3.6997400510739413,3.16802057365429,2.6713558860633384,2.149716160347657,1.6515579204420483,1.1975696842677521,0.825727261232482,0.5462913324913923,0.3422408345132047,0.20007731006677673,0.10747040602870014,0.05220171119481563,0.022891837445854567,0.00834217069482028,7.3535755712007065,6.015517861543031,5.4372203923898486,4.861620184364907,4.210458213713659,3.5277304807800025,2.833805822746564,2.1904019258107468,1.6372521743806872,1.1712016168648722,0.7926076609661828,0.5010941814269919,0.2919925565996186,0.15663094401850552,0.07319219693862984
0.0,36.0,36.0,0.0,120.0,0.0,0.0,0.0,0.0,-107.0,0.0,-45.0,0.0,0.0,0.0,34.27253218749016,17.55503396713325,5.099001383920202,3.742663177250387,3.205769801714297,2.702928918128109,2.174355941131449,1.669531411284305,1.2096689792974131,0.8333159357632077,0.550787414264733,0.3447900181347944,0.20161479175332542,0.10853650767686984,0.05292799627412374,0.023312815647519858,0.008531330711774206,7.381496090176707,6.05961389887254,5.479300320115874,4.8997380539305135,4.24314962706423,3.5542453676809447,2.8539213787059086,2.204725440660372,1.6468943155167348,1.1774114874016717,0.7968806727492657,0.5045753393949676,0.2948811504173962,0.15871004724396623,0.07439082369227439
0.0,37.0,37.0,0.0,120.0,0.0,0.0,0.0,0.0,-107.0,0.0,-45.0,0.0,0.0,0.0,34.27253218749016,17.55503396713325,5.1333398127345164,3.7864332475520346,3.244170368589671,2.735011863945073,2.1993693708536597,1.6877591356456707,1.22192571517816,0.8409942845956645,0.5553285687322448,0.34734324746684825,0.20311719205752468,0.10955725727899415,0.05362541647533496,0.02372218137852938,0.008717755638873786,7.410713823990195,6.104418894088826,5.521935446276378,4.938324056799522,4.276224407911983,3.581058774018966,2.8742535679719583,2.2191961147010435,1.6566258384640042,1.1836325127457035,0.8010543852520279,0.5078963620537378,0.29763996813991594,0.1607200836118379,0.07556520365571287
0.0,38.0,38.0,0.0,120.0,0.0,0.0,0.0,0.0,-107.0,0.0,-45.0,0.0,0.0,0.0,34.27253218749016,17.55503396713325,5.169260783967021,3.8310621963206573,3.283234347148916,2.7676142518992695,2.2247631423215,1.7062453688012797,1.234342346158041,0.848763629158263,0.5599163266517855,0.3499048694524542,0.20459070250492226,0.11053651598248401,0.054295044365935345,0.02411994882919545,0.00890131907475532,7.44126014464358,6.1499342831663,5.56513166858504,4.977384128879335,4.3096876242385145,3.6081747104552067,2.8948052752321245,2.2338158971113318,1.6664497731987493,1.1898753245337819,0.8051473864511395,0.5110721551790796,0.30027509570440397,0.1626621837862251,0.07671500788829946
0.0,39.0,39.0,0.0,120.0,0.0,0.0,0.0,0.0,-107.0,0.0,-45.0,0.0,0.0,0.0,34.27253218749016,17.55503396713325,5.206808807626383,3.8765625485805586,3.3229741365703607,2.800745819915231,2.250544076754984,1.7249944573054585,1.2469213593584272,0.8566252885700566,0.56455196396828,0.3524784765351692,0.20604086871000277,0.11147800740652472,0.054938002650928575,0.02450617338733872,0.009081909238361148,7.4731648774508415,6.196161822175041,5.60889498858134,5.01692423307675,4.343544346075653,3.6355971974474466,2.915579380199565,2.248586681114889,1.6763685964360044,1.1961486514335467,0.8091762118106616,0.5141169141243075,0.3027926827946241,0.16453762498372346,0.07783998649523108
0.0,40.0,40.0,0.0,120.0,0.0,0.0,0.0,0.0,-107.0,0.0,-45.0,0.0,0.0,0.0,34.27253218749016,17.55503396713325,5.246027509840835,3.9229474434172182,3.363402470221192,2.8344165242569597,2.276719131819686,1.744010821518939,1.2596652727212028,0.864580587463747,0.5692365713195271,0.35506702992470496,0.20747263128575621,0.1123853006491491,0.055555453402767824,0.024880948256324573,0.009259428369897732,7.506456135698698,6.243103673921459,5.653231600980053,5.056950478385233,4.37779975051222,3.6633302344889023,2.936578707489527,2.263510349472217,1.6863843664184162,1.2024596379702668,0.8131554965114202,0.5170440898734129,0.30519890578382225,0.16634781530417106,0.07893996485192341
0.0,41.0,41.0,0.0,120.0,0.0,0.0,0.0,0.0,-107.0,0.0,-45.0,0.0,0.0,0.0,34.27253218749016,17.55503396713325,5.28695948563136,3.9702306531518383,3.4045324206509604,2.8686365418604844,2.303295401113264,1.7632989569639979,1.2725766383209103,0.8726308585732847,0.5739711069313944,0.35767296663201104,0.2088903697071883,0.11326179707662438,0.05614858794164671,0.025244401225875412,0.00943379204829037,7.541160119286936,6.290762380694548,5.698147821598992,5.097469030002314,4.412459043754694,3.6913778297738977,2.9578060713573198,2.278588755214536,1.6964988417771687,1.2088141150925282,0.8170981314756446,0.5198663666182991,0.30749993328512193,0.16809427908936164,0.08001483777048385
0.0,42.0,42.0,0.0,120.0,0.0,0.0,0.0,0.0,-107.0,0.0,-45.0,0.0,0.0,0.0,34.27253218749016,17.55503396713325,5.329646160615561,4.018426599421712,3.446377406619467,2.903416275963647,2.330280117593009,1.782863436148904,1.2856580433677032,0.8807774450038578,0.5787564355306207,0.36029829168534033,0.2102979476030058,0.11411072065088074,0.05671861736647706,0.02559669158899869,0.009604928549435317,7.577300942996087,6.339140878616249,5.743650087382274,5.138486112275625,4.44752746434809,3.7197440030530706,2.9792642784327086,2.293823726697897,1.7067135625258674,1.2152168333041629,0.8210154184830131,0.522595650007029,0.30970189432319833,0.16977864318556216,0.08106456487762945
0.0,43.0,43.0,0.0,120.0,0.0,0.0,0.0,0.0,-107.0,0.0,-45.0,0.0,0.0,0.0,34.27253218749016,17.55503396713325,5.374127666117868,4.06755036605965,3.4889512005213956,2.938766361955117,2.3576806570987285,1.8027089104580096,1.2989121112227582,0.8890217016334139,0.5835933568965114,0.3629446566945327,0.2116987582820594,0.11493511150316153,0.057266763742681366,0.0259380071985639,0.00977277821273167,7.614900479487895,6.388242505925624,5.789744956703958,5.180008011700212,4.483010286430943,3.7484327885295823,3.0009561304203327,2.3092170712536793,1.7170299094332553,1.2216716600732827,0.8249172217983657,0.5252430649885421,0.31181084913483215,0.17140262402896675,0.08208916620878515
0.0,44.0,44.0,0.0,120.0,0.0,0.0,0.0,0.0,-107.0,0.0,-45.0,0.0,0.0,0.0,34.27253218749016,17.55503396713325,5.420442731430071,4.117617709215446,3.5322679361934415,2.9746976734479453,2.3855045419676273,1.8228401121024065,1.3123415024200795,0.8973649960420242,0.5884826265942773,0.36561342615526216,0.21309576950951778,0.11573782244225436,0.05779425195456508,0.026268561656448735,0.009937292819336451,7.653978221373811,6.438071005629321,5.836439109923273,5.222041079946468,4.518912823006979,3.7774482377718925,3.022884426750398,2.3247705780832666,1.7274491471798035,1.228181745552648,0.8288121140268467,0.5278189621579686,0.31383276261673926,0.1729680154748924,0.08308871801932427
0.0,45.0,45.0,0.0,120.0,0.0,0.0,0.0,0.0,-107.0,0.0,-45.0,0.0,0.0,0.0,34.27253218749016,17.55503396713325,5.468628597510284,4.168645072219258,3.5763421324575186,3.011221343401629,2.4137594488133582,1.8432618580833275,1.3259489064028844,0.9058087117080946,0.5934249710397512,0.3683057328269969,0.214491566715593,0.11652151810159486,0.05830230222015494,0.026588591630814482,0.010098435084039637,7.694551198008053,6.488630606976397,5.8837394756391035,5.264591901188555,4.555240640688678,3.806794579273352,3.0450518547974705,2.340485973788726,1.7379725003386346,1.234749645269739,0.8327075174406382,0.5303329312046614,0.3157734803842697,0.17447667737408762,0.0840633521214366
0.0,46.0,46.0,0.0,120.0,0.0,0.0,0.0,0.0,-107.0,0.0,-45.0,0.0,0.0,0.0,34.27253218749016,17.55503396713325,5.518720885584168,4.2206495581936005,3.6211887145258785,3.0483487705709953,2.442453166821026,1.86397905970698,1.3397370641350967,0.9143542421087012,0.5984210978229003,0.37102252391748436,0.2158883942817046,0.1172886762556892,0.05879212331670132,0.026898354284481694,0.010256177713550403,7.736633817271663,6.539925871217631,5.931652969479326,5.307666830001245,4.591999022360219,3.8364758185514383,3.0674612827481584,2.3563650446334443,1.7486010606613953,1.2413774734171708,0.8366098260979018,0.5327938216358326,0.31763870766647856,0.175930524514219,0.08501324380002385
0.0,47.0,47.0,0.0,120.0,0.0,0.0,0.0,0.0,-107.0,0.0,-45.0,0.0,0.0,0.0,34.27253218749016,17.55503396713325,5.570753755372238,4.273649003805082,3.6668229124273437,3.0860915380208063,2.4715937083009534,1.8849966932044429,1.3537087595411237,0.9230029954791973,0.6034717032423932,0.3737645988988602,0.21728819406777905,0.11804159123135248,0.05926490644004577,0.027198124828175067,0.01041050330928261,7.780237857799631,6.5919616432742005,5.980186534419348,5.351272400913815,4.6291933501797145,3.866496019079676,3.090115557086216,2.3724095567029497,1.7593358827824621,1.2480669690963435,0.8405245313634431,0.5352097674782911,0.3194339906266576,0.1773315164464798,0.08593861365322716
0.0,48.0,48.0,0.0,120.0,0.0,0.0,0.0,0.0,-107.0,0.0,-45.0,0.0,0.0,0.0,34.27253218749016,17.55503396713325,5.624759723629121,4.327661926055224,3.7132603922789253,3.12446153319581,2.501189221420418,1.9063198340122347,1.3678668123643125,0.9317563962866727,0.6085774776572234,0.37653264037068185,0.21869264129378763,0.1187823788909124,0.05972181975591587,0.027488194179916634,0.010561403522112217,7.825372447277087,6.644743224774484,6.029347343078537,5.395415255405633,4.66682912889965,3.896859330509393,3.1130174930429737,2.3886212499566253,1.77017800206222,1.2548195703522946,0.8444563327536706,0.5375882166098404,0.3211647003668261,0.1786816477349186,0.08683972512380563
0.0,49.0,49.0,0.0,120.0,0.0,0.0,0.0,0.0,-107.0,0.0,-45.0,0.0,0.0,0.0,34.27253218749016,17.55503396713325,5.680769747056979,4.382707545619591,3.760517225319164,3.1634709142038973,2.531248021304874,1.9279536485090094,1.382214084781587,0.9406158845882536,0.6137391090777057,0.3793272391809862,0.22010317750293046,0.11951298294231151,0.0601640036180161,0.02776886673051389,0.010708878575041467,7.872044072734349,6.6982762767414545,6.079142694056009,5.440102116030029,4.704911918342425,3.9275699340406867,3.136169915809075,2.405001857498908,1.781128426728077,1.261636481253124,0.8484092374023455,0.5399359634477031,0.3228360194943091,0.17998293868613158,0.08771687998272672
0.0,50.0,50.0,0.0,120.0,0.0,0.0,0.0,0.0,-107.0,0.0,-45.0,0.0,0.0,0.0,34.27253218749016,17.55503396713325,5.738813284430333,4.438805793129578,3.808609897813409,3.2031321171584657,2.561778594404126,1.9499033961488392,1.3967534824661778,0.9495829165833422,0.6189572856841431,0.38214891462799244,0.2215210405501267,0.12023518231255281,0.060592566431846295,0.028040458214783997,0.010852936738055086,7.920256635522437,6.752566805310795,6.129580013504114,5.485339789792478,4.743447336238512,3.958632045183758,3.1595756627515703,2.4215531076162335,1.7921881437653593,1.2685187214451388,0.8523866508152992,0.5422591838731531,0.32445293112490536,0.18123742660246867,0.08857041529117536
0.0,51.0,51.0,0.0,120.0,0.0,0.0,0.0,0.0,-107.0,0.0,-45.0,0.0,0.0,0.0,34.27253218749016,17.55503396713325,5.798918392322008,4.495977316553708,3.8575553216378013,3.243457863836257,2.5927896029071023,1.97217443164154,1.411487955649472,0.9586589651726695,0.624232697572863,0.3849981306201712,0.22294729166479269,0.12095059931691421,0.061008581146951735,0.028303293686409207,0.010993593817909186,7.970011545148492,6.807621147649162,6.180666857077167,5.531135171543187,4.7824410608997985,3.9900499164941117,3.1832375855479853,2.43827672574325,1.8033581232449625,1.2754671657532144,0.8563914582016853,0.5445634717008103,0.3260202102346373,0.1824471575228087,0.08940070051538859
0.0,52.0,52.0,0.0,120.0,0.0,0.0,0.0,0.0,-107.0,0.0,-45.0,0.0,0.0,0.0,34.27253218749016,17.55503396713325,5.8611117440679585,4.554243446566608,3.9073708884822755,3.284461291438274,2.624289876637768,1.9947721846985162,1.4264205066576063,0.9678455207890103,0.629566037410441,0.38787530871502257,0.2243828396314655,0.12166070840371392,0.06141308234970267,0.028557705595613204,0.01113087267038721,8.021307900587592,6.8634460686045005,6.232411030014829,5.57749527650367,4.821898734330357,4.021827883138998,3.2071585374959675,2.4551744409856884,1.8146393205329672,1.2824825758247165,0.8604260968296557,0.5468538759927385,0.3275424172370461,0.18361417844421138,0.09020813535603896
0.0,53.0,53.0,0.0,120.0,0.0,0.0,0.0,0.0,-107.0,0.0,-45.0,0.0,0.0,0.0,34.27253218749016,17.55503396713325,5.9254191022600295,4.613626352179644,3.9580743919558805,3.3261556313875493,2.656288428697867,2.0177022345862095,1.4415541695895693,0.9771440923048387,0.6349580026198552,0.3907808377645087,0.22582846246975366,0.12236684520773367,0.061807063938771015,0.028804031969809057,0.011264802827569155,8.074142555774262,6.9200484607581805,6.284820254127413,5.624427125309622,4.861826240706749,4.0539702553188866,3.2313414138126935,2.4722479751349717,1.826032681870456,1.2895656244355864,0.8644926201131122,0.549134938590399,0.32902389364486184,0.18474053002563,0.09099314556227556
0.0,54.0,54.0,0.0,120.0,0.0,0.0,0.0,0.0,-107.0,0.0,-45.0,0.0,0.0,0.0,34.27253218749016,17.55503396713325,5.991865232923675,4.674148909252965,4.00968409483203,3.368554488492008,2.688794465126315,2.040970236550211,1.4568920260540477,0.9865562096911165,0.640409297108416,0.3937150807363901,0.22728482682059373,0.1230702157518485,0.062191477331209895,0.029042614706028806,0.011395419659107479,8.128510378204933,6.977435593933755,6.337902521315769,5.671937971742104,4.902229611916072,4.086481581879949,3.2557892359352563,2.4894989418253965,1.8375391243938186,1.29671694253203,0.8685927455102245,0.5514107325440978,0.33046875979632395,0.185828239538882,0.0917561858925924
0.0,55.0,55.0,0.0,120.0,0.0,0.0,0.0,0.0,-107.0,0.0,-45.0,0.0,0.0,0.0,34.27253218749016,17.55503396713325,6.060474172019934,4.735834747419421,4.0622187392906985,3.4116717979098867,2.721817392339233,2.064581957449566,1.472437215452779,0.9960834171731007,0.6459206272516541,0.3966783844329529,0.22875250354595303,0.12377190593543119,0.0625672301659502,0.029273797936238508,0.0115227643720899,8.184404459371896,7.035614987452506,6.391665900377649,5.720035057023341,4.943114759758988,4.119366231741285,3.2805048978923583,2.5069291081731024,1.8491595833627852,1.3039370718656158,0.8727279228352156,0.5536848959224296,0.331880913931015,0.18687931505553834,0.09249772788663563
0.0,56.0,56.0,0.0,120.0,0.0,0.0,0.0,0.0,-107.0,0.0,-45.0,0.0,0.0,0.0,34.27253218749016,17.55503396713325,6.131269468344907,4.7987082689927565,4.115697558789615,3.455521820445001,2.7553668176619297,2.088543272912491,1.4881929287468103,1.0057272775264208,0.6514927044216606,0.39967108265145074,0.23023198280382884,0.12447289061141646,0.06293518548268316,0.02949792652725817,0.011646883381558903,8.241816360277008,7.094594420823027,6.446118584605051,5.768725702822426,4.984487630941269,4.152628571096982,3.3054912859229932,2.524540279696021,1.8608949936206391,1.3112265047139964,0.876899368449429,0.5559606684556835,0.333264033301258,0.1878957393525482,0.0932182617689377
0.0,57.0,57.0,0.0,120.0,0.0,0.0,0.0,0.0,-107.0,0.0,-45.0,0.0,0.0,0.0,34.27253218749016,17.55503396713325,6.204274389623743,4.862794669413014,4.17014034685642,3.5001192462383237,2.7894526126681494,2.112860093021581,1.5041624298597034,1.0154893659397013,0.6571262502880766,0.40269349775927415,0.2317236872566928,0.12517404243185573,0.06329616132827072,0.029715344683901464,0.011767828247730542,8.30073646507219,7.154382051998998,6.5012690302763,5.818017429540634,5.026354260078,4.186273101415099,3.330751404281442,2.5423341927628895,1.8727462748603931,1.3185857173181246,0.8811080947223666,0.5582409266672302,0.33462157670414666,0.18887946432792513,0.09391829844944166
0.0,58.0,58.0,0.0,120.0,0.0,0.0,0.0,0.0,-107.0,0.0,-45.0,0.0,0.0,0.0,34.27253218749016,17.55503396713325,6.279512300973183,4.928119967678243,4.225567382800539,3.5454790017356146,2.8240847564364127,2.1375385227432155,1.5203490093475025,1.0253712877571832,0.6628219890358089,0.40574594630756683,0.23322798229248157,0.12587614063218275,0.06365093072597022,0.02992639463653,0.011885654321635799,8.361154059419706,7.214986170878226,6.557125714702412,5.8679177972910095,5.068720826336153,4.220304428826828,3.3562882476441445,2.5603126044993303,1.884714340734888,1.3260151609773185,0.8853549468791899,0.560528215602565,0.3359567881133651,0.1898324062311456,0.09459836367110869
0.0,59.0,59.0,0.0,120.0,0.0,0.0,0.0,0.0,-107.0,0.0,-45.0,0.0,0.0,0.0,34.27253218749016,17.55503396713325,6.3570068567927835,4.994710982034083,4.281999456379286,3.5916163304219553,2.8592734281349244,2.1625848120414974,1.53675599755766,1.0353746739774559,0.6685806498586974,0.4088287405303972,0.23474518554079302,0.12657987927759456,0.06400022200500423,0.03013141544173724,0.012000420582436598,8.423057640345604,7.27641527550194,6.613697233855231,5.918434491405734,5.111593635922989,4.254727207505482,3.382104835929761,2.5784772828475946,1.8968001028194157,1.3335152671228445,0.8896406302458661,0.5628247795643059,0.3372727014804236,0.19075644123507726,0.09525899668214315
0.0,60.0,60.0,0.0,120.0,0.0,0.0,0.0,0.0,-107.0,0.0,-45.0,0.0,0.0,0.0,34.27253218749016,17.55503396713325,6.436782246812973,5.062595359688787,4.339457939509109,3.6385468961083594,2.89502906383819,2.1880052914756214,1.5533867911067794,1.0455011725043082,0.674402970221921,0.4119421892787216,0.23627557500444543,0.12728587510045247,0.06434471942770488,0.030330741885961996,0.01211218977318887,8.486435261877544,7.338678163889008,6.670992374783339,5.969575343941589,5.154979047951731,4.289546130254095,3.408204234406368,2.596830002171782,1.9090044724287447,1.3410864517099341,0.893965733355528,0.5651325910263907,0.33857214648048156,0.19165340147485174,0.09590074867777935
0.0,61.0,61.0,0.0,120.0,0.0,0.0,0.0,0.0,-107.0,0.0,-45.0,0.0,0.0,0.0,34.27253218749016,17.55503396713325,6.518863506329076,5.131801598220858,4.39796477767425,3.6862867467502847,2.931362323755147,2.213806411800867,1.570244841166731,1.0557524534625582,0.6802896944203776,0.4150865997284591,0.23781939576067268,0.12799467492809186,0.06468506407298555,0.030524703487168924,0.012221027780369171,8.551274728837992,7.40178388523752,6.729020062800316,6.021348310761413,5.198883512655407,4.324765946364225,3.4345895412603906,2.6153725489223794,1.921328360780557,1.348729118624453,0.8983307476379327,0.5674533776090523,0.3398577550632767,0.192525071544649,0.09652418061203236
0.0,62.0,62.0,0.0,120.0,0.0,0.0,0.0,0.0,-107.0,0.0,-45.0,0.0,0.0,0.0,34.27253218749016,17.55503396713325,6.603276799364862,5.202359069927044,4.457542502516584,3.7348523288899327,2.9682840983282204,2.239994745509809,1.5873336547447472,1.0661302096511103,0.6862415738287467,0.41826227834013785,0.2393768657115094,0.12870676261789074,0.0650218549455259,0.030713623596570105,0.012327003277051178,8.617563814221494,7.465741751507093,6.78778935872875,6.073761470816281,5.24331357432318,4.360391463105474,3.461263889425147,2.634106722637427,1.9337726800010542,1.3564436622907154,0.9027360840465832,0.569788647140084,0.34113196865043277,0.19337318544506066,0.09712986133181141
0.0,63.0,63.0,0.0,120.0,0.0,0.0,0.0,0.0,-107.0,0.0,-45.0,0.0,0.0,0.0,34.27253218749016,17.55503396713325,6.69004974044156,5.274298113383588,4.518214305869839,3.7842605628296333,3.005805543010675,2.266576941139264,1.6046567892254373,1.0766361678529521,0.6922593632767413,0.4214695322403198,0.24094818043487093,0.1294225654764233,0.06535565028545781,0.030897818592542935,0.01243018792209113,8.685290500322953,7.530561383490314,6.847309463901571,6.126822994561529,5.288275807979841,4.396427508995114,3.4882304950270395,2.6530343175567537,1.9463383507398082,1.3642304677260453,0.9071820875303054,0.5721397107116166,0.3423970458601897,0.1941994239714064,0.0977183652819142
0.0,64.0,64.0,0.0,120.0,0.0,0.0,0.0,0.0,-107.0,0.0,-45.0,0.0,0.0,0.0,34.27253218749016,17.55503396713325,6.779211585530194,5.347649983748914,4.580003929919829,3.8345287321187422,3.0439380119555244,2.2935597967878985,1.622217882047266,1.087272062884991,0.6983438306086699,0.4247086679056181,0.24253351740580237,0.1301424602500221,0.06568696899813652,0.031077597183622324,0.012530654714290268,8.754443054297987,7.59625266080504,6.90758968932893,6.180541162501898,5.3337769247240265,4.432879021477281,3.5154925812185596,2.6721571525079626,1.9590262931803155,1.3720899153648483,0.9116690479603694,0.5745077041327086,0.3436550705783769,0.19500541251583722,0.09829027120691824
0.0,65.0,65.0,0.0,120.0,0.0,0.0,0.0,0.0,-107.0,0.0,-45.0,0.0,0.0,0.0,34.27253218749016,17.55503396713325,6.870793418256602,5.422446872799116,4.6429356344560215,3.885674470574325,3.0826930824048486,2.320950305999178,1.6400206333283676,1.0980396413060216,0.7044957558682404,0.4279799921897049,0.24413303916713727,0.13086677867474242,0.06601629221114623,0.03125325979368356,0.012628477353932705,8.825010199763943,7.662825754708269,6.968639503928142,6.234924414678036,5.379823836911153,4.4697510495950725,3.543053342582869,2.691477091873607,1.9718374209365235,1.3800223841882377,0.9161972096158582,0.5768936074441476,0.3449079603295693,0.1957927192745234,0.09884616103909619
0.0,66.0,66.0,0.0,120.0,0.0,0.0,0.0,0.0,-107.0,0.0,-45.0,0.0,0.0,0.0,34.27253218749016,17.55503396713325,6.964828476141811,5.498722132886323,4.707034360097002,3.9377159093030003,3.1220826278872877,2.3487555466695507,1.658068793038967,1.1089406902745258,0.7107159225830466,0.43128381284692036,0.2457468968187745,0.13159581222657354,0.06634406500574284,0.03142509802890342,0.012723731036873513,8.896981445609494,7.7302912046067895,7.030468587196397,6.289981297800092,5.426423533649886,4.507048715304874,3.570916114637447,2.7109960251544116,1.9847726150052405,1.3880282509609358,0.9207667840440542,0.5792982615899182,0.3461574746329903,0.19656285415172325,0.09938661903636527
0.0,67.0,67.0,0.0,120.0,0.0,0.0,0.0,0.0,-107.0,0.0,-45.0,0.0,0.0,0.0,34.27253218749016,17.55503396713325,7.06135234179892,5.576510318439868,4.772325684063983,3.99067160584401,3.1621187900519625,2.376982728283716,1.6763661749552616,1.1199770269122054,0.717005122738702,0.43462043692552144,0.2473752328934435,0.1323298165724636,0.06667069816002341,0.03159339424464438,0.012816491217418033,8.970347314701481,7.798659856137015,7.093086866757956,6.345720504480992,5.473583172623579,4.544777303402929,3.5990843757502273,2.730715907581081,1.9978326820012897,1.3961078956167952,0.9253779593699203,0.5817223838944142,0.34740522342086827,0.19731726797304705,0.09991223232820808
0.0,68.0,68.0,0.0,120.0,0.0,0.0,0.0,0.0,-107.0,0.0,-45.0,0.0,0.0,0.0,34.27253218749016,17.55503396713325,7.160403284148449,5.655847299799853,4.838835887145415,4.044560554861772,3.202813997895007,2.4056391969137136,1.6949166453055904,1.131150475563622,0.7233641555815753,0.4379901820238418,0.24901817799693124,0.13306901734801133,0.06699656962104801,0.03175842113443077,0.012906832859817412,9.045099674759607,7.8679426960692425,7.156504441075178,6.402150692129309,5.52130978727339,4.582941852796522,3.627561280832398,2.750638547944362,2.011018715014383,1.4042616772798868,0.9300308762369414,0.5841665895974377,0.348652677479714,0.19805734933313843,0.10042357436088548
0.0,69.0,69.0,0.0,120.0,0.0,0.0,0.0,0.0,-107.0,0.0,-45.0,0.0,0.0,0.0,34.27253218749016,17.55503396713325,7.26202271841624,5.7367702821212765,4.906592010216343,4.0994021633243145,3.2441809592519872,2.434732436027394,1.7137241383489532,1.1424628972197572,0.7297938296294018,0.44139336275843405,0.2506758589844911,0.13381361188703844,0.06732202666853457,0.0319204415020334,0.012994830719992956,9.121232169301672,7.9381507928129285,7.220731762372485,6.459280732332136,5.5696106353218315,4.6215476645286175,3.6563502337532796,2.770765869358443,2.02433165479338,1.4124899652105565,0.9347256687370683,0.5866313963824584,0.34990117475059646,0.19878442724779682,0.10092122277065238
0.0,70.0,70.0,0.0,120.0,0.0,0.0,0.0,0.0,-107.0,0.0,-45.0,0.0,0.0,0.0,34.27253218749016,17.55503396713325,7.3662559225624715,5.819317751995507,4.975621972417335,4.1552162611503825,3.2862326679320955,2.4642700725158484,1.7327926515702894,1.1539161794373232,0.7362949621401721,0.444830295944932,0.25234839787285795,0.13456377333267747,0.06764738757194885,0.03207970802512337,0.013080559587142193,9.198740510868939,8.009295078102017,7.285779582830978,6.517119661379297,5.618493065258642,4.660600123909983,3.685454682855668,2.791099816006698,2.037772449214415,1.4207931285303368,0.9394624551722965,0.5891172391991142,0.3511519295280103,0.1994997700090225,0.1014057514435844
0.0,71.0,71.0,0.0,120.0,0.0,0.0,0.0,0.0,-107.0,0.0,-45.0,0.0,0.0,0.0,34.27253218749016,17.55503396713325,7.473152914147642,5.903529265675425,5.04595469239912,4.212023121336054,3.32898239800012,2.494259878215099,1.7521262458569773,1.165512239240122,0.7428683779766933,0.44830130117411177,0.2540359128066614,0.1353196536824564,0.06797294336685993,0.032236463106193665,0.01316409479667536,9.277622486253495,8.081386208504519,7.351658883418226,6.575676718879306,5.667964506844514,4.700104703493071,3.7148781285248673,2.8116423521643377,2.051342053922759,1.4291715368570699,0.9442413412710949,0.5916244807350075,0.3524060406652533,0.2002045854058944,0.10187772874214902
0.0,72.0,72.0,0.0,120.0,0.0,0.0,0.0,0.0,-107.0,0.0,-45.0,0.0,0.0,0.0,34.27253218749016,17.55503396713325,7.5827692819548345,5.989445124005164,5.117620174026192,4.269843474811842,3.3724436195971426,2.524709679235476,1.7717290513372959,1.1772530728382335,0.7495148817287024,0.45180671028045866,0.2557385166613507,0.13608138689889157,0.06829895956626404,0.03239093875876943,0.013245510998124444,9.357877349288211,8.15443450333759,7.418380585705438,6.634961259784902,5.718032372524677,4.740066971740765,3.744624247883644,2.8323954213075258,2.0650414351500945,1.4376255605882908,0.9490624238010434,0.5941534202945095,0.35366449967147867,0.20090002117506536,0.10233771383289228
0.0,73.0,73.0,0.0,120.0,0.0,0.0,0.0,0.0,-107.0,0.0,-45.0,0.0,0.0,0.0,34.27253218749016,17.55503396713325,7.695166224998012,6.077105941998716,5.190649457132186,4.328698661449042,3.4166302140156315,2.5556276823322026,1.791605283529357,1.1891405845549405,0.7562353495253235,0.45534683706439494,0.2574563254107771,0.13684908986090843,0.06862567803212503,0.03254335666447205,0.013324884866698843,9.43950520749233,8.228450791142542,7.485955761622296,6.694983217666604,5.768704401649747,4.780492601012728,3.7746965064109803,2.853361063438905,2.07887157235402,1.4461555693787076,0.9539257903272925,0.5967043034795327,0.35492819798634856,0.20158716581231553,0.10278625915298767
0.0,74.0,74.0,0.0,120.0,0.0,0.0,0.0,0.0,-107.0,0.0,-45.0,0.0,0.0,0.0,34.27253218749016,17.55503396713325,7.8104097989612,6.1665527921944445,5.265074489862932,4.388610685914867,3.461556262798284,2.5870221612776634,1.8117592025192382,1.2011767673575617,0.7630306371351366,0.45892200784575404,0.25918945084651673,0.13762286605517965,0.06895331844369673,0.0326939281200842,0.013402289345678315,9.522505814263575,8.303446868063263,7.554394977258815,6.755752648754719,5.819988325262599,4.821387330155511,3.8050985475444183,2.8745413140168856,2.0928334494706315,1.4547619371403415,0.9588315227899555,0.5992773283088452,0.3561979347691817,0.20226704939021592,0.10322390502408825
0.0,75.0,75.0,0.0,120.0,0.0,0.0,0.0,0.0,-107.0,0.0,-45.0,0.0,0.0,0.0,34.27253218749016,17.55503396713325,7.928568879955265,6.257827914834513,5.340927713698137,4.449602311250301,3.507236105848221,2.6189015658565724,1.8321951367892653,1.2133636418257188,0.7699016101000994,0.4625325516846733,0.2609380036634968,0.13840280693000048,0.06928207996969937,0.03284285413491248,0.013477793184835418,9.606879409423033,8.379436618240824,7.623708359462497,6.817279789833935,5.871892010707523,4.862756976074495,3.835834072027665,2.895938233912966,2.106928060472101,1.4634450404453332,0.9637796985937837,0.6018726520924146,0.35747442384293954,0.20294064470474218,0.10365118375774435
0.0,76.0,76.0,0.0,120.0,0.0,0.0,0.0,0.0,-107.0,0.0,-45.0,0.0,0.0,0.0,34.27253218749016,17.55503396713325,8.049714263252119,6.350976385909363,5.418241592899857,4.511697084859849,3.5536843515454857,2.6512745223354233,1.8529174868223466,1.2257032563570747,0.7768491437764853,0.4661788005153006,0.26270209383841475,0.13918899356218722,0.06961214280579295,0.03299032554812258,0.013551462666281478,9.692630402302024,8.45643637080195,7.693905888029695,6.879574908143814,5.924423493887693,4.904607425041329,3.866906841074034,2.917553910387123,2.121156409934792,1.4722052590063055,0.9687703918621201,0.6044903971648695,0.35875830042698625,0.20360886855247562,0.10406862435540151
0.0,77.0,77.0,0.0,120.0,0.0,0.0,0.0,0.0,-107.0,0.0,-45.0,0.0,0.0,0.0,34.27253218749016,17.55503396713325,8.17392230403781,6.446048048301218,5.4970483700962385,4.574919248450958,3.600915901216597,2.68414982786521,1.8739307298891141,1.2381976874247413,0.7838741233527138,0.4698610892749098,0.2644818309373367,0.13998149812298283,0.06994366964341994,0.03313652318515292,0.013623369114257955,9.779772059561571,8.534463579738286,7.764998187776103,6.942648135776251,5.977591010803315,4.946944623375004,3.8983206783374666,2.939390458199092,2.135519513637532,1.4810429761278454,0.9738036744964174,0.6071306559264728,0.36005012752391957,0.20427258315292618,0.10447675550626678
0.0,78.0,78.0,0.0,120.0,0.0,0.0,0.0,0.0,-107.0,0.0,-45.0,0.0,0.0,0.0,34.27253218749016,17.55503396713325,8.301282670693153,6.543097967532523,5.577380522054481,4.639293519838105,3.648945986868139,2.7175364370301387,1.895239425505295,1.2508490399752432,0.7909774438569762,0.4735797560226266,0.2662773243679908,0.140780385163227,0.07027680706690331,0.033281618048834206,0.013693598160770135,9.868325658683466,8.613533519824928,7.836997648498095,7.006509398085058,6.031403021116868,4.989774571285592,3.9300794697418517,2.9614500208443006,2.1500183992051585,1.48995857912905,0.9788796170802192,0.609793495265313,0.36135040195555557,0.20493259769575603,0.10487609686660233
