Line_number,Fiducial,Easting,Northing,Height,Elevation,tx_pitch,tx_roll,tx_yaw,txrx_dx,txrx_dy,txrx_dz,rx_pitch,rx_roll,rx_yaw,PX,PZ,S0X_time_1.086e-05,S0X_time_3.256e-05,S0X_time_5.426e-05,S0X_time_8.680e-05,S0X_time_1.411e-04,S0X_time_2.279e-04,S0X_time_3.689e-04,S0X_time_5.860e-04,S0X_time_9.115e-04,S0X_time_1.411e-03,S0X_time_2.192e-03,S0X_time_3.418e-03,S0X_time_5.339e-03,S0X_time_8.301e-03,S0X_time_1.338e-02,S0Z_time_1.086e-05,S0Z_time_3.256e-05,S0Z_time_5.426e-05,S0Z_time_8.680e-05,S0Z_time_1.411e-04,S0Z_time_2.279e-04,S0Z_time_3.689e-04,S0Z_time_5.860e-04,S0Z_time_9.115e-04,S0Z_time_1.411e-03,S0Z_time_2.192e-03,S0Z_time_3.418e-03,S0Z_time_5.339e-03,S0Z_time_8.301e-03,S0Z_time_1.338e-02
0.0,0.0,0.0,0.0,120.0,0.0,0.0,0.0,0.0,-107.0,0.0,-45.0,0.0,0.0,0.0,34.27253218749016,17.55503396713325,4.5537949340093995,2.6611960486102593,2.1777802554135444,1.7942036482452608,1.3911493587138055,0.999583675084716,0.6529129515672041,0.393068596334,0.223254978126896,0.11908229028870836,0.05959043917338277,0.028213909445133103,0.012747824830358178,0.005542554860388284,0.0020779180802384437,6.925324744975024,4.906824266144437,4.269777158494445,3.7391288741458424,3.1468109265454727,2.511667371720756,1.8714097134048513,1.310626737620992,0.8750677694596091,0.5542566636152121,0.3323472719484231,0.18963187108410035,0.10360975099984392,0.05473247254027151,0.02648684163844586
0.0,1.0,1.0,0.0,120.0,0.0,0.0,0.0,0.0,-107.0,0.0,-45.0,0.0,0.0,0.0,34.27253218749016,17.55503396713325,4.558316278122538,2.6803556355664573,2.2030113449625266,1.8309939908345723,1.4429860654048188,1.0579961125387978,0.7049278731743903,0.43067137707340714,0.24633812300228716,0.13134609397744204,0.06531218111560814,0.030615273129844387,0.013677186281407034,0.005881749898610186,0.0021839353229407216,6.9288425201746255,4.92786562858854,4.300453041001442,3.7872118105542,3.2218700754591323,2.607897130253458,1.9713167670574832,1.3963969225981148,0.9382441851172187,0.5949730638783798,0.3556189838262078,0.20165850333171922,0.10934617547135891,0.05731243221733481,0.02751770769443715
0.0,2.0,2.0,0.0,120.0,0.0,0.0,0.0,0.0,-107.0,0.0,-45.0,0.0,0.0,0.0,34.27253218749016,17.55503396713325,4.5631401950593,2.699715451361584,2.2251966996483885,1.858140456461599,1.480934257936238,1.1043173890653633,0.7498006560630046,0.4655166369800116,0.2689553821216982,0.1438647870758385,0.07130982148008848,0.033166414546661346,0.014668058553064375,0.006242551403059192,0.0022965479138825876,6.932609963769467,4.949155522975839,4.327787027495223,3.822956853020496,3.2762570658693826,2.6827172980461107,2.055293440739915,1.4734703301807424,0.9981119533066817,0.6351538211697293,0.37924211762195575,0.214073378948057,0.11531360041756047,0.060000830629917144,0.028590712869849398
0.0,3.0,3.0,0.0,120.0,0.0,0.0,0.0,0.0,-107.0,0.0,-45.0,0.0,0.0,0.0,34.27253218749016,17.55503396713325,4.568285249725491,2.7195812419806593,2.2467369268572943,1.8806569167176872,1.509632806772539,1.140893234137043,0.7879657628090525,0.4972220601998681,0.29069410990387046,0.15642174515122206,0.07750932344661506,0.0358499301362328,0.01571775675478923,0.00662483223693086,0.002415824333091024,6.936643723576593,4.970983496006967,4.354443332040709,3.852929633142936,3.317293925926137,2.7409813208212066,2.125272887045369,1.541847871240592,1.0540329207552677,0.6742630475116459,0.402946930112603,0.2267792536848131,0.12148493239797792,0.06279162683496554,0.029704882189557594
0.0,4.0,4.0,0.0,120.0,0.0,0.0,0.0,0.0,-107.0,0.0,-45.0,0.0,0.0,0.0,34.27253218749016,17.55503396713325,4.573770587733137,2.7400053989142634,2.2684122651613174,1.901260320464586,1.5325798939062785,1.1699358912132318,0.8201340020008112,0.5256808426465175,0.3112694658568883,0.16882953515252302,0.08383599540231607,0.03864564160526902,0.01682253116611104,0.007028204387913348,0.0025417871245212147,6.940961102797991,4.993397764198225,4.38125306117469,3.880555155007541,3.350226597590464,2.7868383478876666,2.183313151308514,1.6019509209376623,1.105680813147679,0.7118915979781187,0.4264897127744889,0.23967766186122144,0.12783019389409855,0.06567755844600122,0.030858904971104644
0.0,5.0,5.0,0.0,120.0,0.0,0.0,0.0,0.0,-107.0,0.0,-45.0,0.0,0.0,0.0,34.27253218749016,17.55503396713325,4.579616281175701,2.761002355197274,2.290436089567655,1.9212641834270519,1.552218165626509,1.1933983440667726,0.8471268423514258,0.5509677258553844,0.33050561115216565,0.18093503943795677,0.09021862882030136,0.04153172151647292,0.0179777290108522,0.007452026142381849,0.0026744093704681787,6.9455803056358185,5.0164116075023415,4.408433273147435,3.907436986506247,3.3785794874027517,2.82372529798455,2.2314057724483956,1.654428088368164,1.1529599223725688,0.7477477460780113,0.4496597216420513,0.2526728979184298,0.1343176015966591,0.06865032421822927,0.032051153324812794
0.0,6.0,6.0,0.0,120.0,0.0,0.0,0.0,0.0,-107.0,0.0,-45.0,0.0,0.0,0.0,34.27253218749016,17.55503396713325,4.585843394231862,2.782582226450569,2.312858973115098,1.9412389544420736,1.570121921697408,1.2129114555418328,0.869786682475631,0.5732704161920321,0.34831315555549863,0.19261959272563622,0.09659228444754263,0.044485726665361776,0.019177983990837925,0.007895418046006266,0.0028136136834949806,6.9505205248446895,5.040034210912415,4.436031871375245,3.934251387330292,3.404555170795523,2.8543845919434934,2.2713954065886655,1.7000355041488646,1.1959359548284174,0.7816408232598872,0.47228166016222806,0.2656750036730503,0.14091458053340883,0.0717007893783301,0.03327971004253152
0.0,7.0,7.0,0.0,120.0,0.0,0.0,0.0,0.0,-107.0,0.0,-45.0,0.0,0.0,0.0,34.27253218749016,17.55503396713325,4.592474002718457,2.8047544140580194,2.3356938284239694,1.9614090532904294,1.5872309886124791,1.229763059393427,0.8889239453704287,0.5928432582957817,0.3646680399877647,0.20379624705264038,0.10289988393337642,0.04748546790637571,0.020417415355101214,0.008357286191455718,0.0029592730238683783,6.955801942303152,5.064273893672285,4.4640592973751865,3.9612564910297574,3.4294350126682205,2.8809083089568275,2.3049411534320523,1.7395669258724213,1.2347825952206466,0.8134629775597562,0.4942150905507218,0.2786017884649101,0.14758865896022091,0.07481920020808107,0.034542401193599866
0.0,8.0,8.0,0.0,120.0,0.0,0.0,0.0,0.0,-107.0,0.0,-45.0,0.0,0.0,0.0,34.27253218749016,17.55503396713325,4.599531218425603,2.8275279897591354,2.358946953991148,1.981855694676373,1.604068097491181,1.244915584267545,0.905282030622618,0.6099766926123266,0.3795939168909508,0.21440569444264082,0.10909286809571782,0.05050968897248108,0.02168982158626985,0.008836350954556512,0.0031112128537602915,6.9614457289041995,5.089138513961715,4.492519646104541,3.9885423515187646,3.4539156636792834,2.9048176232909335,2.3334932245208484,1.7738134269787404,1.2697426520423245,0.8431718568081621,0.515351963897792,0.29138000967063465,0.15430821478536924,0.0779953961246648,0.035836831990652004
0.0,9.0,9.0,0.0,120.0,0.0,0.0,0.0,0.0,-107.0,0.0,-45.0,0.0,0.0,0.0,34.27253218749016,17.55503396713325,4.607039216347568,2.8509118496760597,2.3826238592437683,2.002607353452643,1.6209057685872437,1.259051721197967,0.9195143744639507,0.6249764013138671,0.3931484074039415,0.22441181805577307,0.11513119337885995,0.05353855646947738,0.02298885811956015,0.009331179153055561,0.003269214263402645,6.96747405207681,5.114635626376832,4.521416175058388,4.016138880076785,3.478352672531116,2.9271674740801825,2.3582807168535043,1.803538501209407,1.3011009657295476,0.8707754919259081,0.5356131701945461,0.3039458802229067,0.16104306500650808,0.08121900997879133,0.037160424496546954
0.0,10.0,10.0,0.0,120.0,0.0,0.0,0.0,0.0,-107.0,0.0,-45.0,0.0,0.0,0.0,34.27253218749016,17.55503396713325,4.6150232596296075,2.8749147697045765,2.4067299859240627,2.023675402348087,1.6378780752966076,1.2726329364006275,0.9321726988745421,0.6381480372729583,0.40541275266796956,0.23379743300759892,0.12098289965698245,0.05655398091249979,0.02430819263560291,0.009840217672971475,0.0034330178077042993,6.97391007915171,5.1407725067725405,4.550751960888358,4.044057075114397,3.5029172806735502,2.948657372481118,2.3803121233438826,1.8294606819033323,1.3291658752791033,0.8963197860378443,0.5549447256842015,0.31624507217651565,0.16776490397634444,0.0844796499556282,0.03851045577741911
0.0,11.0,11.0,0.0,120.0,0.0,0.0,0.0,0.0,-107.0,0.0,-45.0,0.0,0.0,0.0,34.27253218749016,17.55503396713325,4.62350972117747,2.8995454040097974,2.4312707919160155,2.0450664794557305,1.655047972329442,1.2859576878230732,0.9437055455430262,0.649785500958182,0.4164840407481518,0.2425605032275212,0.1266234286490558,0.05953979725505596,0.025641634811310998,0.010361826865919377,0.0036023278585936213,6.980777976376647,5.167556117312684,4.580530011985659,4.072302868081198,3.5276880687029433,2.9697321546025117,2.40038853967644,1.852240503929853,1.3542563452152152,0.9198785473671973,0.57331398636433,0.3282323678494534,0.17444760495887615,0.08776705901127281,0.03988409544063313
0.0,12.0,12.0,0.0,120.0,0.0,0.0,0.0,0.0,-107.0,0.0,-45.0,0.0,0.0,0.0,34.27253218749016,17.55503396713325,4.63252610216599,2.924812272096067,2.456251822940892,2.0667861992177934,1.6724444215901426,1.2992114011438178,0.9544649503400152,0.6601620809857811,0.42646921035907337,0.25071093696723784,0.13203482218210585,0.062481835258248755,0.026983239938691773,0.010894312393406201,0.00377681730979987,6.988102904463059,5.19499306588214,4.610753362077798,4.100881117389858,3.552700233083657,2.990663979740146,2.4191266992814295,1.8724711988778713,1.376692554547358,0.9415457541989559,0.5907061141838222,0.3398710833244362,0.1810674038861328,0.09107124997848771,0.04127844169168734
0.0,13.0,13.0,0.0,120.0,0.0,0.0,0.0,0.0,-107.0,0.0,-45.0,0.0,0.0,0.0,34.27253218749016,17.55503396713325,4.6421010476212965,2.9507237519427285,2.48167877090724,2.088840075550346,1.6900813033538733,1.31250519972825,0.9647183637787534,0.6695243275076352,0.435480239319456,0.258267944791286,0.13720488963753624,0.06536790772823584,0.028327387640552898,0.011435954583470635,0.003956132482354501,6.9959110111689515,5.223089575945171,4.641425128464713,4.129796550526658,3.577970115116987,3.011613615765911,2.436987540414997,1.8906733244554417,1.396788558415719,0.9614296237249302,0.607120914617288,0.3511323604877836,0.18760298579857332,0.09438261617795468,0.04269055521713527
0.0,14.0,14.0,0.0,120.0,0.0,0.0,0.0,0.0,-107.0,0.0,-45.0,0.0,0.0,0.0,34.27253218749016,17.55503396713325,4.652264358852664,2.977288080121123,2.5075575034373143,2.111233699346709,1.7079663419942346,1.3259036660266748,0.9746629861441467,0.6780885636476252,0.44363017030542434,0.26525787868864276,0.1421264032075577,0.06818774041617062,0.029668838102235185,0.011985034704499502,0.004139898087947752,7.004229420825066,5.2518514655004305,4.672548530143717,4.159053931646908,3.603506514712888,3.0326731975713286,2.4543061432590396,1.9072933807265775,1.4148463203724997,0.9796480384360999,0.6225700928811623,0.3619943980611503,0.19403549405706938,0.09769201855551704,0.04411749037505129
0.0,15.0,15.0,0.0,120.0,0.0,0.0,0.0,0.0,-107.0,0.0,-45.0,0.0,0.0,0.0,34.27253218749016,17.55503396713325,4.663047002298143,3.0045133561953152,2.5338940747440595,2.133972767644656,1.7261049994858608,1.3394435146248687,0.984440284894416,0.686039770463756,0.45102981815420007,0.27171244926835736,0.14679635565914562,0.07093286284229651,0.031002768867638766,0.01253985783113315,0.00432772212506223,7.013086220493625,5.281284131517515,4.704126885548367,4.188658087067124,3.629315502495459,3.053894371620341,2.4713199027175223,1.922706022534161,1.431150867736804,0.9963249367006207,0.6370749275973888,0.3724416713593991,0.20034848070882688,0.10099085111791806,0.04555632335292937
0.0,16.0,16.0,0.0,120.0,0.0,0.0,0.0,0.0,-107.0,0.0,-45.0,0.0,0.0,0.0,34.27253218749016,17.55503396713325,4.6744811143628935,3.032407549753873,2.5606947303716425,2.157063097795039,1.7445020309179564,1.3531454844287445,0.9941492379176436,0.6935324077788569,0.45778511269783245,0.27766722619203504,0.151215296765389,0.07359647524392048,0.032324795422818166,0.013098772187474055,0.004519200607628761,7.0225104424491605,5.311392538238016,4.736163606317363,4.2186139174990105,3.6554022841976654,3.075305891783533,2.4881930646486574,1.9372191088154302,1.445966545848133,1.0115873664795518,0.6506643283643361,0.3824641748040824,0.20652781393935288,0.10427108687975499,0.04700417711676131
0.0,17.0,17.0,0.0,120.0,0.0,0.0,0.0,0.0,-107.0,0.0,-45.0,0.0,0.0,0.0,34.27253218749016,17.55503396713325,4.686600001833742,3.060978509717429,2.587965912164898,2.1805106415685866,1.7631620433660755,1.367021549084385,1.0038575549317867,0.7006926420012258,0.4639950698572018,0.2831603502798321,0.15538675104394625,0.07617330341405959,0.033630978653918626,0.013660185017899836,0.004713922050315672,7.032532042597711,5.342181209324667,4.768662193912384,4.248926407344087,3.6817718427552917,3.0969241102685077,2.5050368517964676,1.951080660573031,1.459534402400423,1.0255630020131261,0.6633732246760997,0.39205670949495247,0.21256155583710062,0.10752530676070104,0.0484582431068252
0.0,18.0,18.0,0.0,120.0,0.0,0.0,0.0,0.0,-107.0,0.0,-45.0,0.0,0.0,0.0,34.27253218749016,17.55503396713325,4.699438137395278,3.0902339761502096,2.615714264982453,2.204321495825642,1.7820896706396667,1.3810790914290585,1.013610660632817,0.7076214522055416,0.46975037768022365,0.2882314120487963,0.15931671076074166,0.07865945028813957,0.0349178219607135,0.014222575164078415,0.004911471654180869,7.043181874334661,5.373654224403826,4.801626239899008,4.279600627276357,3.70842912543119,3.1187589534956066,2.5219251862198035,1.9644868172642573,1.472070695907838,1.038378010568742,0.6752412261801846,0.401218229214718,0.21843982110147855,0.11074671394558057,0.04991579973070239
0.0,19.0,19.0,0.0,120.0,0.0,0.0,0.0,0.0,-107.0,0.0,-45.0,0.0,0.0,0.0,34.27253218749016,17.55503396713325,4.713031149729348,3.120181594895592,2.6439466446488034,2.228501908475709,1.8012896184194966,1.395323213207768,1.0234385606715302,0.7143981524673203,0.47513255841561425,0.2929204733844016,0.1630131937826699,0.08105225062448211,0.03618226044188277,0.014784502620134959,0.005111435151168086,7.054491657279582,5.405815220536466,4.8350594286559785,4.310641730326934,3.7353790849070543,3.140817173696395,2.538906474841102,1.9775900218148788,1.4837664531719146,1.050155219117028,0.6863114960657766,0.40995125128122223,0.22415462504529426,0.11392913617375115,0.051374227768300564
0.0,20.0,20.0,0.0,120.0,0.0,0.0,0.0,0.0,-107.0,0.0,-45.0,0.0,0.0,0.0,34.27253218749016,17.55503396713325,4.727415807672744,3.1508289352653898,2.672670126315743,2.253058280997242,1.820766673848414,1.4097579550327193,1.0333608868065431,0.7210839695128243,0.4802136402196029,0.2972672236049725,0.16648585484572417,0.08335013295755075,0.03742164420852499,0.01534461539663561,0.005313402277309931,7.066493940304236,5.438667398972395,4.868965541224688,4.342054944263802,3.762626683685346,3.163104035064202,2.5560121304358634,1.990506859862322,1.4947879366827714,1.0610125677562214,0.696629787432551,0.41826133324653214,0.22969972734605773,0.11706701828263545,0.052831022846720865
0.0,21.0,21.0,0.0,120.0,0.0,0.0,0.0,0.0,-107.0,0.0,-45.0,0.0,0.0,0.0,34.27253218749016,17.55503396713325,4.74262999790623,3.1821835108960603,2.701892012666491,2.277997169307707,1.8405257088321747,1.4243869094287258,1.0433904777892733,0.7277254233367796,0.4850562521067331,0.30131026842499015,0.16974563999253883,0.08555249119211446,0.038633717555111566,0.01590165405022639,0.005516969854443259,7.079222058242029,5.472213537363161,4.903348459503196,4.373845562985538,3.7901768934529394,3.18562414292785,2.573262535075328,2.003325178599104,1.5052778412770758,1.0710618522823858,0.7062436036781502,0.4261566124207964,0.23507047645909218,0.12015540711692801,0.0542838051736675
0.0,22.0,22.0,0.0,120.0,0.0,0.0,0.0,0.0,-107.0,0.0,-45.0,0.0,0.0,0.0,34.27253218749016,17.55503396713325,4.75871269563749,3.2142528037886184,2.7316198417009314,2.3033252842715646,1.8605716835229327,1.4392135121121856,1.0535358422673882,0.7343573570153616,0.4897140464305089,0.3050865519109827,0.17280447623523573,0.08765956678220445,0.03981659542594115,0.016454454234830353,0.005721744470052401,7.092710081631492,5.506456007471947,4.938212170412779,4.406018938583742,3.818034695256537,3.208381827070471,2.590671089845035,2.0161102845863383,1.515357023568685,1.0804077591824934,0.7152014556137001,0.433647402503575,0.24026365835114244,0.12318993065789335,0.05573032674228474
0.0,23.0,23.0,0.0,120.0,0.0,0.0,0.0,0.0,-107.0,0.0,-45.0,0.0,0.0,0.0,34.27253218749016,17.55503396713325,4.775703927733199,3.247044291474967,2.76186139403192,2.3290494924929077,1.88090965012835,1.4542411715419896,1.0638028037821314,0.7410055416396373,0.49423235387222975,0.308630909557318,0.17567499106272494,0.0896723414131605,0.040968738354170794,0.017001947609717,0.005927344755041329,7.106992758823984,5.541396798316234,4.973560769893503,4.438580474746737,3.8462050799827288,3.2313813058886685,2.608246887428437,2.028910154906289,1.525126573811212,1.0891471890168665,0.7235521983368861,0.4407458401347883,0.2452773521760663,0.12616677295332196,0.05716847623990465
0.0,24.0,24.0,0.0,120.0,0.0,0.0,0.0,0.0,-107.0,0.0,-45.0,0.0,0.0,0.0,34.27253218749016,17.55503396713325,4.793644727765677,3.2805654771915447,2.792624699707582,2.3551768175976293,1.901544756311303,1.4694733220428333,1.0741955690392342,0.7476888406617008,0.49864898419531994,0.31197574698160585,0.17837025868290418,0.09159243945577929,0.04208892681339799,0.01754316140744874,0.0061334032693694,7.122105449789076,5.577037544591437,5.009398466666798,4.471535621587399,3.874693048238096,3.2546267499007815,2.625996427395397,2.0417596902437305,1.5346700612758903,1.0973688537876667,0.7313444388879032,0.44746557375257484,0.25011079464277997,0.129082646161781,0.058596281907523445
0.0,25.0,25.0,0.0,120.0,0.0,0.0,0.0,0.0,-107.0,0.0,-45.0,0.0,0.0,0.0,34.27253218749016,17.55503396713325,4.812577082470405,3.3148239228825545,2.8239180445986425,2.381714441992638,1.9224822478532089,1.4849134434869566,1.0847174027466189,0.7544209564945709,0.5029950989958362,0.3151508348526396,0.180903571591798,0.09342203913382591,0.043176235705451586,0.018077216927501336,0.006339568014749137,7.138084050976693,5.613379560136375,5.045729585712052,4.504889871727166,3.903503609443189,3.2781223029627484,2.643924686865188,2.054684096643594,1.5440558141324174,1.105153123892694,0.7386260111206672,0.4538214875221928,0.25476425409052245,0.13193476078084873,0.06001191260446988
0.0,26.0,26.0,0.0,120.0,0.0,0.0,0.0,0.0,-107.0,0.0,-45.0,0.0,0.0,0.0,34.27253218749016,17.55503396713325,4.8325438691578,3.3498272847946198,2.855749976389263,2.4086697090197933,1.9437274706619416,1.5005650678190279,1.095371042189425,0.7612118044249778,0.50729609773351,0.3181832073923498,0.18328823712390974,0.09516379126582611,0.04423000951309743,0.018603327184160048,0.006545503601123261,7.154964910637535,5.650423876108217,5.082558571391711,4.5386487574150225,3.9326417804478595,3.301872087915649,2.6620357700105233,2.0677015123139877,1.553339127577433,1.11257209254317,0.7454435172562909,0.45982945401051656,0.25923891467582044,0.13472079491683397,0.06141367733262755
0.0,27.0,27.0,0.0,120.0,0.0,0.0,0.0,0.0,-107.0,0.0,-45.0,0.0,0.0,0.0,34.27253218749016,17.55503396713325,4.853588783027263,3.385583351096271,2.888129310394345,2.4360501261660286,1.9652858731719836,1.516431780658847,1.106158944812097,0.7680685688036001,0.511572473469335,0.3210971495595935,0.1855373991246881,0.09682074452962516,0.045249838475471815,0.019120793903008578,0.006750892102021974,7.172784743119653,5.688171307685138,5.119890024292578,4.572817882430211,3.9621125847417322,3.325880183208556,2.680333302869492,2.0808250006051305,1.562564326696251,1.1196898206025399,0.7518419367538646,0.4655061104669872,0.2635367705856722,0.13743886327584562,0.06280002372076957
0.0,28.0,28.0,0.0,120.0,0.0,0.0,0.0,0.0,-107.0,0.0,-45.0,0.0,0.0,0.0,34.27253218749016,17.55503396713325,4.875756253995327,3.4221000809456643,2.921065134938395,2.463863368974672,1.9871630093860058,1.5325172215699456,1.1170834316135718,0.7749964981354642,0.5158406085269183,0.32391425695906406,0.18766388491977415,0.098396276382352,0.046235535999892885,0.019629004030159918,0.006955433631537495,7.191580539750324,5.72662254407399,5.157728765303519,4.607402982440025,3.991921052761718,3.3501505789106965,2.698820673899955,2.0940640309828127,1.5717666370668755,1.1265627233907554,0.7578643028891588,0.4708686548348373,0.26766052982250726,0.1400874864077215,0.0641695356537397
0.0,29.0,29.0,0.0,120.0,0.0,0.0,0.0,0.0,-107.0,0.0,-45.0,0.0,0.0,0.0,34.27253218749016,17.55503396713325,4.8990913593829974,3.4593856537066805,2.954566817556351,2.4921172725786116,2.009364532755749,1.5488250910666965,1.1281467656972224,0.7819994927691326,0.5201134917553714,0.3266535525963356,0.18968007746642493,0.09989402899451882,0.04718711740741954,0.02012742589223984,0.0071588466399462565,7.211389354525623,5.76577793650175,5.196079456366261,4.642409545193669,4.022072215032765,3.3746874501529094,2.717501016219998,2.107425615814152,1.5809738233218853,1.1332400649703884,0.763551445969652,0.4759346588374709,0.2716135268595369,0.14266556060184463,0.06552092678283171
0.0,30.0,30.0,0.0,120.0,0.0,0.0,0.0,0.0,-107.0,0.0,-45.0,0.0,0.0,0.0,34.27253218749016,17.55503396713325,4.923639718965991,3.4974484992399346,2.9886440074962493,2.5208198504444543,2.0318962054812673,1.5653591453705116,1.1393511974337804,0.789080529514088,0.5244013496984813,0.3293316450810491,0.19159781222021577,0.10131784975572189,0.04810478002548239,0.02061560512339477,0.007360868076440784,7.232248289189888,5.805637845350485,5.234947041532374,4.677843248459221,4.052571108039029,3.3994948456000795,2.736377429862517,2.120915038060088,1.5902076324746603,1.1397645167937223,0.7689418023504815,0.48072189630974893,0.2753996432879922,0.14517232877670838,0.06685303940806236
0.0,31.0,31.0,0.0,120.0,0.0,0.0,0.0,0.0,-107.0,0.0,-45.0,0.0,0.0,0.0,34.27253218749016,17.55503396713325,4.949447387462714,3.5362973415687105,3.0233066379401956,2.5499792949598277,2.054763896677283,1.5821232006163126,1.150698986041336,0.7962419647745002,0.528712189140911,0.3319629148884543,0.1934282976316284,0.10267173612203316,0.04898888457648341,0.021093160455308572,0.007561253322080629,7.254194313730343,5.8462025844104035,5.274336594766164,4.713709807949828,4.083422772192841,3.4245767994228125,2.755452958494273,2.1345364231021224,1.5994850008989001,1.146172759402314,0.7740712844342388,0.48524818597771824,0.2790232355624767,0.14760735255497665,0.0681648385012305
0.0,32.0,32.0,0.0,120.0,0.0,0.0,0.0,0.0,-107.0,0.0,-45.0,0.0,0.0,0.0,34.27253218749016,17.55503396713325,4.976560727442782,3.575941249774644,3.058564935937383,2.5796039749874335,2.077973586874919,1.5991211338295832,1.162192410705501,0.8034857463973245,0.533052255037818,0.3345597166667793,0.19518205782062348,0.10395978469447635,0.0498399377779963,0.02155977944986217,0.007759775986587326,7.277264120908072,5.887472488024288,5.314253315950316,4.750014973770957,4.11463225486984,3.449937333050523,2.7747306053415204,2.1482931222876243,1.6088190655677124,1.1524960964169346,0.7789732075750228,0.4895312482181164,0.28248906893013903,0.14997048569787752,0.06945540653887392
0.0,33.0,33.0,0.0,120.0,0.0,0.0,0.0,0.0,-107.0,0.0,-45.0,0.0,0.0,0.0,34.27253218749016,17.55503396713325,5.005026281300372,3.6163896761310297,3.0944294245916457,2.6097024423946635,2.101531369186393,1.616356884705941,1.1738337757967774,0.8108135593047836,0.5374264103816603,0.337132587761275,0.1968688955425716,0.1051861445199088,0.050658576051479595,0.0220152142385038,0.007956227590428406,7.301493965295013,5.929447958482953,5.354702532354883,4.786764533679576,4.14620461104411,3.4755804573292126,2.7942133410766323,2.1621879745833765,1.6182199946447593,1.1587610610221317,0.7836782679460378,0.4935885757438081,0.28580225671202575,0.15226184898946338,0.07072393807598784
0.0,34.0,34.0,0.0,120.0,0.0,0.0,0.0,0.0,-107.0,0.0,-45.0,0.0,0.0,0.0,34.27253218749016,17.55503396713325,5.034890632487024,3.657652496865411,3.1309109275556506,2.640283436056646,2.1254434517522696,1.63383445709172,1.185625413336853,0.8182269238764663,0.5418384464358427,0.339690455104519,0.1984978732738081,0.10635497465299293,0.05144555023395193,0.022459277318728647,0.008150417151077307,7.326919494370959,5.972129518509425,5.395689697934056,4.823964314586136,4.178144905227793,3.501510174590345,2.8139041079928786,2.1762234820949717,1.6276956599789463,1.164989999005469,0.7882145648943818,0.49743731829510096,0.2889682042056624,0.15448180661304126,0.07196973419989292
0.0,35.0,35.0,0.0,120.0,0.0,0.0,0.0,0.0,-107.0,0.0,-45.0,0.0,0.0,0.0,34.27253218749016,17.55503396713325,5.06620025948603,3.6997400510739413,3.1680205736542915,2.6713558860633384,2.149716160347658,1.6515579204420487,1.197569684267753,0.825727261232482,0.546291332491392,0.34224083451320425,0.20007731006677662,0.10747040602869985,0.05220171119481569,0.022891837445854667,0.008342170694820171,7.353575571200705,6.015517861543032,5.437220392389849,4.861620184364907,4.210458213713659,3.5277304807800025,2.8338058227465637,2.190401925810747,1.6372521743806876,1.1712016168648725,0.7926076609661831,0.5010941814269917,0.2919925565996185,0.15663094401850566,0.07319219693862979
0.0,36.0,36.0,0.0,120.0,0.0,0.0,0.0,0.0,-107.0,0.0,-45.0,0.0,0.0,0.0,34.27253218749016,17.55503396713325,5.099001383920202,3.7426631772503867,3.2057698017142964,2.70292891812811,2.174355941131449,1.6695314112843052,1.2096689792974131,0.8333159357632077,0.5507874142647328,0.34479001813479415,0.20161479175332558,0.10853650767686977,0.052927996274123625,0.023312815647519906,0.008531330711774155,7.381496090176707,6.059613898872539,5.479300320115874,4.8997380539305135,4.24314962706423,3.5542453676809442,2.8539213787059077,2.2047254406603725,1.6468943155167337,1.1774114874016717,0.7968806727492661,0.5045753393949675,0.29488115041739665,0.15871004724396634,0.07439082369227433
0.0,37.0,37.0,0.0,120.0,0.0,0.0,0.0,0.0,-107.0,0.0,-45.0,0.0,0.0,0.0,34.27253218749016,17.55503396713325,5.133339812734516,3.7864332475520337,3.2441703685896712,2.735011863945073,2.1993693708536592,1.6877591356456711,1.2219257151781602,0.8409942845956648,0.555328568732245,0.34734324746684825,0.20311719205752474,0.10955725727899407,0.05362541647533483,0.023722181378529456,0.0087177556388738,7.410713823990193,6.104418894088826,5.521935446276378,4.938324056799521,4.276224407911983,3.581058774018965,2.8742535679719587,2.219196114701044,1.6566258384640042,1.183632512745703,0.801054385252028,0.5078963620537378,0.29763996813991594,0.1607200836118379,0.07556520365571277
0.0,38.0,38.0,0.0,120.0,0.0,0.0,0.0,0.0,-107.0,0.0,-45.0,0.0,0.0,0.0,34.27253218749016,17.55503396713325,5.16926078396702,3.8310621963206573,3.283234347148916,2.76761425189927,2.2247631423214997,1.7062453688012797,1.2343423461580405,0.8487636291582631,0.5599163266517854,0.34990486945245425,0.20459070250492262,0.11053651598248386,0.054295044365935206,0.024119948829195485,0.008901319074755274,7.44126014464358,6.1499342831663,5.56513166858504,4.977384128879335,4.309687624238515,3.6081747104552075,2.8948052752321254,2.2338158971113327,1.6664497731987489,1.1898753245337816,0.8051473864511404,0.5110721551790796,0.300275095704404,0.16266218378622543,0.07671500788829912
0.0,39.0,39.0,0.0,120.0,0.0,0.0,0.0,0.0,-107.0,0.0,-45.0,0.0,0.0,0.0,34.27253218749016,17.55503396713325,5.206808807626384,3.876562548580559,3.322974136570361,2.800745819915231,2.250544076754984,1.7249944573054592,1.246921359358427,0.8566252885700565,0.5645519639682801,0.35247847653516917,0.206040868710003,0.1114780074065246,0.054938002650928505,0.02450617338733874,0.009081909238361134,7.473164877450842,6.19616182217504,5.608894988581343,5.01692423307675,4.343544346075653,3.6355971974474466,2.915579380199565,2.2485866811148902,1.6763685964360036,1.196148651433546,0.8091762118106625,0.5141169141243079,0.30279268279462473,0.16453762498372357,0.07783998649523098
0.0,40.0,40.0,0.0,120.0,0.0,0.0,0.0,0.0,-107.0,0.0,-45.0,0.0,0.0,0.0,34.27253218749016,17.55503396713325,5.246027509840837,3.9229474434172182,3.3634024702211924,2.834416524256961,2.2767191318196867,1.7440108215189394,1.2596652727212028,0.8645805874637469,0.5692365713195269,0.355067029924705,0.20747263128575646,0.11238530064914917,0.05555545340276786,0.024880948256324708,0.009259428369897757,7.506456135698698,6.24310367392146,5.653231600980056,5.056950478385234,4.377799750512222,3.6633302344889036,2.9365787074895278,2.263510349472218,1.6863843664184162,1.2024596379702666,0.8131554965114208,0.517044089873413,0.3051989057838222,0.16634781530417098,0.0789399648519235
0.0,41.0,41.0,0.0,120.0,0.0,0.0,0.0,0.0,-107.0,0.0,-45.0,0.0,0.0,0.0,34.27253218749016,17.55503396713325,5.286959485631361,3.970230653151838,3.4045324206509604,2.868636541860485,2.303295401113264,1.7632989569639979,1.2725766383209105,0.8726308585732846,0.5739711069313943,0.3576729666320108,0.20889036970718847,0.11326179707662438,0.05614858794164674,0.02524440122587559,0.00943379204829036,7.541160119286936,6.29076238069455,5.698147821598993,5.097469030002314,4.412459043754694,3.6913778297738977,2.9578060713573207,2.278588755214535,1.6964988417771687,1.2088141150925276,0.8170981314756448,0.5198663666182987,0.3074999332851212,0.1680942790893617,0.0800148377704842
0.0,42.0,42.0,0.0,120.0,0.0,0.0,0.0,0.0,-107.0,0.0,-45.0,0.0,0.0,0.0,34.27253218749016,17.55503396713325,5.329646160615561,4.018426599421712,3.4463774066194683,2.9034162759636466,2.3302801175930092,1.7828634361489046,1.2856580433677034,0.8807774450038582,0.5787564355306208,0.3602982916853402,0.21029794760300588,0.11411072065088075,0.05671861736647708,0.025596691588998664,0.009604928549435331,7.577300942996085,6.3391408786162495,5.743650087382274,5.138486112275625,4.447527464348089,3.7197440030530693,2.979264278432711,2.293823726697897,1.7067135625258674,1.215216833304162,0.821015418483013,0.5225956500070286,0.3097018943231983,0.16977864318556243,0.08106456487762974
0.0,43.0,43.0,0.0,120.0,0.0,0.0,0.0,0.0,-107.0,0.0,-45.0,0.0,0.0,0.0,34.27253218749016,17.55503396713325,5.374127666117868,4.06755036605965,3.488951200521396,2.9387663619551168,2.357680657098728,1.8027089104580096,1.298912111222758,0.889021701633414,0.5835933568965113,0.3629446566945328,0.2116987582820596,0.11493511150316146,0.05726676374268146,0.02593800719856402,0.009772778212731632,7.614900479487894,6.388242505925625,5.7897449567039585,5.180008011700212,4.483010286430942,3.748432788529583,3.0009561304203327,2.3092170712536793,1.7170299094332553,1.2216716600732829,0.8249172217983658,0.525243064988542,0.31181084913483237,0.17140262402896678,0.08208916620878477
0.0,44.0,44.0,0.0,120.0,0.0,0.0,0.0,0.0,-107.0,0.0,-45.0,0.0,0.0,0.0,34.27253218749016,17.55503396713325,5.42044273143007,4.117617709215445,3.5322679361934424,2.974697673447946,2.3855045419676273,1.8228401121024067,1.3123415024200795,0.8973649960420242,0.5884826265942772,0.3656134261552619,0.21309576950951764,0.1157378224422543,0.057794251954565175,0.026268561656448718,0.009937292819336472,7.653978221373811,6.438071005629321,5.836439109923273,5.222041079946468,4.518912823006979,3.777448237771893,3.022884426750399,2.324770578083268,1.7274491471798035,1.2281817455526474,0.8288121140268471,0.5278189621579684,0.31383276261673887,0.1729680154748926,0.0830887180193244
0.0,45.0,45.0,0.0,120.0,0.0,0.0,0.0,0.0,-107.0,0.0,-45.0,0.0,0.0,0.0,34.27253218749016,17.55503396713325,5.468628597510284,4.16864507221926,3.57634213245752,3.0112213434016293,2.4137594488133587,1.8432618580833278,1.325948906402885,0.905808711708095,0.593424971039751,0.36830573282699636,0.21449156671559338,0.11652151810159483,0.05830230222015491,0.02658859163081444,0.010098435084039592,7.6945511980080505,6.488630606976398,5.883739475639104,5.264591901188556,4.555240640688677,3.8067945792733515,3.045051854797471,2.3404859737887276,1.7379725003386342,1.234749645269739,0.8327075174406383,0.5303329312046614,0.3157734803842698,0.17447667737408742,0.08406335212143658
0.0,46.0,46.0,0.0,120.0,0.0,0.0,0.0,0.0,-107.0,0.0,-45.0,0.0,0.0,0.0,34.27253218749016,17.55503396713325,5.518720885584168,4.2206495581936005,3.6211887145258794,3.048348770570995,2.442453166821026,1.86397905970698,1.3397370641350967,0.9143542421087013,0.5984210978229001,0.37102252391748397,0.2158883942817049,0.11728867625568906,0.05879212331670153,0.026898354284481788,0.010256177713550387,7.736633817271663,6.539925871217632,5.931652969479328,5.307666830001245,4.59199902236022,3.8364758185514383,3.067461282748158,2.3563650446334443,1.7486010606613958,1.24137747341717,0.8366098260979019,0.5327938216358328,0.31763870766647817,0.17593052451421937,0.085013243800024
0.0,47.0,47.0,0.0,120.0,0.0,0.0,0.0,0.0,-107.0,0.0,-45.0,0.0,0.0,0.0,34.27253218749016,17.55503396713325,5.570753755372238,4.273649003805083,3.6668229124273446,3.0860915380208076,2.471593708300954,1.8849966932044426,1.3537087595411248,0.9230029954791975,0.6034717032423934,0.37376459889886,0.2172881940677793,0.11804159123135242,0.05926490644004574,0.02719812482817506,0.010410503309282587,7.780237857799632,6.591961643274201,5.98018653441935,5.351272400913816,4.6291933501797145,3.8664960190796758,3.090115557086216,2.3724095567029497,1.759335882782462,1.2480669690963435,0.8405245313634437,0.5352097674782913,0.3194339906266577,0.17733151644648007,0.08593861365322714
0.0,48.0,48.0,0.0,120.0,0.0,0.0,0.0,0.0,-107.0,0.0,-45.0,0.0,0.0,0.0,34.27253218749016,17.55503396713325,5.624759723629121,4.327661926055224,3.7132603922789267,3.12446153319581,2.5011892214204177,1.906319834012235,1.367866812364312,0.931756396286673,0.608577477657223,0.37653264037068157,0.2186926412937879,0.11878237889091228,0.05972181975591595,0.027488194179916638,0.01056140352211227,7.825372447277086,6.644743224774485,6.029347343078538,5.395415255405633,4.66682912889965,3.896859330509393,3.1130174930429737,2.388621249956626,1.7701780020622198,1.2548195703522946,0.8444563327536714,0.5375882166098406,0.32116470036682637,0.17868164773491862,0.08683972512380563
0.0,49.0,49.0,0.0,120.0,0.0,0.0,0.0,0.0,-107.0,0.0,-45.0,0.0,0.0,0.0,34.27253218749016,17.55503396713325,5.680769747056976,4.382707545619591,3.7605172253191643,3.1634709142038986,2.531248021304874,1.9279536485090099,1.3822140847815871,0.9406158845882542,0.6137391090777053,0.37932723918098593,0.22010317750293046,0.11951298294231136,0.06016400361801595,0.027768866730513896,0.01070887857504141,7.872044072734347,6.698276276741455,6.07914269405601,5.440102116030029,4.704911918342425,3.9275699340406867,3.136169915809075,2.4050018574989074,1.7811284267280765,1.2616364812531233,0.8484092374023464,0.5399359634477027,0.322836019494309,0.17998293868613172,0.0877168799827266
0.0,50.0,50.0,0.0,120.0,0.0,0.0,0.0,0.0,-107.0,0.0,-45.0,0.0,0.0,0.0,34.27253218749016,17.55503396713325,5.738813284430333,4.438805793129578,3.8086098978134104,3.2031321171584666,2.561778594404126,1.9499033961488392,1.3967534824661778,0.9495829165833423,0.6189572856841433,0.3821489146279925,0.2215210405501265,0.1202351823125527,0.060592566431846406,0.02804045821478414,0.010852936738055112,7.920256635522436,6.752566805310794,6.129580013504116,5.485339789792478,4.743447336238512,3.9586320451837587,3.1595756627515708,2.4215531076162335,1.7921881437653595,1.2685187214451383,0.8523866508152991,0.542259183873153,0.32445293112490536,0.18123742660246883,0.08857041529117536
0.0,51.0,51.0,0.0,120.0,0.0,0.0,0.0,0.0,-107.0,0.0,-45.0,0.0,0.0,0.0,34.27253218749016,17.55503396713325,5.798918392322007,4.495977316553706,3.857555321637802,3.243457863836257,2.592789602907102,1.97217443164154,1.4114879556494713,0.9586589651726699,0.6242326975728629,0.38499813062017085,0.22294729166479269,0.1209505993169141,0.06100858114695188,0.028303293686409207,0.010993593817909217,7.970011545148491,6.807621147649162,6.180666857077168,5.531135171543188,4.782441060899798,3.9900499164941134,3.1832375855479835,2.43827672574325,1.8033581232449618,1.275467165753214,0.8563914582016859,0.5445634717008095,0.3260202102346372,0.1824471575228086,0.0894007005153887
0.0,52.0,52.0,0.0,120.0,0.0,0.0,0.0,0.0,-107.0,0.0,-45.0,0.0,0.0,0.0,34.27253218749016,17.55503396713325,5.861111744067958,4.554243446566607,3.9073708884822764,3.284461291438274,2.624289876637768,1.994772184698516,1.4264205066576061,0.9678455207890099,0.629566037410441,0.38787530871502224,0.2243828396314656,0.12166070840371386,0.06141308234970265,0.028557705595613346,0.011130872670387313,8.021307900587592,6.863446068604499,6.232411030014829,5.577495276503669,4.821898734330357,4.021827883138998,3.207158537495967,2.4551744409856875,1.814639320532966,1.282482575824716,0.8604260968296558,0.546853875992738,0.3275424172370461,0.18361417844421177,0.09020813535603876
0.0,53.0,53.0,0.0,120.0,0.0,0.0,0.0,0.0,-107.0,0.0,-45.0,0.0,0.0,0.0,34.27253218749016,17.55503396713325,5.9254191022600295,4.613626352179645,3.958074391955882,3.3261556313875493,2.656288428697867,2.0177022345862095,1.4415541695895693,0.9771440923048385,0.634958002619855,0.3907808377645083,0.2258284624697538,0.12236684520773382,0.06180706393877115,0.028804031969809105,0.011264802827569073,8.074142555774262,6.920048460758179,6.284820254127414,5.624427125309622,4.86182624070675,4.053970255318887,3.231341413812694,2.4722479751349717,1.8260326818704562,1.2895656244355862,0.8644926201131121,0.5491349385903991,0.32902389364486173,0.18474053002563004,0.09099314556227547
0.0,54.0,54.0,0.0,120.0,0.0,0.0,0.0,0.0,-107.0,0.0,-45.0,0.0,0.0,0.0,34.27253218749016,17.55503396713325,5.991865232923675,4.674148909252965,4.009684094832031,3.3685544884920073,2.688794465126315,2.0409702365502116,1.4568920260540477,0.9865562096911169,0.6404092971084161,0.39371508073639,0.22728482682059392,0.12307021575184834,0.06219147733120986,0.029042614706028886,0.011395419659107491,8.12851037820493,6.977435593933757,6.33790252131577,5.671937971742103,4.902229611916072,4.086481581879949,3.2557892359352567,2.4894989418253965,1.8375391243938188,1.2967169425320302,0.8685927455102246,0.5514107325440973,0.33046875979632406,0.18582823953888167,0.09175618589259217
0.0,55.0,55.0,0.0,120.0,0.0,0.0,0.0,0.0,-107.0,0.0,-45.0,0.0,0.0,0.0,34.27253218749016,17.55503396713325,6.060474172019934,4.735834747419421,4.0622187392906985,3.411671797909887,2.721817392339233,2.0645819574495654,1.4724372154527787,0.9960834171731004,0.6459206272516536,0.39667838443295284,0.22875250354595336,0.12377190593543085,0.0625672301659503,0.02927379793623842,0.011522764372089902,8.184404459371894,7.035614987452506,6.391665900377649,5.720035057023339,4.9431147597589895,4.119366231741285,3.2805048978923574,2.5069291081731033,1.8491595833627854,1.303937071865615,0.8727279228352156,0.5536848959224298,0.33188091393101465,0.18687931505553848,0.09249772788663546
0.0,56.0,56.0,0.0,120.0,0.0,0.0,0.0,0.0,-107.0,0.0,-45.0,0.0,0.0,0.0,34.27253218749016,17.55503396713325,6.131269468344908,4.7987082689927565,4.115697558789616,3.455521820445001,2.7553668176619306,2.0885432729124913,1.4881929287468105,1.005727277526421,0.6514927044216606,0.3996710826514504,0.2302319828038292,0.12447289061141625,0.06293518548268315,0.029497926527258148,0.01164688338155879,8.241816360277008,7.094594420823027,6.446118584605051,5.768725702822426,4.984487630941269,4.152628571096983,3.3054912859229937,2.524540279696021,1.8608949936206398,1.3112265047139962,0.8768993684494292,0.5559606684556839,0.3332640333012578,0.1878957393525482,0.09321826176893759
0.0,57.0,57.0,0.0,120.0,0.0,0.0,0.0,0.0,-107.0,0.0,-45.0,0.0,0.0,0.0,34.27253218749016,17.55503396713325,6.204274389623745,4.862794669413014,4.170140346856421,3.5001192462383237,2.789452612668149,2.112860093021581,1.5041624298597034,1.0154893659397015,0.6571262502880769,0.40269349775927415,0.23172368725669315,0.12517404243185581,0.06329616132827105,0.02971534468390157,0.011767828247730457,8.300736465072188,7.154382051998999,6.501269030276301,5.8180174295406335,5.026354260078,4.186273101415099,3.3307514042814415,2.5423341927628895,1.872746274860393,1.3185857173181248,0.8811080947223673,0.5582409266672302,0.3346215767041471,0.18887946432792546,0.09391829844944172
0.0,58.0,58.0,0.0,120.0,0.0,0.0,0.0,0.0,-107.0,0.0,-45.0,0.0,0.0,0.0,34.27253218749016,17.55503396713325,6.279512300973184,4.928119967678241,4.225567382800539,3.545479001735615,2.8240847564364127,2.1375385227432155,1.5203490093475023,1.0253712877571834,0.6628219890358085,0.4057459463075664,0.23322798229248176,0.12587614063218264,0.06365093072597033,0.029926394636530015,0.011885654321635797,8.361154059419706,7.214986170878226,6.557125714702413,5.867917797291008,5.068720826336154,4.220304428826828,3.356288247644145,2.5603126044993303,1.884714340734889,1.3260151609773183,0.8853549468791901,0.5605282156025644,0.33595678811336493,0.18983240623114556,0.09459836367110888
0.0,59.0,59.0,0.0,120.0,0.0,0.0,0.0,0.0,-107.0,0.0,-45.0,0.0,0.0,0.0,34.27253218749016,17.55503396713325,6.357006856792783,4.994710982034083,4.281999456379287,3.591616330421956,2.8592734281349244,2.1625848120414974,1.5367559975576597,1.0353746739774559,0.668580649858697,0.4088287405303969,0.23474518554079318,0.12657987927759445,0.06400022200500421,0.0301314154417373,0.012000420582436562,8.423057640345608,7.2764152755019404,6.6136972338552305,5.918434491405735,5.11159363592299,4.254727207505484,3.3821048359297614,2.578477282847594,1.8968001028194157,1.3335152671228443,0.8896406302458667,0.562824779564306,0.33727270148042404,0.19075644123507685,0.09525899668214292
0.0,60.0,60.0,0.0,120.0,0.0,0.0,0.0,0.0,-107.0,0.0,-45.0,0.0,0.0,0.0,34.27253218749016,17.55503396713325,6.436782246812973,5.062595359688788,4.33945793950911,3.6385468961083607,2.8950290638381904,2.1880052914756214,1.5533867911067791,1.0455011725043082,0.674402970221921,0.4119421892787215,0.2362755750044454,0.12728587510045242,0.06434471942770487,0.030330741885962086,0.012112189773188776,8.486435261877544,7.33867816388901,6.6709923747833395,5.969575343941589,5.1549790479517315,4.289546130254095,3.408204234406367,2.596830002171782,1.9090044724287443,1.3410864517099341,0.8939657333555282,0.565132591026391,0.33857214648048134,0.19165340147485208,0.09590074867777922
0.0,61.0,61.0,0.0,120.0,0.0,0.0,0.0,0.0,-107.0,0.0,-45.0,0.0,0.0,0.0,34.27253218749016,17.55503396713325,6.518863506329076,5.131801598220857,4.397964777674251,3.6862867467502833,2.931362323755149,2.2138064118008662,1.5702448411667307,1.0557524534625582,0.6802896944203778,0.4150865997284596,0.23781939576067257,0.12799467492809213,0.06468506407298558,0.030524703487169014,0.01222102778036905,8.551274728837992,7.401783885237519,6.729020062800319,6.021348310761413,5.198883512655407,4.324765946364227,3.43458954126039,2.6153725489223794,1.9213283607805571,1.348729118624454,0.8983307476379326,0.5674533776090521,0.3398577550632771,0.19252507154464943,0.09652418061203205
0.0,62.0,62.0,0.0,120.0,0.0,0.0,0.0,0.0,-107.0,0.0,-45.0,0.0,0.0,0.0,34.27253218749016,17.55503396713325,6.603276799364863,5.202359069927045,4.457542502516586,3.7348523288899327,2.9682840983282213,2.239994745509809,1.5873336547447472,1.0661302096511105,0.6862415738287462,0.41826227834013746,0.2393768657115097,0.12870676261789063,0.06502185494552601,0.03071362359657027,0.012327003277051177,8.617563814221494,7.465741751507094,6.7877893587287526,6.073761470816281,5.243313574323179,4.360391463105474,3.4612638894251475,2.6341067226374264,1.9337726800010537,1.3564436622907148,0.9027360840465845,0.5697886471400841,0.3411319686504328,0.19337318544506057,0.09712986133181144
0.0,63.0,63.0,0.0,120.0,0.0,0.0,0.0,0.0,-107.0,0.0,-45.0,0.0,0.0,0.0,34.27253218749016,17.55503396713325,6.69004974044156,5.274298113383588,4.518214305869839,3.7842605628296337,3.005805543010675,2.266576941139264,1.6046567892254375,1.0766361678529521,0.692259363276741,0.42146953224031936,0.24094818043487157,0.12942256547642325,0.06535565028545798,0.03089781859254293,0.012430187922091112,8.685290500322951,7.530561383490314,6.847309463901572,6.126822994561529,5.288275807979841,4.396427508995115,3.488230495027039,2.6530343175567546,1.9463383507398087,1.3642304677260444,0.9071820875303053,0.5721397107116163,0.34239704586018965,0.1941994239714066,0.09771836528191408
0.0,64.0,64.0,0.0,120.0,0.0,0.0,0.0,0.0,-107.0,0.0,-45.0,0.0,0.0,0.0,34.27253218749016,17.55503396713325,6.779211585530194,5.347649983748915,4.58000392991983,3.8345287321187422,3.043938011955525,2.293559796787898,1.6222178820472661,1.0872720628849908,0.6983438306086697,0.4247086679056175,0.24253351740580256,0.13014246025002202,0.06568696899813657,0.0310775971836223,0.012530654714290244,8.754443054297987,7.596252660805039,6.90758968932893,6.180541162501898,5.333776924724027,4.43287902147728,3.515492581218561,2.672157152507962,1.9590262931803146,1.3720899153648476,0.911669047960369,0.5745077041327081,0.343655070578377,0.19500541251583745,0.09829027120691845
0.0,65.0,65.0,0.0,120.0,0.0,0.0,0.0,0.0,-107.0,0.0,-45.0,0.0,0.0,0.0,34.27253218749016,17.55503396713325,6.870793418256602,5.422446872799118,4.642935634456023,3.885674470574326,3.0826930824048477,2.320950305999178,1.6400206333283678,1.0980396413060218,0.70449575586824,0.4279799921897051,0.2441330391671376,0.13086677867474222,0.0660162922111461,0.03125325979368354,0.012628477353932724,8.825010199763943,7.662825754708272,6.968639503928143,6.234924414678037,5.379823836911152,4.4697510495950725,3.543053342582869,2.691477091873606,1.9718374209365224,1.3800223841882369,0.9161972096158579,0.5768936074441481,0.3449079603295694,0.19579271927452366,0.09884616103909606
0.0,66.0,66.0,0.0,120.0,0.0,0.0,0.0,0.0,-107.0,0.0,-45.0,0.0,0.0,0.0,34.27253218749016,17.55503396713325,6.96482847614181,5.498722132886323,4.707034360097003,3.937715909303001,3.122082627887287,2.3487555466695516,1.6580687930389668,1.1089406902745262,0.7107159225830457,0.4312838128469203,0.2457468968187747,0.1315958122265731,0.06634406500574277,0.031425098028903344,0.01272373103687365,8.896981445609498,7.730291204606789,7.030468587196398,6.289981297800093,5.426423533649888,4.507048715304874,3.5709161146374475,2.7109960251544125,1.9847726150052396,1.3880282509609352,0.9207667840440545,0.5792982615899179,0.3461574746329904,0.19656285415172361,0.09938661903636532
0.0,67.0,67.0,0.0,120.0,0.0,0.0,0.0,0.0,-107.0,0.0,-45.0,0.0,0.0,0.0,34.27253218749016,17.55503396713325,7.06135234179892,5.576510318439868,4.772325684063983,3.9906716058440104,3.162118790051963,2.3769827282837164,1.6763661749552614,1.119977026912206,0.7170051227387017,0.4346204369255208,0.24737523289344332,0.13232981657246326,0.06667069816002347,0.031593394244644364,0.0128164912174181,8.970347314701481,7.798659856137017,7.0930868667579565,6.345720504480991,5.473583172623579,4.544777303402929,3.5990843757502273,2.730715907581081,1.9978326820012893,1.3961078956167943,0.9253779593699198,0.5817223838944142,0.34740522342086816,0.19731726797304716,0.09991223232820813
0.0,68.0,68.0,0.0,120.0,0.0,0.0,0.0,0.0,-107.0,0.0,-45.0,0.0,0.0,0.0,34.27253218749016,17.55503396713325,7.16040328414845,5.655847299799855,4.838835887145416,4.044560554861771,3.202813997895007,2.405639196913713,1.6949166453055908,1.1311504755636221,0.723364155581575,0.4379901820238413,0.24901817799693157,0.13306901734801105,0.06699656962104811,0.03175842113443071,0.012906832859817351,9.045099674759607,7.8679426960692425,7.15650444107518,6.402150692129309,5.521309787273389,4.582941852796522,3.627561280832398,2.750638547944362,2.0110187150143823,1.4042616772798866,0.9300308762369417,0.5841665895974374,0.3486526774797136,0.1980573493331386,0.10042357436088518
0.0,69.0,69.0,0.0,120.0,0.0,0.0,0.0,0.0,-107.0,0.0,-45.0,0.0,0.0,0.0,34.27253218749016,17.55503396713325,7.2620227184162385,5.7367702821212765,4.906592010216344,4.099402163324315,3.2441809592519872,2.434732436027394,1.7137241383489532,1.1424628972197572,0.7297938296294019,0.44139336275843366,0.25067585898449113,0.13381361188703833,0.06732202666853457,0.0319204415020334,0.012994830719992906,9.121232169301672,7.938150792812929,7.220731762372486,6.459280732332134,5.569610635321831,4.6215476645286175,3.6563502337532787,2.770765869358443,2.02433165479338,1.4124899652105563,0.934725668737069,0.5866313963824583,0.3499011747505959,0.19878442724779696,0.10092122277065235
0.0,70.0,70.0,0.0,120.0,0.0,0.0,0.0,0.0,-107.0,0.0,-45.0,0.0,0.0,0.0,34.27253218749016,17.55503396713325,7.366255922562474,5.819317751995507,4.975621972417337,4.1552162611503825,3.2862326679320946,2.464270072515849,1.7327926515702898,1.153916179437323,0.7362949621401724,0.44483029594493173,0.252348397872858,0.1345637733326773,0.06764738757194899,0.032079708025123464,0.013080559587142245,9.198740510868939,8.009295078102017,7.285779582830978,6.517119661379297,5.618493065258644,4.660600123909984,3.685454682855668,2.791099816006698,2.037772449214415,1.420793128530336,0.9394624551722973,0.5891172391991144,0.3511519295280104,0.19949977000902233,0.10140575144358481
0.0,71.0,71.0,0.0,120.0,0.0,0.0,0.0,0.0,-107.0,0.0,-45.0,0.0,0.0,0.0,34.27253218749016,17.55503396713325,7.473152914147643,5.903529265675425,5.045954692399124,4.212023121336055,3.32898239800012,2.4942598782150993,1.7521262458569786,1.165512239240122,0.7428683779766931,0.4483013011741114,0.2540359128066612,0.13531965368245633,0.06797294336685968,0.03223646310619378,0.01316409479667537,9.277622486253495,8.08138620850452,7.351658883418227,6.575676718879304,5.667964506844514,4.700104703493072,3.7148781285248673,2.811642352164338,2.0513420539227596,1.4291715368570692,0.9442413412710955,0.5916244807350073,0.35240604066525283,0.2002045854058942,0.10187772874214891
0.0,72.0,72.0,0.0,120.0,0.0,0.0,0.0,0.0,-107.0,0.0,-45.0,0.0,0.0,0.0,34.27253218749016,17.55503396713325,7.582769281954834,5.989445124005163,5.117620174026192,4.269843474811842,3.372443619597143,2.524709679235477,1.7717290513372954,1.177253072838233,0.7495148817287018,0.4518067102804584,0.2557385166613509,0.13608138689889146,0.0682989595662638,0.03239093875876939,0.013245510998124422,9.357877349288211,8.15443450333759,7.418380585705441,6.634961259784903,5.718032372524678,4.740066971740765,3.7446242478836433,2.832395421307526,2.065041435150094,1.4376255605882904,0.9490624238010437,0.5941534202945091,0.3536644996714789,0.20090002117506575,0.10233771383289256
0.0,73.0,73.0,0.0,120.0,0.0,0.0,0.0,0.0,-107.0,0.0,-45.0,0.0,0.0,0.0,34.27253218749016,17.55503396713325,7.695166224998012,6.077105941998716,5.190649457132188,4.328698661449043,3.416630214015631,2.5556276823322026,1.7916052835293572,1.1891405845549405,0.7562353495253233,0.4553468370643949,0.25745632541077723,0.13684908986090816,0.06862567803212513,0.0325433566644721,0.013324884866698767,9.43950520749233,8.228450791142542,7.485955761622298,6.694983217666604,5.768704401649749,4.780492601012727,3.7746965064109808,2.8533610634389044,2.0788715723540196,1.4461555693787076,0.9539257903272929,0.5967043034795327,0.3549281979863489,0.20158716581231545,0.10278625915298786
0.0,74.0,74.0,0.0,120.0,0.0,0.0,0.0,0.0,-107.0,0.0,-45.0,0.0,0.0,0.0,34.27253218749016,17.55503396713325,7.810409798961199,6.166552792194444,5.265074489862933,4.388610685914866,3.461556262798283,2.587022161277663,1.8117592025192386,1.2011767673575615,0.7630306371351363,0.4589220078457539,0.25918945084651707,0.13762286605517937,0.06895331844369676,0.032693928120084266,0.013402289345678477,9.522505814263575,8.303446868063263,7.554394977258816,6.755752648754716,5.819988325262599,4.821387330155511,3.805098547544419,2.8745413140168856,2.092833449470632,1.4547619371403422,0.9588315227899556,0.5992773283088454,0.3561979347691819,0.20226704939021609,0.10322390502408847
0.0,75.0,75.0,0.0,120.0,0.0,0.0,0.0,0.0,-107.0,0.0,-45.0,0.0,0.0,0.0,34.27253218749016,17.55503396713325,7.928568879955266,6.257827914834514,5.340927713698137,4.449602311250301,3.5072361058482215,2.618901565856572,1.8321951367892644,1.213363641825719,0.7699016101000995,0.46253255168467355,0.26093800366349706,0.13840280693000043,0.06928207996969937,0.03284285413491263,0.013477793184835402,9.606879409423033,8.379436618240822,7.623708359462498,6.817279789833937,5.871892010707523,4.862756976074497,3.835834072027666,2.895938233912967,2.1069280604721015,1.463445040445333,0.963779698593784,0.6018726520924146,0.357474423842939,0.20294064470474243,0.10365118375774442
0.0,76.0,76.0,0.0,120.0,0.0,0.0,0.0,0.0,-107.0,0.0,-45.0,0.0,0.0,0.0,34.27253218749016,17.55503396713325,8.049714263252119,6.350976385909365,5.418241592899858,4.511697084859849,3.553684351545484,2.651274522335422,1.8529174868223461,1.2257032563570747,0.7768491437764851,0.4661788005153005,0.262702093838415,0.13918899356218728,0.06961214280579292,0.03299032554812262,0.01355146266628146,9.692630402302024,8.45643637080195,7.693905888029696,6.879574908143815,5.924423493887693,4.904607425041327,3.866906841074035,2.9175539103871224,2.121156409934792,1.4722052590063046,0.9687703918621201,0.6044903971648694,0.3587583004269863,0.2036088685524758,0.1040686243554015
0.0,77.0,77.0,0.0,120.0,0.0,0.0,0.0,0.0,-107.0,0.0,-45.0,0.0,0.0,0.0,34.27253218749016,17.55503396713325,8.17392230403781,6.446048048301219,5.49704837009624,4.57491924845096,3.600915901216597,2.684149827865211,1.8739307298891141,1.2381976874247413,0.7838741233527133,0.4698610892749094,0.2644818309373365,0.13998149812298277,0.0699436696434201,0.03313652318515308,0.013623369114257898,9.77977205956157,8.534463579738285,7.764998187776104,6.942648135776251,5.977591010803315,4.946944623375004,3.898320678337465,2.939390458199091,2.135519513637531,1.4810429761278445,0.9738036744964178,0.6071306559264731,0.3600501275239195,0.20427258315292654,0.104476755506267
0.0,78.0,78.0,0.0,120.0,0.0,0.0,0.0,0.0,-107.0,0.0,-45.0,0.0,0.0,0.0,34.27253218749016,17.55503396713325,8.301282670693155,6.543097967532522,5.577380522054482,4.639293519838106,3.648945986868139,2.7175364370301396,1.8952394255052953,1.250849039975243,0.7909774438569757,0.4735797560226265,0.26627732436799084,0.1407803851632268,0.07027680706690329,0.03328161804883425,0.013693598160770159,9.868325658683467,8.613533519824928,7.836997648498095,7.006509398085054,6.031403021116867,4.989774571285593,3.930079469741851,2.9614500208443006,2.150018399205159,1.489958579129049,0.97887961708022,0.6097934952653123,0.3613504019555554,0.20493259769575595,0.10487609686660218
