Line_number,Fiducial,Easting,Northing,Height,Elevation,tx_pitch,tx_roll,tx_yaw,txrx_dx,txrx_dy,txrx_dz,rx_pitch,rx_roll,rx_yaw,PX,PZ,S0X_time_1.086e-05,S0X_time_3.256e-05,S0X_time_5.426e-05,S0X_time_8.680e-05,S0X_time_1.411e-04,S0X_time_2.279e-04,S0X_time_3.689e-04,S0X_time_5.860e-04,S0X_time_9.115e-04,S0X_time_1.411e-03,S0X_time_2.192e-03,S0X_time_3.418e-03,S0X_time_5.339e-03,S0X_time_8.301e-03,S0X_time_1.338e-02,S0Z_time_1.086e-05,S0Z_time_3.256e-05,S0Z_time_5.426e-05,S0Z_time_8.680e-05,S0Z_time_1.411e-04,S0Z_time_2.279e-04,S0Z_time_3.689e-04,S0Z_time_5.860e-04,S0Z_time_9.115e-04,S0Z_time_1.411e-03,S0Z_time_2.192e-03,S0Z_time_3.418e-03,S0Z_time_5.339e-03,S0Z_time_8.301e-03,S0Z_time_1.338e-02
0.0,0.0,0.0,0.0,120.0,0.0,0.0,0.0,0.0,-107.0,0.0,-45.0,0.0,0.0,0.0,34.27253218749016,17.55503396713325,4.625214796442636,2.6766721148435697,2.2151813409564296,1.8790167077865758,1.4611155403255331,0.9633350323972892,0.6878400341329922,0.3875417643939285,0.21950256184542735,0.13396860011815143,0.06480463205456267,0.08081347359390949,0.040262607825858304,0.009940798021641151,0.01812098959168151,6.9343459353498496,4.944509067856516,4.264718540367155,3.7467015802929606,3.1265953796523265,2.4526537997807987,1.886156591640156,1.329714260718815,0.8589554142814422,0.6029162582147374,0.3014403388594702,0.19059880154660405,0.09966785122212228,0.0869484343105874,0.057335067561303237
0.0,1.0,1.0,0.0,120.0,0.0,0.0,0.0,0.0,-107.0,0.0,-45.0,0.0,0.0,0.0,34.27253218749016,17.55503396713325,4.564590190023525,2.6949879773593555,2.169064503405205,1.7559555935350744,1.429934717534275,1.0638040062145797,0.7502165323445129,0.47461938878540955,0.23224876684097698,0.12038254585690476,0.027350215838170128,-0.020748536452041392,-0.04801331459601556,0.07639795886584344,-0.01623707488216472,6.916997385690175,4.896243191331832,4.319644851260975,3.7481053595681466,3.216820764714073,2.5871231461983633,1.9800793275258415,1.385080433837808,0.912549385896476,0.59436791627189,0.36472991751305106,0.2030647611130673,0.11571737823036203,0.04397887586154199,0.01990188111507262
0.0,2.0,2.0,0.0,120.0,0.0,0.0,0.0,0.0,-107.0,0.0,-45.0,0.0,0.0,0.0,34.27253218749016,17.55503396713325,4.535908767242222,2.685796518408583,2.1940866868506843,1.7926991303142132,1.4875965163490237,1.0893747343838127,0.689721344810739,0.4824470355414918,0.23593212659085477,0.14574929634638673,0.09771007052931555,0.0378321984255875,0.05586436270122434,-0.03839408896886033,0.016838939059700738,6.914090979604252,4.927158779850397,4.313484514012147,3.8153977951914757,3.2775928040170883,2.655611113010856,2.0757605994887673,1.4838174360572138,0.9645995833950898,0.6671611268423648,0.41960679298552717,0.23900655517077213,0.11152280206195112,0.03749101970501597,0.050730094750750326
0.0,3.0,3.0,0.0,120.0,0.0,0.0,0.0,0.0,-107.0,0.0,-45.0,0.0,0.0,0.0,34.27253218749016,17.55503396713325,4.551956524762249,2.766927426980546,2.254709560512756,1.9177011039064253,1.5230239161248131,1.1671960158600836,0.7883531112905916,0.5626100075879819,0.2953159919939595,0.17101016869425475,0.14570897277913028,-0.012906877043598539,-0.03021931184163392,0.04166705881363015,-0.03998613226182161,6.989211219659601,4.960527243033664,4.335957188259735,3.899635895250096,3.3525571263286422,2.784523125064518,2.145913355038792,1.5226608226865024,1.0957908919199777,0.6684903274042594,0.42004775891617707,0.24682534255303157,0.11821825513777498,0.07570249707253887,0.04906849316763252
0.0,4.0,4.0,0.0,120.0,0.0,0.0,0.0,0.0,-107.0,0.0,-45.0,0.0,0.0,0.0,34.27253218749016,17.55503396713325,4.589017856701731,2.6974033613097195,2.279834800072017,1.9515965506119817,1.5064650777808914,1.1643614849676298,0.8040677704656971,0.5934398518231981,0.33576621166112447,0.18362135430046136,0.05594831400212415,0.058155060285283014,-0.007560096963334682,0.008178843160165383,-0.020440626147515017,6.959258672820438,5.0079854486105635,4.376096443145016,3.890183389901797,3.324160286768032,2.752010396504656,2.193344907685464,1.6056727917629872,1.1195918424760973,0.7632998061887535,0.44663588021437756,0.22035029346125987,0.15137610135794316,0.038007741095506066,0.021166548140659547
0.0,5.0,5.0,0.0,120.0,0.0,0.0,0.0,0.0,-107.0,0.0,-45.0,0.0,0.0,0.0,34.27253218749016,17.55503396713325,4.576851744663815,2.827429148723018,2.261896298400743,1.889885153672131,1.5485146420427407,1.1686666633742662,0.8887520852277115,0.5113719399441229,0.2886737620544525,0.16503611778317492,0.07217602374070962,0.11134526459306271,0.052308078388211415,0.01061693993562014,-0.04161864280417791,6.968423917881608,4.991085751360511,4.370153902434379,3.9363500862698024,3.386145517963041,2.8452613196652012,2.2386959028613638,1.6735999697698538,1.1386722952522084,0.725406077921969,0.4642117513717602,0.23565336815666318,0.11977863078074422,0.05907062703806619,0.03241819828424748
0.0,6.0,6.0,0.0,120.0,0.0,0.0,0.0,0.0,-107.0,0.0,-45.0,0.0,0.0,0.0,34.27253218749016,17.55503396713325,4.571500628434522,2.729246623760564,2.2881810662626245,1.8567762642145311,1.5936521360907612,1.1531637384722326,0.828959805910575,0.5751841585368846,0.3213393189372693,0.24866946490985808,0.049747145582853175,0.05414880063356589,0.017757501823547305,-0.03433080472770751,0.02172738329206554,6.945878698961101,5.05959251314257,4.456458420941425,3.9869492563507554,3.436491115389638,2.8457407130907257,2.2659118990254252,1.7246838380472092,1.2103406063922344,0.7954873034751847,0.4377288271850357,0.2651594101354969,0.1253493131984991,0.07758822630035905,0.031218548462143465
0.0,7.0,7.0,0.0,120.0,0.0,0.0,0.0,0.0,-107.0,0.0,-45.0,0.0,0.0,0.0,34.27253218749016,17.55503396713325,4.629357495411919,2.8170663140450163,2.3658607028479306,1.9436817453318607,1.5516719249544253,1.2144639429926722,0.8882944245520361,0.6067599713898286,0.44710614372665203,0.20226081154040287,0.06825662959630344,0.034965342597083365,0.0036530575559575243,0.025762905127071786,-0.052732855649670195,6.957514034125559,5.0682433813208965,4.469824185328423,3.9466912423575304,3.4237447494511057,2.8475329749029346,2.293626248228369,1.7273805103374342,1.2439424062022173,0.788422768368158,0.5109230181198469,0.31029371510604964,0.10392053413684504,0.08378548344478953,0.048758209235689715
0.0,8.0,8.0,0.0,120.0,0.0,0.0,0.0,0.0,-107.0,0.0,-45.0,0.0,0.0,0.0,34.27253218749016,17.55503396713325,4.573695824302874,2.8121003996235503,2.353846143119033,1.970531676914806,1.5924285870604986,1.1823590532126282,0.9479203429117669,0.6496215177665098,0.3499041992834665,0.1611076441588353,0.12797921526426248,0.029671860457350336,0.026823241977368916,-0.002707558613893513,0.028106989888441698,6.980251632856857,5.070719038739795,4.458136795337271,3.949905086664239,3.4685269354122115,2.876929858502651,2.3218562289009554,1.7604095260024204,1.2685837548895185,0.8011877623304573,0.5193928469251589,0.30249523365096737,0.15617405382025806,0.0714551283298556,0.037882447459229404
0.0,9.0,9.0,0.0,120.0,0.0,0.0,0.0,0.0,-107.0,0.0,-45.0,0.0,0.0,0.0,34.27253218749016,17.55503396713325,4.623215482978462,2.7431794847178663,2.4577485424451786,2.017449050652887,1.5963212024868265,1.2444541999602952,0.9377903770303136,0.6207112779857893,0.31899749519379217,0.29946662061964796,0.11112393969536193,0.09046164712599365,-0.0020384377788122687,0.06487283169516984,0.013619194883594822,6.983957941768998,5.088077826145331,4.551549662803263,4.032993160494574,3.5095442135089816,2.9124218126428927,2.347225537564937,1.8553846645989371,1.2777034964830505,0.8678245279698287,0.5599682435491388,0.30602031184089834,0.17334755963869344,0.07281452176307522,0.04493281376367497
0.0,10.0,10.0,0.0,120.0,0.0,0.0,0.0,0.0,-107.0,0.0,-45.0,0.0,0.0,0.0,34.27253218749016,17.55503396713325,4.562050166778307,2.93938142112608,2.4021887017665287,1.9977833188826544,1.6630000125736553,1.2554245038059284,0.8827686565418921,0.588658994928097,0.4307541173628866,0.22799470677621614,0.11613528864840154,0.09556382327240448,-0.01644375423579953,-0.016574907218676115,-0.01047864094154711,6.976465112128056,5.139700030875579,4.54360669311847,4.042549842215159,3.500343989205516,2.9317496699907872,2.3616120351184793,1.8356443802997804,1.3094795611449546,0.8711727936752934,0.5482495410324003,0.3128966045024452,0.2154106532640102,0.06965068780216495,0.058323096213454946
0.0,11.0,11.0,0.0,120.0,0.0,0.0,0.0,0.0,-107.0,0.0,-45.0,0.0,0.0,0.0,34.27253218749016,17.55503396713325,4.653810532083152,2.853292296818299,2.4610065850808347,1.9999760007285887,1.554756499330975,1.3086121324953974,0.8786703336474113,0.6663613816274312,0.391492071043832,0.30292218475423327,0.16537003971854008,0.04312783332586691,0.0007649398640777322,-0.033529539609060965,-0.012335095449076142,6.973184229407598,5.158272758961298,4.58443705069437,4.086466539179198,3.53608075059967,2.951763903694509,2.367292105110878,1.8830044177534442,1.3390069832773752,0.9056924726880693,0.5621322018634284,0.28907141646209167,0.16435355451667882,0.0776723710273439,0.0529150728364404
0.0,12.0,12.0,0.0,120.0,0.0,0.0,0.0,0.0,-107.0,0.0,-45.0,0.0,0.0,0.0,34.27253218749016,17.55503396713325,4.660856752232141,2.924959060709994,2.492108692721584,2.0797414914734618,1.6718527061926387,1.305226330384265,0.9474015175617226,0.6456439319918339,0.4166843888105352,0.20967384454676713,0.14220572375475254,0.026529308417495644,0.05742318742165545,0.0018757515783874683,0.0055658524542959225,7.001482311181918,5.211384541792029,4.571551444887191,4.0958103673869015,3.5738463206799036,2.9507033108989797,2.428047776866869,1.8215793198368886,1.3540569469664752,0.9423866022145132,0.5551379974074564,0.31892161207922076,0.1499764102458544,0.1257619536207504,0.044728330517607905
0.0,13.0,13.0,0.0,120.0,0.0,0.0,0.0,0.0,-107.0,0.0,-45.0,0.0,0.0,0.0,34.27253218749016,17.55503396713325,4.66511654872843,2.9420502110272,2.4680703877630514,2.0272059248944867,1.6790648304418316,1.284033663134631,0.996511553250272,0.7114914416086455,0.48909164165944446,0.28928992869674325,0.11549031022576299,0.0249677506653984,0.05605688212450117,0.024317027235579283,-0.05996938524685451,7.005544512497211,5.243863753330911,4.642897484832344,4.125256566730942,3.5585486200043244,2.977546582082553,2.455434948035975,1.8836939870731741,1.3916162087075077,0.9991740068102689,0.6218260081957055,0.3590186799187693,0.1906046742292309,0.12638038832101206,0.07881554497597382
0.0,14.0,14.0,0.0,120.0,0.0,0.0,0.0,0.0,-107.0,0.0,-45.0,0.0,0.0,0.0,34.27253218749016,17.55503396713325,4.68998431833705,2.9999814125951576,2.4268560684706686,2.115953704313451,1.703052760323283,1.3294176942964688,1.0096195745242262,0.5773072175263235,0.4228143231053169,0.27508073470411915,0.1251906430035646,0.016885999380481576,0.06109954497881574,0.021994943197562192,-0.030961776797136454,7.012763290672143,5.272826963848389,4.672680922292331,4.178715162516917,3.605390190977593,3.0233579735617537,2.427563301194626,1.9053519636191942,1.4191537953966833,0.9987401302209435,0.620095742874138,0.37172641985555976,0.17364855794602194,0.08121453511363702,0.041798309173034315
0.0,15.0,15.0,0.0,120.0,0.0,0.0,0.0,0.0,-107.0,0.0,-45.0,0.0,0.0,0.0,34.27253218749016,17.55503396713325,4.620238542957294,3.0365054488561305,2.551749329820828,2.1446263552115825,1.738909811655404,1.4150604074737934,0.9670561893459758,0.6050412563086452,0.45831826323457464,0.26987048210571174,0.12802001981986852,0.035489944981060666,0.015116577882877395,0.019095985269944493,-0.013847246728734258,7.078500879825098,5.256736711745239,4.6842653055670835,4.132391497877961,3.6353742904630924,3.0063319337509133,2.458869042897977,1.9164741912900836,1.4154062939820573,1.0342549115755477,0.6584626265755633,0.4005193706701881,0.18169400742902805,0.12475540548212226,0.0559774608708141
0.0,16.0,16.0,0.0,120.0,0.0,0.0,0.0,0.0,-107.0,0.0,-45.0,0.0,0.0,0.0,34.27253218749016,17.55503396713325,4.705801739803804,3.072586155625309,2.5256355526325183,2.1408567858319727,1.7771086100381188,1.2537514554404952,1.050272933260604,0.7138879559491217,0.4561134172427031,0.28569494347240365,0.11384344441471353,0.060924324742939295,0.07212522808840768,0.06002827445949707,0.10197824339320827,7.020505313903836,5.294544311148352,4.723271296560806,4.193557997557366,3.6535248134377105,3.084340838598679,2.487402235769008,1.962016928430875,1.4407677427134435,1.0040039258283229,0.6381555694908482,0.3476999255631995,0.17337681942302405,0.07943857710369477,0.074349173013085
0.0,17.0,17.0,0.0,120.0,0.0,0.0,0.0,0.0,-107.0,0.0,-45.0,0.0,0.0,0.0,34.27253218749016,17.55503396713325,4.722959768171271,3.1146803835316668,2.5365358299738334,2.1052773107795657,1.7381998343888074,1.3736043911766873,1.0223567215640377,0.7392656931292827,0.4743947297319686,0.3466123675125258,0.14730848234673838,0.04310664354035029,-0.0271855771108939,-0.01848071751501668,0.013465681844610873,7.008418373102507,5.366172336680636,4.8041113404203495,4.190542874813891,3.7026285439614193,3.044012733332053,2.5143153821818167,1.9788001386268579,1.4609747431967461,0.9976173544857379,0.6507685898887441,0.38648328845557267,0.20870700271817902,0.10325184132626813,0.04614930386287879
0.0,18.0,18.0,0.0,120.0,0.0,0.0,0.0,0.0,-107.0,0.0,-45.0,0.0,0.0,0.0,34.27253218749016,17.55503396713325,4.708110965437414,3.0429970025018034,2.6063646677489434,2.2623781340327564,1.7675360966023947,1.3644554733429057,1.0536169322661084,0.6134078632594763,0.5129746116072509,0.2652202303740829,0.1652662224867215,0.08214790215729789,0.069011908089602,0.004547501330902823,-0.019597034461665105,7.078408883040172,5.31303829143623,4.8021372200962285,4.246352906792823,3.6900282209773874,3.1663139423784483,2.520893944618232,1.9689036034551781,1.4324861737947323,1.022449299943725,0.6794751821371059,0.408777812406288,0.23149027517371418,0.11092846027954555,0.06099025032109075
0.0,19.0,19.0,0.0,120.0,0.0,0.0,0.0,0.0,-107.0,0.0,-45.0,0.0,0.0,0.0,34.27253218749016,17.55503396713325,4.731472384523093,3.048614000344284,2.6453772300923006,2.257883365534904,1.8236193029847587,1.3816901631591398,0.9935384382825073,0.6732215190951308,0.47033688960183123,0.3341873482780817,0.0921689030431188,0.057151582155474806,-0.005051825312001393,0.043165605062135744,-0.014925224971624074,7.041712467453392,5.40024652919252,4.846265021489039,4.300952340076216,3.6617068468711254,3.1536739459725975,2.5490655448397197,1.972616673291682,1.4596693993163588,1.0578446989609545,0.6944839941873694,0.3999317931580429,0.21956855320999505,0.0943329453588337,0.04762114374837414
0.0,20.0,20.0,0.0,120.0,0.0,0.0,0.0,0.0,-107.0,0.0,-45.0,0.0,0.0,0.0,34.27253218749016,17.55503396713325,4.664386542734707,3.167163972231845,2.6361363594539404,2.2621741539531817,1.7675183661729426,1.387641586086494,1.029259126666813,0.6599258754161457,0.4844278101477836,0.28345706985809166,0.10323811751751356,0.03614504461372267,0.05931349398543344,0.04772501672129728,0.0005452682605236112,7.077488811315574,5.444419625352858,4.877268432246136,4.373845945757916,3.7261431478472584,3.179124789253029,2.547167102212926,1.9854241369046122,1.4880663729846504,1.052808846829904,0.6701946382286111,0.4221707682426614,0.26506492887636546,0.11588428098346486,0.05280191421756207
0.0,21.0,21.0,0.0,120.0,0.0,0.0,0.0,0.0,-107.0,0.0,-45.0,0.0,0.0,0.0,34.27253218749016,17.55503396713325,4.714679348814169,3.177581703767903,2.7199391009634772,2.2638134821037985,1.8233301543562044,1.4395075697844446,1.0093021154385995,0.7370256344119206,0.515082076476334,0.3508505499506543,0.16646448285072052,0.13509143661872994,0.07605747187886062,-0.020118691861313837,-0.03850838792577482,7.070934566900007,5.4986855261883685,4.901525405224572,4.358979701819717,3.8277934405488665,3.1924246119606594,2.519496764670311,2.010516980873363,1.516847408688002,1.0759973948068127,0.7159424553550082,0.4247216126581142,0.2071609204861763,0.11234361736563506,0.03440920276465842
0.0,22.0,22.0,0.0,120.0,0.0,0.0,0.0,0.0,-107.0,0.0,-45.0,0.0,0.0,0.0,34.27253218749016,17.55503396713325,4.720766177552597,3.164736147054143,2.749150275619458,2.307077971864951,1.8435812276443322,1.4148570078093683,1.0526658437709124,0.774114149528017,0.4163458862495011,0.3188167816461669,0.15299179524496526,0.019389798709152972,-0.030578876378799892,-0.016549798635709986,0.013656495324111718,7.1033965076648435,5.482269529982465,4.963892681438111,4.44127737202517,3.827643046711715,3.1943520889981896,2.6167397273349646,2.0332476536283868,1.5346621004519643,1.0660413645279823,0.654047679483062,0.4788122695469601,0.20615541287922734,0.12243610441354509,0.10577083576223138
0.0,23.0,23.0,0.0,120.0,0.0,0.0,0.0,0.0,-107.0,0.0,-45.0,0.0,0.0,0.0,34.27253218749016,17.55503396713325,4.789158106951654,3.284287808356288,2.703611811118741,2.2608619220194113,1.8607039584334162,1.4951705290301522,1.0509387665634706,0.7117266652274205,0.5014801756136815,0.3480512235801454,0.12321089271031593,0.04581769549844103,0.012433849618723996,0.05658224317525737,0.014415632868798788,7.1649884383500995,5.565547255918997,4.972673486182536,4.469962865530504,3.851340868996647,3.2146443925536463,2.624021872535275,2.013105172736206,1.5186610455466436,1.1182149623985884,0.7213663960579275,0.4236048240397107,0.23544365157497735,0.14770396467077904,0.04555404564353553
0.0,24.0,24.0,0.0,120.0,0.0,0.0,0.0,0.0,-107.0,0.0,-45.0,0.0,0.0,0.0,34.27253218749016,17.55503396713325,4.777892769899471,3.2605278737100676,2.799761100212744,2.340380629135375,1.840754782394269,1.4361698252897943,1.0395308912532344,0.7935076238926214,0.5284053715241964,0.33337440917608807,0.16001999356648502,0.0620370680499955,0.023725863413241833,-0.020491606313129736,0.0964022612847253,7.061000767710973,5.591601042338203,4.9768811146556,4.46894415598507,3.850676554519486,3.226642393920521,2.5995270050680386,2.0816132193529415,1.531708061056878,1.080600765801637,0.7433428009150984,0.4476865122680674,0.2653625281815489,0.09062669898766348,0.0649784132815902
0.0,25.0,25.0,0.0,120.0,0.0,0.0,0.0,0.0,-107.0,0.0,-45.0,0.0,0.0,0.0,34.27253218749016,17.55503396713325,4.844052410376311,3.2495237016375205,2.841321642913806,2.4468616489905464,1.921918098734814,1.51575991702093,1.1096441198381293,0.728343443158699,0.5044513381241997,0.2580476793339678,0.1645150443500532,0.10304812928050369,0.0693402911006999,0.018967175370724124,0.03236569744848155,7.108053335416514,5.61075028126759,5.046218251440515,4.550880876382468,3.8982921750428843,3.266253749780533,2.644420683932326,2.033801933868091,1.5483504975242786,1.0971563707834713,0.6999436761032346,0.4525704601670119,0.24803682362833845,0.09751881972084897,0.058600589611542554
0.0,26.0,26.0,0.0,120.0,0.0,0.0,0.0,0.0,-107.0,0.0,-45.0,0.0,0.0,0.0,34.27253218749016,17.55503396713325,4.893240554568509,3.370331789533039,2.8795299584970846,2.357110782811376,1.9618450282439464,1.5061420464665969,1.1150422877407242,0.7767919378819615,0.45749601277726654,0.316674393301195,0.15576535324227955,0.09334912129174981,0.011758318121337027,0.06606205695397636,-0.024504986013543256,7.130474110984283,5.6523547076402405,5.055222457538394,4.528076572876827,3.912424468315587,3.3354645996604853,2.680302668342359,2.066395165025785,1.5446194392163715,1.1331894030508192,0.7541959268184525,0.4704671349526229,0.25868391050239026,0.09912434970232176,0.05904923710943511
0.0,27.0,27.0,0.0,120.0,0.0,0.0,0.0,0.0,-107.0,0.0,-45.0,0.0,0.0,0.0,34.27253218749016,17.55503396713325,4.831877124326071,3.4109774522160135,2.9274816232028376,2.41074531964833,1.9830896397462,1.58167179973937,1.0813248383270426,0.8300832922789598,0.48034423571709256,0.3219339600107103,0.18513261062846564,0.09723739603897087,0.014938358820604153,-0.0022565877331140287,-0.017386267375365853,7.181697804006033,5.696726154422898,5.176457259347092,4.6069908526423005,3.9496799313458464,3.333620437880634,2.703528306787005,2.0815209614696735,1.5610115611680238,1.120820239328173,0.7705798167498604,0.4473831458502537,0.2566347738599843,0.14735905099284394,0.06934812526364016
0.0,28.0,28.0,0.0,120.0,0.0,0.0,0.0,0.0,-107.0,0.0,-45.0,0.0,0.0,0.0,34.27253218749016,17.55503396713325,4.885530059519302,3.407529079783509,2.9589193507046248,2.545988621013357,2.0026197240847505,1.5252540492792708,1.1451993834419607,0.7551144008746621,0.48837815510592486,0.3251101197348023,0.093856164026348,0.056582277102216263,0.03364416953983461,-0.029310648583075413,-0.03037337827429433,7.179667252262843,5.683978551255827,5.147395676058343,4.59404451906377,3.9925412333666084,3.377674405677166,2.7028362540123143,2.0945432740005065,1.5739849111049176,1.1315480460570013,0.7358920438874078,0.46841615068844156,0.27420504472989693,0.1111787466174379,0.0823706785033336
0.0,29.0,29.0,0.0,120.0,0.0,0.0,0.0,0.0,-107.0,0.0,-45.0,0.0,0.0,0.0,34.27253218749016,17.55503396713325,4.943230431776755,3.4344854918523193,2.945165449522597,2.4582950609503307,2.035978038968564,1.5089081445104482,1.1198675691590094,0.7503185854325609,0.521980241780963,0.2612501096686506,0.23785998278664536,0.0649396366970976,0.04935452369035786,0.012442317601440798,-0.020390827608989456,7.187157210706375,5.7901155263099815,5.18268576852416,4.64918543198566,4.0024850973314186,3.3592401917094414,2.7285017229275415,2.1286067691815846,1.5770621082554652,1.1020580312567223,0.8067379609227882,0.45762836435141524,0.23893179992948085,0.19738647397912018,0.05702532146886547
0.0,30.0,30.0,0.0,120.0,0.0,0.0,0.0,0.0,-107.0,0.0,-45.0,0.0,0.0,0.0,34.27253218749016,17.55503396713325,4.863940999629606,3.470470160333912,3.0029737714643328,2.5281546352216804,1.999467079667341,1.6339479978517952,1.1199357194402952,0.7453758794791921,0.5596010202561081,0.3777821687151956,0.16190323844157706,0.05053540894044143,0.08539410142317114,-0.05341921365153931,-0.03698050805993534,7.258673245121592,5.804197217617505,5.22821257309499,4.686670389307336,4.04883346600536,3.3684688704371926,2.766123784989185,2.151094997053282,1.594790703833998,1.140754535477131,0.8195242939200285,0.47481281744786225,0.26989577237239754,0.15286063700651875,0.09779223517633762
0.0,31.0,31.0,0.0,120.0,0.0,0.0,0.0,0.0,-107.0,0.0,-45.0,0.0,0.0,0.0,34.27253218749016,17.55503396713325,5.014537292113786,3.5260807436852217,3.0353380071069185,2.4968283105248634,2.0428787733845346,1.5504897659629053,1.1132094332602365,0.858288991919859,0.4996796740005015,0.3125820787694034,0.20671800403626103,0.14970438161516908,0.06639979877972453,0.12087753892060683,0.004862052400815896,7.261266082763825,5.853385514966297,5.31100295852651,4.726416620787883,4.08057603303203,3.4019201945886572,2.761155193821733,2.166471465605322,1.5903219163608264,1.1577780742101138,0.7793940490960851,0.5037102374081154,0.26195740314991994,0.19711193853311398,0.041265025904889646
0.0,32.0,32.0,0.0,120.0,0.0,0.0,0.0,0.0,-107.0,0.0,-45.0,0.0,0.0,0.0,34.27253218749016,17.55503396713325,4.961612664537117,3.6130423011960375,3.070153737781742,2.6116389960000963,2.0590629627420296,1.596303826641267,1.1626480044599714,0.8613992870375099,0.5583551495471482,0.3636060745832287,0.1712813496132475,0.13907287052099881,0.05800361913984402,0.07179495846543811,0.08056717568006413,7.268872544902871,5.87686802469554,5.292145631495209,4.746413537409323,4.105265016489622,3.4585419001523445,2.7713558076320477,2.1400483908656773,1.6325978546737827,1.1319134315429547,0.7883406477242727,0.4808507464278827,0.2978523409738021,0.17919654519549857,0.06308114648692792
0.0,33.0,33.0,0.0,120.0,0.0,0.0,0.0,0.0,-107.0,0.0,-45.0,0.0,0.0,0.0,34.27253218749016,17.55503396713325,5.02307298612953,3.623467758205505,3.06318087834038,2.619003050972807,2.112558673803141,1.6319132142047899,1.1664419921879217,0.814290383045103,0.4953639111826948,0.324075012070135,0.21706643347878302,0.1375311539599525,0.03537489754122504,0.02580199649984197,0.01620029871219802,7.307009880058575,5.943582476286366,5.308118973221429,4.785525715066392,4.152072369560157,3.4516155103800155,2.8333196157246308,2.1658735855960782,1.6531531303456208,1.1414080669018412,0.7640511822399635,0.4983846668154976,0.2501939520352439,0.15679757711140382,0.07276859516762813
0.0,34.0,34.0,0.0,120.0,0.0,0.0,0.0,0.0,-107.0,0.0,-45.0,0.0,0.0,0.0,34.27253218749016,17.55503396713325,5.076479938924886,3.685433126098009,3.1145776351829713,2.597859708427692,2.1907912941577248,1.6039756097701243,1.1466603862443703,0.7781751011253912,0.5827948586100158,0.32076902662607604,0.1711154198121807,0.11134527747870908,0.043956015235602615,-0.0020630314712099806,0.035407160458557484,7.356109222136733,5.997921135450492,5.415368151185675,4.834089944381459,4.134500538523214,3.5415384722631726,2.8209641114137036,2.1901045802358126,1.6526177439607002,1.1964615364429438,0.7972671301104297,0.5067537758230499,0.27625587491473613,0.155180054954057,0.05400463054554802
0.0,35.0,35.0,0.0,120.0,0.0,0.0,0.0,0.0,-107.0,0.0,-45.0,0.0,0.0,0.0,34.27253218749016,17.55503396713325,5.0366986060864765,3.6642937877385053,3.1619107934940747,2.711939707789541,2.2708055878361613,1.6587043257033216,1.147301162601638,0.8724382243649731,0.5352644005260516,0.3181504834291283,0.2077015591545844,0.06250504171447566,0.06025303400555189,0.019695832491684714,0.011898543623019613,7.364035639936893,6.017287167673972,5.437640219620657,4.86877993899087,4.220679005155857,3.502971987261926,2.8003502164285603,2.1889942890497887,1.6052153462698082,1.1731239733266108,0.8129221223016575,0.514082348322489,0.26975332888374637,0.138476435359745,0.08009751373164391
0.0,36.0,36.0,0.0,120.0,0.0,0.0,0.0,0.0,-107.0,0.0,-45.0,0.0,0.0,0.0,34.27253218749016,17.55503396713325,5.082544404433643,3.7300890998840392,3.229165762710152,2.6647062900700726,2.159024635647984,1.6393450235127425,1.170769349143521,0.8016611565286245,0.5756265096336126,0.3466798727652383,0.16967185424919143,0.10016019632165979,-0.006384375007702177,-0.0032069395274448124,0.0862390891283445,7.379018928216657,6.0788233148031745,5.477615049298638,4.908517646815148,4.259488051243983,3.5277057188747003,2.853197061794924,2.2408017595325234,1.6290998603583644,1.164968398705873,0.7902211256337085,0.5103314623819454,0.30601970644137383,0.18545902177858337,0.08489750864811912
0.0,37.0,37.0,0.0,120.0,0.0,0.0,0.0,0.0,-107.0,0.0,-45.0,0.0,0.0,0.0,34.27253218749016,17.55503396713325,5.130793005923424,3.8364863292450533,3.2717941044611742,2.677061066858011,2.2959629809398363,1.7545674021887425,1.2156508303780622,0.8549545334613561,0.6038917867231521,0.34106278343463375,0.2296544324123839,0.14959393410431804,0.016895758987980812,0.001939028814113862,0.04202710600857993,7.423375251979486,6.128710043148012,5.518518895148589,4.9310264386934906,4.226932248216222,3.5534978308566094,2.875356370325735,2.2380471744469084,1.6685121404386125,1.1808147173102843,0.7951713081957016,0.5125438140150856,0.2992997609578344,0.19036566504429472,0.07864565306304744
0.0,38.0,38.0,0.0,120.0,0.0,0.0,0.0,0.0,-107.0,0.0,-45.0,0.0,0.0,0.0,34.27253218749016,17.55503396713325,5.1084158639097765,3.780422431301325,3.3428751633932126,2.722200624857189,2.2540115923963233,1.6961105215897683,1.2280078572974642,0.843807684943819,0.604708896921374,0.34287112184143564,0.20338000397331996,0.05504941656426814,0.06177593823733197,0.04332514366815454,0.017546586809659252,7.479707816810224,6.1513872689475875,5.572848500494102,5.019067573628033,4.271413924917885,3.5972013925518262,2.928247058940128,2.255229557339268,1.68163576458697,1.2081751674636931,0.8122285695549014,0.5459912702636749,0.30829271471761527,0.1677254223446521,0.08005893038341289
0.0,39.0,39.0,0.0,120.0,0.0,0.0,0.0,0.0,-107.0,0.0,-45.0,0.0,0.0,0.0,34.27253218749016,17.55503396713325,5.214738005305571,3.8304701674632358,3.3532673207556902,2.7956836815281805,2.3202924449937603,1.722136236154783,1.262632859593279,0.8657386003379292,0.5416077879449922,0.38866827778384555,0.27526640106053557,0.11094236370039165,0.04406238112869261,0.011666400829090741,-0.05932852374843828,7.468269156805019,6.202782522463988,5.636160435669445,5.041233467937994,4.333247460971775,3.6289264207595266,2.94195403242899,2.2446165321939207,1.6649469005815105,1.2267606137085263,0.8316441200078447,0.5145191405157454,0.29018900082197363,0.12206665068020968,0.09024579920264748
0.0,40.0,40.0,0.0,120.0,0.0,0.0,0.0,0.0,-107.0,0.0,-45.0,0.0,0.0,0.0,34.27253218749016,17.55503396713325,5.20914138673059,3.844670419571192,3.4257589906325343,2.8595838661813398,2.2330860418750973,1.6981063842450252,1.2921859842133974,0.8321280882929705,0.616782513219556,0.3775548987257124,0.22697201584449012,0.1270550237467806,0.06248499722461,0.056725341816738065,-0.007156025234660026,7.508825248642047,6.262969926751024,5.667807232641895,5.026649738331634,4.3654132023863985,3.6694283646888,2.926996363553006,2.304150703752876,1.6775766392246694,1.1988926898522023,0.8298193551695153,0.5241197505155732,0.3021149764571835,0.15037701946577436,0.08528330550711215
0.0,41.0,41.0,0.0,120.0,0.0,0.0,0.0,0.0,-107.0,0.0,-45.0,0.0,0.0,0.0,34.27253218749016,17.55503396713325,5.3297597413389255,3.9893594657058573,3.373883310482392,2.93615039495634,2.247843260070732,1.7034442675723607,1.3084545428368322,0.8809803468006487,0.553811687472333,0.31759539927030056,0.2932290525992745,0.11750629759215732,0.07548424265589837,0.036741080232734646,0.025152601079061566,7.556063904661463,6.310144300141565,5.688418317486462,5.090063456240941,4.369310350437546,3.672536060319629,2.9641782561551104,2.302533824993397,1.7099242008768223,1.2013209382545125,0.7897368639728356,0.46040527384509833,0.33195151392669864,0.15565384309741137,0.07057949616159577
0.0,42.0,42.0,0.0,120.0,0.0,0.0,0.0,0.0,-107.0,0.0,-45.0,0.0,0.0,0.0,34.27253218749016,17.55503396713325,5.335071070683196,3.9622419811199925,3.4325870747483047,2.9821421773511876,2.3496662924796228,1.7964563733564833,1.2265303746393836,0.9637424288774549,0.5265519789721177,0.43043247676572044,0.1334332428605145,0.16505582620778197,0.11528570344723846,-0.004219284922382868,0.024881764846484883,7.5924265435292595,6.317570192872267,5.706015374369541,5.104977502563345,4.460952377959126,3.7176866181649815,2.965990482497166,2.3159884478972486,1.71810457188823,1.1985970827224655,0.7949925064081623,0.5337994813879718,0.2982878781681992,0.17187330319321917,0.11423000941698702
0.0,43.0,43.0,0.0,120.0,0.0,0.0,0.0,0.0,-107.0,0.0,-45.0,0.0,0.0,0.0,34.27253218749016,17.55503396713325,5.3948605625288435,4.033042287687028,3.495291889941732,2.901670247424481,2.419424135073515,1.7814497930249849,1.306659104113177,0.9004035957868459,0.589437224556229,0.2914839461764312,0.15913145345688945,0.09853686444399012,0.06882908321536693,0.020954973318080015,-0.02482951427200627,7.577600560177564,6.3775809212296535,5.777558892678734,5.193068082684709,4.474902549324841,3.7630164504305252,2.9869571931895633,2.303345416016235,1.709223537761162,1.204455722516469,0.8384619041997814,0.5078209160215363,0.3007343862290568,0.16985864036435325,0.054791090045587784
0.0,44.0,44.0,0.0,120.0,0.0,0.0,0.0,0.0,-107.0,0.0,-45.0,0.0,0.0,0.0,34.27253218749016,17.55503396713325,5.407017038112672,4.0891169824868125,3.5169328704148413,2.9723620116927525,2.354778441165907,1.8145047043111726,1.361271293734976,0.8964105977942759,0.6305145757623914,0.3782566935968886,0.24123212764797758,0.08766215421170012,0.06159157831975564,0.031111806101534023,-0.012210126543017964,7.631188001219908,6.398436620509997,5.875419611635297,5.19724103470505,4.5524040275026865,3.7661244039935817,3.0025635391253385,2.339059518860845,1.7132864203773062,1.2406938074659455,0.8215998559943724,0.5381077016491548,0.2932727878679394,0.19052379436950223,0.09335652654660809
0.0,45.0,45.0,0.0,120.0,0.0,0.0,0.0,0.0,-107.0,0.0,-45.0,0.0,0.0,0.0,34.27253218749016,17.55503396713325,5.430587810187656,4.2746718265261725,3.5977039125463395,3.1005710209918655,2.4752717261221315,1.836106033276377,1.3105291461897484,0.8908798041105196,0.5262530097890099,0.3429135630235993,0.22346044236096638,0.17184162993818894,0.030329893410975972,0.058490304254923506,-0.0351850480066378,7.6782899926133865,6.476438538617595,5.893442453958394,5.276272452591911,4.5792127439070045,3.825486070575613,3.0507857603466233,2.349451496500303,1.7736304244625816,1.2235010435452687,0.8494989689642696,0.4916060012613387,0.3245090657496999,0.1642712041594654,0.08411745644915868
0.0,46.0,46.0,0.0,120.0,0.0,0.0,0.0,0.0,-107.0,0.0,-45.0,0.0,0.0,0.0,34.27253218749016,17.55503396713325,5.561793474045677,4.2272627852432,3.656235733689773,3.1058917065264704,2.457420104332476,1.9083783542418793,1.3275187669473834,0.9140503910881113,0.5792356539201675,0.4090851843653138,0.23093936942112936,0.09889967832535125,0.06439081999066817,0.06456950296990942,0.008836563935512165,7.710279420550506,6.5434462590562354,5.8798818358342455,5.3273322740577,4.581489928608394,3.8250835542560764,3.0881273294529357,2.3249925298424645,1.7923255875023678,1.2308017001162501,0.8252671596041022,0.5546685936594791,0.33269051945834377,0.22769964763338182,0.08056875552746369
0.0,47.0,47.0,0.0,120.0,0.0,0.0,0.0,0.0,-107.0,0.0,-45.0,0.0,0.0,0.0,34.27253218749016,17.55503396713325,5.565761393367725,4.2141543659395575,3.6536595605817768,3.0578973288005864,2.454318897549814,1.8188319572311502,1.415862567965775,0.8705622866769632,0.5005889382295812,0.33039087551721225,0.19533964061519077,0.07636547233501571,0.09902174954334142,0.022212757509134505,0.011328245692100445,7.79721430761719,6.599608026897417,6.005808544933925,5.322848297341113,4.6155186253278,3.882679632187137,3.0302509648158633,2.3407876185037635,1.7705909111574119,1.2374882995618723,0.8608199226784679,0.5525441696428899,0.2939861684125968,0.18592045167605217,0.1112273333008576
0.0,48.0,48.0,0.0,120.0,0.0,0.0,0.0,0.0,-107.0,0.0,-45.0,0.0,0.0,0.0,34.27253218749016,17.55503396713325,5.6308803764314455,4.288299964483201,3.7481553687477116,3.1493178252850313,2.5220917781034466,1.93349310593833,1.255743023411873,0.9643748223698543,0.6749717352069708,0.3924697076487105,0.22569827342095253,0.1440316685666766,0.07196519107482595,0.051061997711877846,0.010614583450088248,7.8040170302597645,6.617845334493904,6.00316738443547,5.360184583625503,4.640125674475243,3.9397068632925705,3.130843858801482,2.3742401580052652,1.761404005571386,1.2572995764259327,0.8302415236093332,0.5390347101706734,0.3376823586350181,0.17792669101863554,0.09391114735598824
0.0,49.0,49.0,0.0,120.0,0.0,0.0,0.0,0.0,-107.0,0.0,-45.0,0.0,0.0,0.0,34.27253218749016,17.55503396713325,5.717619644759095,4.371734593103103,3.7718308541092,3.1513572622913837,2.5301482080583364,1.9156219002871215,1.362405006141616,0.9470493669667263,0.6345453236349242,0.38466766016896575,0.23823239683884045,0.09275885487947061,0.016589675782247557,0.042852721595391684,0.03557741579231202,7.873434892971546,6.7344447508369605,6.10298991232471,5.508989603229037,4.699883046599381,3.903243198791484,3.11865854533276,2.3919824361709936,1.791831617937391,1.2140746984148902,0.8770050615580055,0.5348087548323781,0.3175933498935029,0.15718391239698182,0.08531292914280995
0.0,50.0,50.0,0.0,120.0,0.0,0.0,0.0,0.0,-107.0,0.0,-45.0,0.0,0.0,0.0,34.27253218749016,17.55503396713325,5.739364377007418,4.43388214626065,3.8220950225337886,3.1800227675145125,2.527217990710026,1.9707378269273275,1.4004504857554456,0.9568872706528798,0.6578550080587239,0.3448204175892655,0.19043105148222655,0.16581724290312097,0.006912677762773545,-0.019319405404782747,0.04042068563220137,7.926911946787251,6.7553954015649245,6.127167762139521,5.486144594525821,4.741137405815168,3.991680687571642,3.1501474702702144,2.4178354987445956,1.8325519823162963,1.2691251708215374,0.9008006149285169,0.5400096653390958,0.35350297703002176,0.14626975800304026,0.0918040725911256
0.0,51.0,51.0,0.0,120.0,0.0,0.0,0.0,0.0,-107.0,0.0,-45.0,0.0,0.0,0.0,34.27253218749016,17.55503396713325,5.732874655997861,4.530119284083032,3.809260084935882,3.2545905387052376,2.5818941205080455,1.9281424248717747,1.3507889090792262,0.9397236263290587,0.6881741670746656,0.37428372687801603,0.25629167931715047,0.1188824005596121,0.09274614724136811,-0.037774350573393976,-0.0035827247525898505,7.99658100475973,6.803224792691834,6.178387589890794,5.520037734204246,4.81130434285936,3.9973122127171554,3.184280949326293,2.4531002858420052,1.8165951450202997,1.2801548930589184,0.8899528887917602,0.5432715053489122,0.3319282695166901,0.16886470436704157,0.09256018476250627
0.0,52.0,52.0,0.0,120.0,0.0,0.0,0.0,0.0,-107.0,0.0,-45.0,0.0,0.0,0.0,34.27253218749016,17.55503396713325,5.927387467236837,4.5282000824834885,3.862178227847688,3.3236046458812276,2.6185415937989225,1.9984240943570246,1.4247288673080791,0.9707778714689863,0.6608143210074354,0.3572386957793495,0.1875997399624344,0.12474144868766482,0.0032592450547992424,-0.021104664127068566,0.07861662499963061,8.04254137326865,6.863174746029079,6.265106959967562,5.550625106520878,4.813962211230003,4.037063814374419,3.228286826399975,2.467005611797581,1.757428312471388,1.2611297321528998,0.8707772854916958,0.5392251203095697,0.38151496986026195,0.20318874643330836,0.10195449616331079
0.0,53.0,53.0,0.0,120.0,0.0,0.0,0.0,0.0,-107.0,0.0,-45.0,0.0,0.0,0.0,34.27253218749016,17.55503396713325,5.878726763689845,4.612195294199205,3.9677021229096554,3.3704893495746746,2.6903620139462343,2.0570187558395707,1.4068964005701456,1.0294926977343983,0.584234252653692,0.3712129983504322,0.24148976048379212,0.11693203620578113,0.025387702520268618,-0.0009110327568910039,-0.04470906447170586,8.089080602229163,6.954123069168213,6.282164108153169,5.614072553117838,4.824749176484735,4.076312963087676,3.2838442276526014,2.430760425126796,1.8020811496215063,1.2745718302754807,0.8522463801077746,0.5540078571107865,0.3633240263215199,0.20604921613480656,0.10209822388625324
0.0,54.0,54.0,0.0,120.0,0.0,0.0,0.0,0.0,-107.0,0.0,-45.0,0.0,0.0,0.0,34.27253218749016,17.55503396713325,5.961556261859422,4.628690118879144,3.9778411737248582,3.4294725218651765,2.6864049177197953,2.023953323130079,1.449996301393604,1.0171322703516703,0.5921620062101509,0.4453802976540821,0.2329739601989478,0.11522581418135852,0.07822303221500793,0.036941981924411026,-0.001048319397480759,8.121401625984621,6.953904095742638,6.355300282796162,5.658155893019162,4.878114045437028,4.0905444185038,3.287375378432129,2.488382363133684,1.8238369342432428,1.3056305277265257,0.9106280041237873,0.5202878915329274,0.3385904016193785,0.1901613023981757,0.11620535169530755
0.0,55.0,55.0,0.0,120.0,0.0,0.0,0.0,0.0,-107.0,0.0,-45.0,0.0,0.0,0.0,34.27253218749016,17.55503396713325,6.102026292373426,4.7282429947514375,3.9948126638719734,3.443444185560199,2.689467989362497,2.0285058238215123,1.5155478855841444,0.9623016979367333,0.697482586392101,0.4089429574602411,0.24035539282501195,0.13491320320429184,0.0032537665449474742,-0.034978121097874904,0.01931568281554622,8.20041150102017,7.037856705497736,6.369851148249341,5.720526077967813,4.941042980161052,4.095892774837545,3.304623208852859,2.4669400723184363,1.862431453978853,1.3124210792791138,0.8946466970862132,0.5321332420266809,0.33403589191129157,0.23275352643218158,0.10643416443877526
0.0,56.0,56.0,0.0,120.0,0.0,0.0,0.0,0.0,-107.0,0.0,-45.0,0.0,0.0,0.0,34.27253218749016,17.55503396713325,6.135494022633974,4.82066355232614,4.1191503465077846,3.541918203259658,2.793497382882384,2.085278905406548,1.4976695854088744,0.9912297344026446,0.695967495937632,0.3483181351731778,0.17188272306429103,0.17736627030251545,0.1408821960136353,0.04643659949324113,0.015722726550437348,8.260373323427455,7.077001502405056,6.450674139272402,5.769737067585428,5.000334662334079,4.1143742248366175,3.293419873193903,2.5440821979471058,1.8456584284093425,1.2892916895701174,0.9212357996008577,0.5567779070033352,0.32096091433290896,0.15213645938027948,0.10857119262341311
0.0,57.0,57.0,0.0,120.0,0.0,0.0,0.0,0.0,-107.0,0.0,-45.0,0.0,0.0,0.0,34.27253218749016,17.55503396713325,6.233688207940114,4.8506104540713215,4.125920556464782,3.4991501110219083,2.7570235150365394,2.0769176551915214,1.500284562433676,0.9764758801248304,0.6661945288663981,0.4248999940913553,0.20119295714032615,0.07556020610078043,0.11981797152437729,-0.00429459319370094,-0.012091322186682364,8.306762153873521,7.170710967360546,6.494437531603339,5.830015368938957,5.016197574593548,4.162398551828957,3.3647405292855557,2.5999219623139664,1.911012523833788,1.3217178988738278,0.920921261180501,0.5658677890640484,0.3244777841735101,0.19873431016975077,0.09193125616581953
0.0,58.0,58.0,0.0,120.0,0.0,0.0,0.0,0.0,-107.0,0.0,-45.0,0.0,0.0,0.0,34.27253218749016,17.55503396713325,6.2380797186407,4.891427679269977,4.257787073447064,3.4725034913803214,2.8475437187427164,2.0753288421494718,1.4406203375766717,0.9571207263311723,0.7351425411508592,0.39857807087541103,0.23637644503643268,0.17734059034321648,0.09747063939931144,-0.020405167326192148,0.043303256153865766,8.366374230468866,7.2056588808973485,6.557774354396589,5.9012982622054615,5.046246474981018,4.230171576826305,3.3560578995602905,2.5186943754362816,1.8666047927027278,1.3302840293386586,0.9135314913722101,0.582000317439824,0.3486500510053482,0.17260455006825015,0.13251647219647156
0.0,59.0,59.0,0.0,120.0,0.0,0.0,0.0,0.0,-107.0,0.0,-45.0,0.0,0.0,0.0,34.27253218749016,17.55503396713325,6.366094012927295,4.953541294699586,4.274641980843095,3.6270759145350238,2.859569475880076,2.196462235440992,1.5782577932700423,1.050244566267261,0.6370370800898029,0.41377691526902194,0.2363876367020564,0.19400398168788385,0.005122647804760919,0.025254782074213212,-0.00911665627118818,8.4325743680924,7.209737595037562,6.6435260031957615,5.9187937076767785,5.064728470696414,4.245827996791741,3.39664382245067,2.541597870690549,1.896872872604276,1.310144621777857,0.8775633517284793,0.5633981975570089,0.3411719896523127,0.1808086625441478,0.10100189858841749
0.0,60.0,60.0,0.0,120.0,0.0,0.0,0.0,0.0,-107.0,0.0,-45.0,0.0,0.0,0.0,34.27253218749016,17.55503396713325,6.471378937836488,5.051167002771464,4.397122556004609,3.696464285628646,2.8783532682699486,2.1636248971181624,1.4907831526525452,1.0408010068573479,0.661034876164501,0.4404033245448493,0.18137471181744502,0.1172268502245171,0.09941639455664333,0.003913017188142919,-0.015449995165246276,8.445259427896875,7.410510075843423,6.65095572878312,5.935540521948005,5.134525874620275,4.2704406700991555,3.401766382123227,2.615969925049455,1.9022640753522555,1.3206856677770182,0.8624339802003346,0.565601375624246,0.3394763733280288,0.22400637388207376,0.0978470055423481
0.0,61.0,61.0,0.0,120.0,0.0,0.0,0.0,0.0,-107.0,0.0,-45.0,0.0,0.0,0.0,34.27253218749016,17.55503396713325,6.514668087534857,5.088681835508105,4.385623620068709,3.6688990112347546,2.916950703542314,2.177116860745122,1.5905046191436223,1.050461338856157,0.6729191028804025,0.3524621105042181,0.25577214633058387,0.14565560551121814,0.03430559925121161,0.06633853662939371,-0.037120163120240725,8.550651075101815,7.394334340257591,6.693642995084506,6.0263223497048735,5.242270446836951,4.326436906543542,3.4235135714588134,2.625745994432219,1.9237181503822625,1.3493430352997033,0.8890838480773722,0.5979539155243354,0.34955888337050456,0.18135236382515713,0.09425037231693094
0.0,62.0,62.0,0.0,120.0,0.0,0.0,0.0,0.0,-107.0,0.0,-45.0,0.0,0.0,0.0,34.27253218749016,17.55503396713325,6.57182280250979,5.177353052217153,4.431661058342189,3.6898183878453463,2.9985732868513155,2.2288557354712397,1.60819700073489,1.0412318648872954,0.6840206207340973,0.39228151366937963,0.26555067905908236,0.11969801561880368,0.03856140173839782,-0.028668970992426355,0.02229342322227084,8.59732013814496,7.4653074095614125,6.774556192328937,6.098825483865661,5.257201714720776,4.371454323682828,3.446511198141373,2.6449348376793695,1.9725546597442212,1.3380356646631155,0.9064816045530667,0.5344106607038532,0.3708633538109728,0.18496359181780953,0.11360591742421541
0.0,63.0,63.0,0.0,120.0,0.0,0.0,0.0,0.0,-107.0,0.0,-45.0,0.0,0.0,0.0,34.27253218749016,17.55503396713325,6.616744943512695,5.348316683429492,4.503778093007215,3.805949821304191,3.011688085570565,2.256792846366383,1.668156030843222,1.0153869927838266,0.7032518202891926,0.4547464543919439,0.23986229026368952,0.1251371069639571,0.06018975755507927,-0.013507641927768068,0.013808645158423269,8.699974351597099,7.532453702562032,6.839967458984848,6.113935845237189,5.281136133519484,4.427580981136441,3.438217739186564,2.653965510182797,1.938922420790633,1.3964427063594103,0.9083883334316643,0.6039963695979079,0.29724398760318205,0.20391274807527404,0.10361471294413062
0.0,64.0,64.0,0.0,120.0,0.0,0.0,0.0,0.0,-107.0,0.0,-45.0,0.0,0.0,0.0,34.27253218749016,17.55503396713325,6.838483221763637,5.279947357642479,4.573723214753525,3.8371577319909873,3.0245818382057705,2.34018396526193,1.60945497402141,1.1629140267852314,0.7371429462238841,0.4594570697525451,0.26287649413274206,0.09156685807984746,0.050079340750177205,0.05179497544446645,0.03702711255899567,8.79196267510853,7.583330305918856,6.884348468509154,6.203190091862986,5.313047474745179,4.454538581026673,3.544276744099085,2.682764961066088,1.9509316387745443,1.3729992059144394,0.9245716002805474,0.5747262382184612,0.39039230583441886,0.17406691799996804,0.07717957204235701
0.0,65.0,65.0,0.0,120.0,0.0,0.0,0.0,0.0,-107.0,0.0,-45.0,0.0,0.0,0.0,34.27253218749016,17.55503396713325,6.829066993437643,5.398085418709284,4.554532585294331,3.8605854378715523,3.0571642280558655,2.323961332312281,1.6557721260516747,1.0519221000726433,0.7376275968357389,0.49384888159672313,0.23655691983577645,0.18796344214586652,0.07322066992900653,0.10318936253566022,0.05302294776273511,8.780020835486356,7.66334183478648,6.997185500822929,6.2357312231500375,5.378877962823141,4.5012848034736175,3.526005281956289,2.6918847106730497,1.979167036417765,1.3726321812033393,0.9157595050142195,0.5935235818387824,0.3541108312147545,0.17869939714612051,0.07559885320941487
0.0,66.0,66.0,0.0,120.0,0.0,0.0,0.0,0.0,-107.0,0.0,-45.0,0.0,0.0,0.0,34.27253218749016,17.55503396713325,6.931051836985948,5.498773810592238,4.700535490103847,3.904524290390754,3.0986857690316887,2.290421449321633,1.6738294723489866,1.107452175885152,0.6643345229750686,0.43232993339255527,0.2945852087679305,0.10476054425906114,0.11395878898528755,0.0197249917524095,0.019876064605913978,8.899799928239268,7.769207155289745,7.034767080568201,6.25976430276909,5.392749196702523,4.468928936253763,3.5297590400609353,2.7120704517914254,1.9630562485969738,1.3862385112919944,0.9054587336727712,0.5627576780069973,0.33593337138938434,0.21143452698626825,0.11895017207656775
0.0,67.0,67.0,0.0,120.0,0.0,0.0,0.0,0.0,-107.0,0.0,-45.0,0.0,0.0,0.0,34.27253218749016,17.55503396713325,7.07727448786096,5.535464311118104,4.798518816936453,4.018190638768498,3.172872221632356,2.3538015059353645,1.7031154206878631,1.1357083917804158,0.6022336597697308,0.45817812620667764,0.17775926419181973,0.15639567921303324,0.061092439938063375,0.07476891599426452,0.009267535363903633,8.944723571596061,7.794559126581092,7.121900786607462,6.3464163610488225,5.4706414689753755,4.563292447871939,3.6041467839331207,2.7305777641362354,2.0288024197956216,1.4305598475861216,0.9387194374230973,0.5755852807273566,0.37923526807523256,0.2223255903861443,0.11504923997632746
0.0,68.0,68.0,0.0,120.0,0.0,0.0,0.0,0.0,-107.0,0.0,-45.0,0.0,0.0,0.0,34.27253218749016,17.55503396713325,7.108121313124027,5.661691414370698,4.808524044771277,4.038200358437949,3.2122224358079063,2.409488422045903,1.6769772271105885,1.1785254536738894,0.660897562917022,0.46468408849744886,0.18144585419418297,0.14694524610663326,0.03488553847597559,0.06352870930967686,0.01603247601754236,9.052275552769151,7.839540543287581,7.13867040408273,6.407655032728373,5.536349260831522,4.655978187693323,3.6329300623421,2.7734028946884015,1.975703997394436,1.3747900143632918,0.9222965132748903,0.5584655600676515,0.38026076351132027,0.1893860507046794,0.12952721372305145
0.0,69.0,69.0,0.0,120.0,0.0,0.0,0.0,0.0,-107.0,0.0,-45.0,0.0,0.0,0.0,34.27253218749016,17.55503396713325,7.3260885862920855,5.738550862744824,4.927077836584949,4.097155340531643,3.2653049650594363,2.4533211626151448,1.7090537439744418,1.1612615844383738,0.7932861416438854,0.46746197431114755,0.2625284496891459,0.1383388930338197,0.030657130022984015,-0.0052394319209507,0.024685634135388695,9.081466129729263,7.916727102588941,7.25572174501203,6.510227299831206,5.526604378056463,4.662163558487848,3.651251214059858,2.7704156393076045,2.021757924735164,1.4364434531883974,0.899741655305437,0.5964232295934556,0.3298076401674201,0.21085023716937873,0.13340745227601902
0.0,70.0,70.0,0.0,120.0,0.0,0.0,0.0,0.0,-107.0,0.0,-45.0,0.0,0.0,0.0,34.27253218749016,17.55503396713325,7.3662378979194685,5.834920553420298,4.992368936152793,4.123149226756613,3.345598220936659,2.529946830535833,1.7593125994370258,1.156645199354094,0.7192782607919335,0.421923120341196,0.31459135214151035,0.18586437350581653,0.06534243669856574,-0.02507053253260428,-0.08930972873461923,9.167201495100622,8.005634937987402,7.3241062510356905,6.4997420385118145,5.63154686510632,4.693184523413647,3.6885577397184233,2.787772452605493,2.0080565783667494,1.3941281283564864,0.9485187093271661,0.5848042130124341,0.3537577998351155,0.1985003453279192,0.1153907161232172
0.0,71.0,71.0,0.0,120.0,0.0,0.0,0.0,0.0,-107.0,0.0,-45.0,0.0,0.0,0.0,34.27253218749016,17.55503396713325,7.4391807981440925,5.889507902438152,5.123619411199831,4.17990482454739,3.317912770781752,2.4715593092880908,1.7689424444767028,1.2035956007737598,0.7245105747358115,0.4325255165659717,0.24388567180057757,0.15453701749150658,0.04120190148438316,0.01863694692844166,-0.07260184044733901,9.237299101200945,8.078228002437818,7.376280604938094,6.583561063602729,5.639503215146214,4.665043902141036,3.719099687192288,2.7730058201524823,2.0755567267818624,1.4305888989025932,0.9092520870449243,0.5708856091057157,0.33700136607858505,0.1838592669909043,0.0705034325679322
0.0,72.0,72.0,0.0,120.0,0.0,0.0,0.0,0.0,-107.0,0.0,-45.0,0.0,0.0,0.0,34.27253218749016,17.55503396713325,7.5448093422836635,5.960792642492571,5.088438062190237,4.3152031449897486,3.37656909227893,2.486424932050067,1.7590714989162934,1.1444803935568113,0.7384585212185428,0.48382488785220584,0.26491734023342006,0.21898305507479687,0.08191015614041236,-0.0006564459667865036,0.04252149902857831,9.389472627865926,8.185239325774514,7.388307385980261,6.631008521883875,5.747400402120391,4.697823448732311,3.732541580878521,2.799013009272679,2.043845198333577,1.4151596452966844,0.9762908145515217,0.589117425644855,0.33530171277264736,0.17900667261999373,0.10532092782734659
0.0,73.0,73.0,0.0,120.0,0.0,0.0,0.0,0.0,-107.0,0.0,-45.0,0.0,0.0,0.0,34.27253218749016,17.55503396713325,7.6946817368502956,6.133488956451791,5.211198837781633,4.271039546290412,3.3918502448777677,2.5969048336161435,1.7681001572314128,1.2537911148639511,0.715752287396879,0.47628976051887495,0.22611976010940282,0.11836505371022717,0.10840234160584974,0.027946947480094884,0.042735123063650966,9.453387699430333,8.249725847249337,7.461490991108985,6.689038925323503,5.779732109295302,4.759172105205841,3.8141630539076914,2.8351640441331076,2.0720492580160936,1.4238131802728795,0.9072511409422456,0.6352915662271534,0.3505818774763818,0.1921177093441998,0.09860166110910366
0.0,74.0,74.0,0.0,120.0,0.0,0.0,0.0,0.0,-107.0,0.0,-45.0,0.0,0.0,0.0,34.27253218749016,17.55503396713325,7.872343000529493,6.125984179535763,5.293051524057666,4.3715202109076925,3.438023560419442,2.608912954415778,1.8491785473523625,1.1820168229439214,0.7346858124975749,0.41615919911173727,0.29934383584664936,0.11675675666901335,0.002000732595268992,0.08369642472741465,-0.03612486640934714,9.54542839329188,8.308636030784292,7.562343404619679,6.74004319981057,5.829508065347563,4.779448156750038,3.81935658883125,2.911023897424883,2.112947571893669,1.4099197325416502,0.9373943777114335,0.5952441872076704,0.3665556864986304,0.20001222315268125,0.09283747578597969
0.0,75.0,75.0,0.0,120.0,0.0,0.0,0.0,0.0,-107.0,0.0,-45.0,0.0,0.0,0.0,34.27253218749016,17.55503396713325,7.954603218538653,6.306865695762656,5.331347510949815,4.479041119966546,3.4054056071955126,2.582681287043113,1.8200245354236833,1.195142666450869,0.7821729090666634,0.49961666905995805,0.279375558219572,0.11583252568135897,0.014145827125146566,0.05299011361122398,-0.05298146475731057,9.626134844816553,8.374092335700865,7.5911731574540715,6.825017962026556,5.871816985016564,4.861835327164127,3.833789644687445,2.9057760066302594,2.1279728050787945,1.4744756590932953,0.9858293200455535,0.6009245971701911,0.3919027717725906,0.21501524000840191,0.09220152658777855
0.0,76.0,76.0,0.0,120.0,0.0,0.0,0.0,0.0,-107.0,0.0,-45.0,0.0,0.0,0.0,34.27253218749016,17.55503396713325,8.001746931079415,6.359663649226085,5.364261375853639,4.472328038396921,3.563135023612032,2.6277702558805345,1.8175412210346973,1.224417111916592,0.7795294824344867,0.458648451337829,0.24896262723966806,0.17019049421068352,0.08201082936630887,0.024908222781381256,0.1026491647311227,9.698361033226753,8.488618965482154,7.67834777354127,6.842783004888037,5.903732461638549,4.8978480070053925,3.854838625772455,2.9489171468394098,2.1184221979472944,1.4824586832185405,0.9677575889062716,0.5951773412747677,0.35956660399963863,0.23984888133118226,0.08789611965417428
0.0,77.0,77.0,0.0,120.0,0.0,0.0,0.0,0.0,-107.0,0.0,-45.0,0.0,0.0,0.0,34.27253218749016,17.55503396713325,8.207646815494252,6.402643509669885,5.478023653701242,4.575064391610241,3.613831659825804,2.741542287985304,1.8720314026076004,1.2067152843082984,0.8078518121536367,0.45653682030604287,0.27316819415328436,0.13576553209372566,-0.0004260642887847499,0.05152355037621778,0.03471511292764477,9.807241543470225,8.585778807633531,7.731776093335279,6.956620488955563,5.988306703339099,4.936359241737057,3.907981866664755,2.9511260378681397,2.1077460708460807,1.486515688422417,0.953797291660671,0.5931268589862123,0.32229337885515363,0.19426409822047058,0.10018961808702213
0.0,78.0,78.0,0.0,120.0,0.0,0.0,0.0,0.0,-107.0,0.0,-45.0,0.0,0.0,0.0,34.27253218749016,17.55503396713325,8.325527445560812,6.543136122389371,5.513423555889075,4.674269357192289,3.644247664485769,2.736450430733735,1.9318910741522448,1.303955530529321,0.8633332286581014,0.4709364244773542,0.27760063880125496,0.10166204684578349,0.10871613406147762,-0.009580226223099723,-0.05157562440008344,9.893010526706307,8.598626808667618,7.858664973826495,7.017572075951571,5.9886493011079525,4.920975763824749,3.9033695561514437,2.9618376861383395,2.12215917228966,1.4754448805297,0.9470774321100165,0.6134433564706229,0.3632827745258008,0.1947540280414723,0.1342983418476383
