Line_number,Fiducial,Easting,Northing,Height,Elevation,tx_pitch,tx_roll,tx_yaw,txrx_dx,txrx_dy,txrx_dz,rx_pitch,rx_roll,rx_yaw,PX,PZ,S0X_time_1.086e-05,S0X_time_3.256e-05,S0X_time_5.426e-05,S0X_time_8.680e-05,S0X_time_1.411e-04,S0X_time_2.279e-04,S0X_time_3.689e-04,S0X_time_5.860e-04,S0X_time_9.115e-04,S0X_time_1.411e-03,S0X_time_2.192e-03,S0X_time_3.418e-03,S0X_time_5.339e-03,S0X_time_8.301e-03,S0X_time_1.338e-02,S0Z_time_1.086e-05,S0Z_time_3.256e-05,S0Z_time_5.426e-05,S0Z_time_8.680e-05,S0Z_time_1.411e-04,S0Z_time_2.279e-04,S0Z_time_3.689e-04,S0Z_time_5.860e-04,S0Z_time_9.115e-04,S0Z_time_1.411e-03,S0Z_time_2.192e-03,S0Z_time_3.418e-03,S0Z_time_5.339e-03,S0Z_time_8.301e-03,S0Z_time_1.338e-02
0.0,0.0,0.0,0.0,120.0,0.0,0.0,0.0,0.0,-107.0,0.0,-45.0,0.0,0.0,0.0,34.27253218749016,17.55503396713325,5.93005786417363,3.3846613579101796,2.293910537703891,1.5228104391183868,0.8827960648924421,0.48036795597966664,0.26944857527150945,0.14358519791314028,0.13527750022619656,0.11505019096648679,0.0433261408271963,0.037454574007574196,-0.08041657618772988,-0.03139428243587687,0.09146038180681891,8.162436625327064,5.7629721438969455,4.457444167918344,3.3858036242966674,2.3913025204234164,1.6005730499046287,1.0320702642363506,0.677953300996882,0.4206954496423702,0.27536802918740855,0.1415515115101902,0.06542658314352434,0.0392746148576029,0.01881351133091932,0.021994693501898734
0.0,1.0,1.0,0.0,120.0,0.0,0.0,0.0,0.0,-107.0,0.0,-45.0,0.0,0.0,0.0,34.27253218749016,17.55503396713325,5.911184462891114,3.3361383622086103,2.2698660589463717,1.469368393608436,0.7589954394321081,0.49588053134573157,0.2408782285055453,0.11281146289650597,0.03002416350690021,0.03324361977984244,-0.003902578689031013,-0.00039877205952830105,-0.012006738616285966,0.01590707763267628,-0.02439658016419522,8.053615079455415,5.736943568387227,4.494468682612495,3.3340506698851526,2.331206794090248,1.5896449787825742,1.0051912056889651,0.6474217495321108,0.40012732510578486,0.2936920847642932,0.15100742101654321,0.0838682514279725,0.044814478457635844,0.048615082156012596,0.021972238877824523
0.0,2.0,2.0,0.0,120.0,0.0,0.0,0.0,0.0,-107.0,0.0,-45.0,0.0,0.0,0.0,34.27253218749016,17.55503396713325,5.859638694059634,3.2094240826843636,2.201291452794594,1.396731137564628,0.8015443342195105,0.4182873654455253,0.2351813687034238,0.06985720007744625,0.08314690577737029,0.01262402645321151,-0.0024858632396714472,-0.04754388919913104,-0.12714947248618216,-0.0004689260336357469,-0.010541559542355732,8.151611444462818,5.785780583116488,4.459487099646439,3.3312642597671323,2.259136363897491,1.5397879722826568,0.9672057888349859,0.5892916768109535,0.39507679671107676,0.25838921069314885,0.14323776178855085,0.07955179864360748,0.059998140604701294,0.016189265765485104,-0.009659220992547221
0.0,3.0,3.0,0.0,120.0,0.0,0.0,0.0,0.0,-107.0,0.0,-45.0,0.0,0.0,0.0,34.27253218749016,17.55503396713325,5.940547564882499,3.310315986090604,2.161181362031604,1.3632335300946286,0.8191964459384684,0.4720898604940678,0.2167173053678815,0.11527089349513946,0.04843862433722511,0.03694025105502974,-0.04202624481440212,0.05361256353077962,-0.009927226422936627,-0.010801155078244088,-0.03516907457720644,8.096193452013667,5.767928871474913,4.4392883142035595,3.244020637758123,2.2216768736875685,1.4317321322220902,0.9048275533288842,0.5777004358441689,0.39231238648880395,0.23122447705238802,0.141663971477912,0.09522973865833974,0.017026468511321936,0.07091075706210394,-0.0013200932050018814
0.0,4.0,4.0,0.0,120.0,0.0,0.0,0.0,0.0,-107.0,0.0,-45.0,0.0,0.0,0.0,34.27253218749016,17.55503396713325,5.898836419680334,3.274895619270721,2.1663319315436556,1.3703752928157928,0.7243542822681139,0.40585259793021056,0.15322041736605513,0.14977656745595627,0.02578698391245668,-0.021169225936825596,0.02742574194705838,0.01632039405391846,-0.04291851757802271,0.04968658956865785,-0.000882079906491721,8.127614747402685,5.748793191164036,4.379739565185466,3.188451647144918,2.1387561194339786,1.3957576830599203,0.8928288171951897,0.5792663301444299,0.3835452969394109,0.23188454611386256,0.1327554086439648,0.08956577440043023,0.050285052202294574,-0.0004399415701629647,0.03589054366862993
0.0,5.0,5.0,0.0,120.0,0.0,0.0,0.0,0.0,-107.0,0.0,-45.0,0.0,0.0,0.0,34.27253218749016,17.55503396713325,5.846862927295709,3.250071374568583,2.119693607304954,1.315472703009794,0.6899485019148909,0.4115648551057047,0.2457820069346413,0.07063501899952927,0.046386687052120255,0.06379882538256855,0.010590218335223053,0.02613110906770414,0.0602779329719999,-0.005549628684996162,0.036215625740523026,8.11834053699024,5.738132914227975,4.3404997885166825,3.1070967883124063,2.0728541860518335,1.327265407235281,0.8740379898081934,0.5635884070508314,0.3085714162972499,0.23840592210919037,0.127385183882001,0.08381549178828371,0.06928264691123764,0.040299865862518415,0.034382601033838264
0.0,6.0,6.0,0.0,120.0,0.0,0.0,0.0,0.0,-107.0,0.0,-45.0,0.0,0.0,0.0,34.27253218749016,17.55503396713325,5.872301519423877,3.30831776631982,2.08792922492973,1.27538104513834,0.7279287548696469,0.30457665010489343,0.2401574319286398,0.14671898145366458,0.11712966193059457,0.014263157648769315,0.06049902751820872,0.031886850101440684,0.0024938949922362124,0.039964536252329964,-0.028193863089011142,8.140024285999969,5.698962041718613,4.295943099946679,3.0805140198017056,2.0701509725719234,1.3018359291168289,0.7887451628128307,0.5490123394445557,0.3625318642335424,0.2233116870922799,0.15188444428636413,0.052261173870080724,0.04276006729422547,0.0010499692364490734,0.044303660449582505
0.0,7.0,7.0,0.0,120.0,0.0,0.0,0.0,0.0,-107.0,0.0,-45.0,0.0,0.0,0.0,34.27253218749016,17.55503396713325,5.899079195854179,3.2098601668613793,2.0755892481181215,1.2430437677389397,0.7329511354335267,0.35979235262500125,0.21876557854295808,0.06036415726093605,0.14476895717664293,-0.00347953459145987,-0.06106825842508568,0.035362540314198665,0.0038365081068241565,-0.009611566863865747,0.03204835912584205,8.133170633419551,5.71096791052524,4.256048076148004,3.0123732664425646,2.0249528789853155,1.2825608014452368,0.7862272616307141,0.534481437080154,0.35807799741701507,0.23765111781844195,0.13225081497179006,0.08048664425712652,0.03543045920307628,-0.018366629620327556,0.002903847835046469
0.0,8.0,8.0,0.0,120.0,0.0,0.0,0.0,0.0,-107.0,0.0,-45.0,0.0,0.0,0.0,34.27253218749016,17.55503396713325,5.88500902961608,3.303361635968562,2.0755173923921624,1.277995273857887,0.596326908373925,0.33304829509319206,0.15674342785172987,0.13153228232152,0.11576625585519935,0.009362854499954373,-0.0018190055888168983,-0.025852523727383336,-0.014763530179700743,0.029220653600432137,0.12936109654907438,8.174856393424,5.666904703086992,4.255242132066884,3.006739068754928,1.9782637266816978,1.2605627465749416,0.7841996071728671,0.48901861409612546,0.33364482779403426,0.1850420919151913,0.11640657155428696,0.05860729731048693,0.06369542925252188,-0.018757850103251355,0.03900332735072926
0.0,9.0,9.0,0.0,120.0,0.0,0.0,0.0,0.0,-107.0,0.0,-45.0,0.0,0.0,0.0,34.27253218749016,17.55503396713325,5.895174742212242,3.271985928692369,2.0805206768557483,1.2096914987494758,0.6022872647187885,0.2959318145313038,0.19901165347658392,0.11714151555156974,0.007071031834849376,-0.02456129500554596,-0.04812028624414645,0.08520901237887224,0.050986259288052116,-0.0029818792567702706,0.017083811735106858,8.12023948210585,5.614098878478511,4.23687552074075,2.9286934859488305,1.8971159449895851,1.1926535177867124,0.7495549162905526,0.47401670024737513,0.3021128813278183,0.21797583151548838,0.13151190487386935,0.05583590093051438,0.03734477781397265,0.002745399175595225,-0.0025472532751389856
0.0,10.0,10.0,0.0,120.0,0.0,0.0,0.0,0.0,-107.0,0.0,-45.0,0.0,0.0,0.0,34.27253218749016,17.55503396713325,5.892222727424767,3.1715105585375514,2.0477292335033628,1.1918063939272667,0.5975395494035783,0.25879009992841456,0.17357468535289108,0.11071848901056525,0.05823615427207499,0.01464437465586412,0.02906505052832619,-0.05515798867534128,0.007011564194750028,0.05786257663041836,-0.012702648158818322,8.109560554264595,5.6615307337915235,4.240358948405925,2.942228952099298,1.913053779154079,1.1542295907003735,0.6874695863936269,0.4585035197619652,0.3134222449030403,0.2277357243898635,0.12071986252697253,0.08166701630871742,0.02863495890942188,0.036697438430514116,0.0022803280423758076
0.0,11.0,11.0,0.0,120.0,0.0,0.0,0.0,0.0,-107.0,0.0,-45.0,0.0,0.0,0.0,34.27253218749016,17.55503396713325,5.940477341385036,3.202635408537412,1.9760390234616192,1.199016584857807,0.6016498605069768,0.31876060335724477,0.1840383051233601,0.08351119689427583,-0.009503093706536979,0.07852097850632712,0.017464715318377746,0.027501883829862874,-0.022030209006899518,7.716033988508508e-05,-0.050612179140913725,8.10793826293906,5.627490410333726,4.19241841183764,2.958546041402565,1.8583451492192449,1.130518671793003,0.6629209900879798,0.43641009720833385,0.2684360756525198,0.17878390918729586,0.13460302574697874,0.09180275892688967,-0.0011825758412689208,0.008798972672243771,0.019502968090508836
0.0,12.0,12.0,0.0,120.0,0.0,0.0,0.0,0.0,-107.0,0.0,-45.0,0.0,0.0,0.0,34.27253218749016,17.55503396713325,5.885482049926146,3.2661892596760294,2.0051332623742772,1.160579852501423,0.6601599325524775,0.29768492048294487,0.1683852033122155,0.10945890947062338,0.04454765866751104,0.06425215540844091,-0.0001168117179110497,-0.10343682786726861,-0.007967755077358165,0.00040337384277695765,-0.004121393271611454,8.07210335118939,5.64737180314488,4.123922555068876,2.897517274157025,1.7930665497302334,1.1057011992301884,0.6848726642016839,0.4489330080844089,0.26990495320802954,0.18126901334311776,0.13175902671503217,0.036767140287063765,0.012898305352958928,0.018026383620198524,0.008473592396240012
0.0,13.0,13.0,0.0,120.0,0.0,0.0,0.0,0.0,-107.0,0.0,-45.0,0.0,0.0,0.0,34.27253218749016,17.55503396713325,5.8456189328969375,3.1474305040978074,2.01466842829607,1.104239298481738,0.5419026739427565,0.2879258175294724,0.10192438672510426,0.044084987315478066,0.034038786621859725,0.006518040548671642,0.00406502323085141,-0.06475545392370818,0.0675252363411064,-0.1004817548784865,0.01774989807797454,8.115628194149853,5.60183401390282,4.1227155536186,2.8449163862034736,1.7622353317844144,1.0929085072103155,0.6539655528385776,0.42535597549962817,0.2956826617264851,0.18249684497482493,0.13527143768305022,0.06091783788275666,0.018178003215609532,0.059481906139082455,0.01340453274745898
0.0,14.0,14.0,0.0,120.0,0.0,0.0,0.0,0.0,-107.0,0.0,-45.0,0.0,0.0,0.0,34.27253218749016,17.55503396713325,5.795333502917831,3.1804146387621532,1.9613146005944087,1.1469242969394713,0.6038769018325444,0.3024592021109758,0.16069714745583552,0.08182582767514368,0.05475261846275678,0.0022688019689675112,0.04639373590679944,0.055668549083955035,0.0320677646535168,0.026787684128452074,-0.0025846249809302097,8.068825744908732,5.621714438104699,4.123954390420566,2.801704021751211,1.764912689161394,1.0070890088238693,0.6403068291378116,0.42672409906568637,0.2886947440346632,0.20214664327103737,0.130990314622604,0.058243533033125655,0.07315459797820106,0.014934043516262159,0.006637201347982639
0.0,15.0,15.0,0.0,120.0,0.0,0.0,0.0,0.0,-107.0,0.0,-45.0,0.0,0.0,0.0,34.27253218749016,17.55503396713325,5.829051412840809,3.226678525337156,1.956655356897734,1.1102514695493033,0.5605879667704006,0.3169933602741412,0.021181541891277647,0.08912981535580831,0.04355272116282197,0.04275161031740994,0.040631488719866736,0.013238278802170107,-0.009985752196296896,0.012688554525236997,0.04994476298836014,8.05863319475551,5.62251238017959,4.084270479074135,2.7821571164287504,1.6694774165673953,1.001461962933087,0.5794335370392191,0.3853545091561406,0.24747559029969157,0.1615640416182647,0.13512217622041128,0.08116016341417795,0.007277987893229976,0.0062398262722654675,-0.006384968610552641
0.0,16.0,16.0,0.0,120.0,0.0,0.0,0.0,0.0,-107.0,0.0,-45.0,0.0,0.0,0.0,34.27253218749016,17.55503396713325,5.8339482869039205,3.1127440591231554,1.9900244676448349,1.0566602354101435,0.5066882241245408,0.26054083775889103,0.14263291417923799,0.15899317837729676,0.056435503465301434,0.042516322320179906,-0.02340604109707238,-0.0028203791353105957,0.04023947369794023,0.044107958464556105,0.007709936545076819,8.111998326821299,5.613946199455173,4.04656288850313,2.733760119138969,1.6691917835152816,1.0435790113537886,0.5659602809984325,0.34017151619227615,0.2386980598826596,0.1813415465476415,0.09541994115226038,0.028279266604317087,-0.0024271361515740553,0.02202514811873733,0.026602682656369156
0.0,17.0,17.0,0.0,120.0,0.0,0.0,0.0,0.0,-107.0,0.0,-45.0,0.0,0.0,0.0,34.27253218749016,17.55503396713325,5.834287493267097,3.129874915493867,1.8388956990179075,1.0993804685749877,0.45768274466148645,0.3056889092106401,0.09874917259530847,0.14621678137916178,0.05174027488120372,-0.06125646319913673,0.07554918864686598,-0.01472843627936838,0.0004541384418121743,-0.025469573246061833,0.03963516161162511,8.124709113274546,5.538915810312749,4.0050322463234656,2.7516410346720046,1.6971251554984987,0.9856217402677095,0.6125447706441515,0.3564139359719169,0.2634397997491497,0.151044717791638,0.09484064510478707,0.062378517023322255,0.025491840182036363,0.007840962079161462,0.03883879721133072
0.0,18.0,18.0,0.0,120.0,0.0,0.0,0.0,0.0,-107.0,0.0,-45.0,0.0,0.0,0.0,34.27253218749016,17.55503396713325,5.879796671496974,3.1732128127356822,1.9549673426634653,1.037887536803666,0.5928697912160963,0.2143456411230935,0.11846351699088341,0.04853883452545708,0.05178951685227642,-0.010069098144045854,-0.04500870570784217,0.03014016125113544,-0.03735833373761793,0.06329690096660716,0.015082703361402033,8.104777326231517,5.4975483597107155,3.976225885065927,2.6646307237290277,1.6304602419941157,0.9363068951062287,0.5673076529823926,0.3387791767842673,0.2582103626828506,0.1832090462375416,0.07829687342671286,0.047631952235407046,0.03274683242997462,0.02071540199512017,-0.011386234482441556
0.0,19.0,19.0,0.0,120.0,0.0,0.0,0.0,0.0,-107.0,0.0,-45.0,0.0,0.0,0.0,34.27253218749016,17.55503396713325,5.830668988245087,3.038799858875796,1.8691190137148115,1.0387523772055645,0.4747644079055133,0.08621444297299388,0.1627899843248392,0.04864417590400674,-0.010606954613563396,0.075886472892835,0.022457018895800544,-0.0013215329848453123,-0.03401555727234289,-0.010272240116661939,0.0010844491819319802,8.112314219309663,5.521894471722483,3.9022207609355233,2.637361612240038,1.5965306960046644,0.900595751008539,0.5334740265926675,0.31276389394939097,0.23771045977238778,0.15314834909166491,0.12129352255349032,0.047315756328204055,0.048164520505607614,0.009187260161819385,0.011865976353554752
0.0,20.0,20.0,0.0,120.0,0.0,0.0,0.0,0.0,-107.0,0.0,-45.0,0.0,0.0,0.0,34.27253218749016,17.55503396713325,5.87883926053611,3.0918099969854476,1.8646924853618554,1.0532241376229265,0.42646501756998256,0.22902803436091104,0.03285407621183131,0.047580443667622103,0.03033972543765498,0.06661656558880462,-0.006113185654904525,0.01612781378953689,-0.02038017337171768,0.007749753417565189,0.06579222249195384,8.102586857751646,5.45886133090419,3.9222810394285053,2.6190315644916975,1.539332773335632,0.8596225060943175,0.5274500183372426,0.32417903089155947,0.23629255061716137,0.13297269769394499,0.06473428493197692,0.059944487389438535,0.04601829209366766,0.04099688054768438,-0.00519144365511536
0.0,21.0,21.0,0.0,120.0,0.0,0.0,0.0,0.0,-107.0,0.0,-45.0,0.0,0.0,0.0,34.27253218749016,17.55503396713325,5.858271016707182,3.061065276052356,1.7956454533468158,0.9648313240874431,0.4332597215459595,0.23406257085776894,0.166511439772959,0.04321463064431982,-0.0005886575573052985,-0.012950906827519405,-0.003979670116198555,-0.030476168661195666,0.01457811978098524,0.013375049898207097,-0.01323741269698876,8.012813448992965,5.464902408632097,3.8964150270688687,2.562314085127761,1.492621064873868,0.8787246445503152,0.48863246622092393,0.2981063691640979,0.19344464161727204,0.16629502465680537,0.11110956866000912,0.05677408583151674,0.013222960775037824,0.020740666464809956,-0.009556212933493843
0.0,22.0,22.0,0.0,120.0,0.0,0.0,0.0,0.0,-107.0,0.0,-45.0,0.0,0.0,0.0,34.27253218749016,17.55503396713325,5.844028324019073,2.9807184520772574,1.8191691205932548,0.971563465563871,0.4845832025206199,0.15779094533430993,0.06975208582944666,-0.011667239363482074,-0.015686299564850202,0.024421369932428504,-0.020614870905568433,0.03390470175969254,-0.016217820708820024,-0.021357454281653632,0.0012385239256125617,8.082955084114333,5.445361956654516,3.877261239390429,2.5748508792970983,1.4917078163324404,0.8269894944995555,0.47890804589135055,0.3390608699547379,0.2092012223856308,0.15004800254366937,0.07746671808045925,0.028070343535226024,0.0640572183318206,-0.0007582740450044999,-0.010589016871754628
0.0,23.0,23.0,0.0,120.0,0.0,0.0,0.0,0.0,-107.0,0.0,-45.0,0.0,0.0,0.0,34.27253218749016,17.55503396713325,5.829782321381628,3.028079486323453,1.8137337621292586,1.0063973863307534,0.43511224539947646,0.14946717623814554,0.11199729126499453,0.08769238483470335,0.03937023290021919,0.032403173473621906,-0.012680263672739674,-0.03166093317182814,0.0546297827528628,0.022998040388234425,0.02107176026714273,8.06542867209231,5.4079564648853,3.8409247343483544,2.5219325205328604,1.4376596305606495,0.8258093517143019,0.46326298089017476,0.32226256994675173,0.20231026268828836,0.12134783425293874,0.08756645798749577,0.05173747492555595,-0.0002600284716034462,0.04828554528492845,0.03565188531240967
0.0,24.0,24.0,0.0,120.0,0.0,0.0,0.0,0.0,-107.0,0.0,-45.0,0.0,0.0,0.0,34.27253218749016,17.55503396713325,5.844847183135457,2.944063045537179,1.8244231371589785,0.9531395575300888,0.39792117031005536,0.1944844329914833,0.12309049970309802,0.022014901145042315,0.016356000683057093,0.014130167903163907,0.03334060965142362,-0.01901778280550244,-0.008318083684763375,0.023656015775346106,0.008029387910854521,8.099061402051673,5.366616529017158,3.803231514171174,2.4944306972326125,1.4722421787792024,0.7792153381544208,0.4827846741241392,0.2856662985805873,0.20803337754920947,0.13439096149956606,0.05658582883796301,0.056960147140722936,0.016427495527807492,0.013470813941953638,-0.003267408800991826
0.0,25.0,25.0,0.0,120.0,0.0,0.0,0.0,0.0,-107.0,0.0,-45.0,0.0,0.0,0.0,34.27253218749016,17.55503396713325,5.822916318110942,2.971567530136632,1.7292681933732785,0.9188840258786495,0.4118483229446852,0.15717168032412226,0.1310242463272194,0.07273381085859912,0.0069647480620072255,0.002623023279946707,-0.050192655745142555,-0.050017170429494946,0.05811004561887713,-0.05352664545377243,0.0643988903454732,8.115060798853657,5.344805399083316,3.819337215568352,2.4031577590513598,1.4045043479731592,0.7769212302211763,0.4630811133537852,0.3298907290175577,0.1627051322306089,0.1263143424803372,0.07124779880914647,0.0588621253525804,0.022908067886566654,0.016057174957161958,0.006499137056324211
0.0,26.0,26.0,0.0,120.0,0.0,0.0,0.0,0.0,-107.0,0.0,-45.0,0.0,0.0,0.0,34.27253218749016,17.55503396713325,5.768774992925835,2.8975519344666107,1.7049407848412415,0.8367444129686532,0.4797627902218542,0.231414507204184,0.06575924110633208,0.07538996887410518,-0.00030478485957554854,0.02019684948057519,-0.011304745236289293,-0.0036323872223510446,-0.00494655062977725,0.026348524537898384,-0.031080193247792882,8.109959499448461,5.284937466995191,3.740900912733374,2.396846188813812,1.4099174949837565,0.8280624323060495,0.41363692535476604,0.28496793292034656,0.22241220815847532,0.1448224358383972,0.06492009230701891,0.05628428580190548,0.006795867664611193,0.013227718965581524,-0.027720870040213556
0.0,27.0,27.0,0.0,120.0,0.0,0.0,0.0,0.0,-107.0,0.0,-45.0,0.0,0.0,0.0,34.27253218749016,17.55503396713325,5.835483748398707,2.850832713658152,1.741846249667082,0.8851713545913773,0.47440490720237183,0.1836563060966989,0.12070023482791108,0.009550548179951851,-0.017213833899338588,0.022934817281767605,-0.020920951977757833,0.006626327968114735,0.0007328385040635493,-0.0094160146829062,-0.05116076811244295,8.07137048130533,5.302560467368016,3.7519494377376077,2.3695189130965986,1.355085327326401,0.7127868107079711,0.45304764512808854,0.21362399020534845,0.17502028926981558,0.13891066618530487,0.08511369832952188,0.047938565804626965,0.06079959235337632,0.0009999966603013392,-0.0024860512280146414
0.0,28.0,28.0,0.0,120.0,0.0,0.0,0.0,0.0,-107.0,0.0,-45.0,0.0,0.0,0.0,34.27253218749016,17.55503396713325,5.789487675499737,2.968176427039463,1.715311316397317,0.8744388236372199,0.39050393146254314,0.17473877490827933,0.049870960407348675,0.1019753701970007,-0.03652612169779869,0.04504456848031679,0.05142917166939856,-0.03793609092048626,-0.04002267656698943,-0.061114378620169295,-0.060479188739642004,8.092655589416164,5.272050062294794,3.6331914993274834,2.337546497413348,1.3338656962519553,0.7600536840806035,0.41531319034190933,0.27685036598890383,0.1935150007057202,0.1275956939561436,0.06310571512115459,0.11193092457084104,0.05947602712888825,0.03195612641689034,0.010589254376816537
0.0,29.0,29.0,0.0,120.0,0.0,0.0,0.0,0.0,-107.0,0.0,-45.0,0.0,0.0,0.0,34.27253218749016,17.55503396713325,5.766925341095508,2.910971551153831,1.619459525693789,0.826394791603648,0.4382866837253103,0.09222205807877387,0.05211909675430969,0.03657644974543897,0.007142093234299533,0.00992642477379168,0.009785027288810262,-0.006241330241135254,0.024332885921909842,0.03550140064870318,0.0157343426901761,8.09949933138117,5.194796170677588,3.673845475670066,2.3646823827490966,1.291173758624884,0.6731535178141381,0.40501777935302696,0.2939131318422895,0.17648792054623136,0.10755376208546977,0.06439672530125823,0.03129860161276273,0.06327032277793704,-0.044199383750294335,0.007460469105628304
0.0,30.0,30.0,0.0,120.0,0.0,0.0,0.0,0.0,-107.0,0.0,-45.0,0.0,0.0,0.0,34.27253218749016,17.55503396713325,5.786606497065817,2.8368693068560553,1.6754035807248766,0.8465275912327981,0.4220963468007368,0.21684179404085263,-0.05230290508950823,-0.0201251937725,0.002822963541709505,0.0473696977196077,-0.041356039237419796,-0.006913987884674774,0.07665733590648534,0.01946277587294229,0.037190624346405424,8.053117834899492,5.235109241098056,3.616311641112796,2.2957479771004397,1.277655237662874,0.6937130059198638,0.36419046039292974,0.23486584193317148,0.15377874804977557,0.13025975809239504,0.03811046635505837,-0.007521818452058855,0.024904643346395878,0.011329802123116595,0.008510886571193532
0.0,31.0,31.0,0.0,120.0,0.0,0.0,0.0,0.0,-107.0,0.0,-45.0,0.0,0.0,0.0,34.27253218749016,17.55503396713325,5.794094872618886,2.8317986440365326,1.5704137962859746,0.860326156518623,0.3116451057675255,0.13925631281492196,0.07523669013746148,0.05054304046728397,0.015137612483442777,-0.032649847954502376,-0.03827458934239435,0.010683942091445051,-0.013038561139258067,-0.04282528560359251,0.04713243734180173,8.071893822302764,5.181829720986218,3.529383489051265,2.283964773837432,1.2544081018434705,0.6937054355030002,0.3939247341769798,0.23617605388174867,0.1713360206300981,0.1281468244610046,0.07068747563811562,0.0498258646489818,0.0292309200350082,0.04492463422587823,0.003036873623448488
0.0,32.0,32.0,0.0,120.0,0.0,0.0,0.0,0.0,-107.0,0.0,-45.0,0.0,0.0,0.0,34.27253218749016,17.55503396713325,5.754747667925397,2.7629177233030906,1.511742002163566,0.7370458885122216,0.3637805303747208,0.172029540666933,0.07976566485634266,0.07187452255034874,0.04104352513946993,-0.0031878879768391915,-0.01037365729540645,0.05732447794137346,-0.04359412167705516,-0.046037360759136975,-0.033870212718128824,8.070151725939725,5.146201077216591,3.537156700294892,2.212207317856829,1.2233668202800578,0.6818103873431886,0.35181808165082523,0.23275537209067407,0.14456246877108808,0.08995998160038253,0.09833538656602483,0.06366675896863527,0.04380106954397472,0.017673403719259084,0.018558248077960984
0.0,33.0,33.0,0.0,120.0,0.0,0.0,0.0,0.0,-107.0,0.0,-45.0,0.0,0.0,0.0,34.27253218749016,17.55503396713325,5.766874999656579,2.7661693165167307,1.5160856535139615,0.7544218688966721,0.38047471647031034,0.19080905429656597,0.09268427087564553,0.02267507935264306,0.018581862024245905,0.050447547966338276,0.047935011449626766,-0.0033376988850767992,-0.004987889625611485,-0.04120610942779208,0.010763864497723605,7.987841270257441,5.073914703269691,3.4484531423693006,2.187532467772322,1.2434604002607637,0.6645747024844442,0.3602093109155503,0.25626532522092604,0.15568596835095888,0.12112325368178944,0.07763768179009937,0.017188133168447986,0.006540722442549149,0.00122036284239368,0.02248714945084727
0.0,34.0,34.0,0.0,120.0,0.0,0.0,0.0,0.0,-107.0,0.0,-45.0,0.0,0.0,0.0,34.27253218749016,17.55503396713325,5.597165055242178,2.703927436676681,1.5102366648148895,0.7694970250420364,0.37353480608665046,0.15147905371478726,0.07764826055458837,0.0793357953677904,-0.03365640428820295,0.026935527430752587,0.0037869949344195367,-0.0039130165600065716,-0.034840805950871856,-0.06023825057413081,0.042647362410138494,8.003188820155751,5.020742306466941,3.4462700540081888,2.12819581553735,1.1600190146107277,0.6253157648218004,0.36563836514322406,0.19473461075705759,0.16593575468133145,0.09070828751016224,0.06840745849335786,0.0017421526867268042,0.04771998185676485,0.0016075607379147164,0.031938718330768265
0.0,35.0,35.0,0.0,120.0,0.0,0.0,0.0,0.0,-107.0,0.0,-45.0,0.0,0.0,0.0,34.27253218749016,17.55503396713325,5.70889361127117,2.676694351623639,1.455769041968685,0.7060667332483482,0.3506654466680148,0.155776993199271,0.09992123929629887,0.05300360116277383,0.043368239394528094,0.03847309935174783,0.0005760590141741812,0.03745487727568901,-0.013072669906681276,0.007461311146956091,0.0016842765250986908,8.01805389245677,5.02388511443724,3.414511526648329,2.1009566943303026,1.1767878125613163,0.5826093594775105,0.29457486824668777,0.2247774207846076,0.1546510122726942,0.1082611834790949,0.040714856504827535,0.050076174772560336,0.0027708157496390204,0.01816375308077801,-0.008895227565576747
0.0,36.0,36.0,0.0,120.0,0.0,0.0,0.0,0.0,-107.0,0.0,-45.0,0.0,0.0,0.0,34.27253218749016,17.55503396713325,5.7250472960482055,2.639027240877248,1.4650652241143294,0.669747919497388,0.23572408734585804,0.1558365032874895,0.07013436641756605,0.0737667658209449,0.06076708861462142,-0.0018596522199324592,0.01317821408821282,0.011843715776667318,-0.047384833319871644,-0.035281604629642686,-0.007360643985898336,7.990871031880552,4.988787581065082,3.3348391373940602,2.0682736977783813,1.1350514903396183,0.6106048140569242,0.34330427820197124,0.2205435194678596,0.150225151011951,0.08088712998399317,0.04504699594312481,0.055588474313255316,0.024145112313995947,0.012159155339022898,0.0033987252498684853
0.0,37.0,37.0,0.0,120.0,0.0,0.0,0.0,0.0,-107.0,0.0,-45.0,0.0,0.0,0.0,34.27253218749016,17.55503396713325,5.698499335372013,2.7066857469258387,1.441266133747862,0.744285965597373,0.2975595483673734,0.06392700548410664,0.03698750598106351,0.027021396694353446,0.0011697849520360334,0.034193229385750576,0.0099961447551297,-0.00827277919547047,-0.015139370596761759,-0.01069332303227608,-0.014113062720357214,7.97837848062348,5.013854722957602,3.319524581358897,2.0318749287594065,1.119325863081206,0.5803673061326502,0.33173718163420585,0.1611757222239464,0.16829429363452197,0.1224160186387481,0.05743090541945028,0.03638418977679033,0.03348358766270629,0.007805688468957478,-0.014588274938619776
0.0,38.0,38.0,0.0,120.0,0.0,0.0,0.0,0.0,-107.0,0.0,-45.0,0.0,0.0,0.0,34.27253218749016,17.55503396713325,5.598449846357919,2.569187124349774,1.3947437064564188,0.7200700138033902,0.292230348645265,0.10494360589461392,-0.0010951957358865186,0.028655033777050313,0.017405047333155024,0.031849283787684673,0.09370259604505728,-0.005300937674976024,0.04926718641558075,-0.017155940502066393,0.03416995610216071,7.956070583522431,4.886588849718897,3.3304510106892247,1.9555303197200569,1.044921795859718,0.5890627439623618,0.3098733696410264,0.20402817789168565,0.15341786449360253,0.08296340967744471,0.03854047891750937,0.029331505135174303,0.027329673256937418,-0.011055021969647971,0.019398146410702834
0.0,39.0,39.0,0.0,120.0,0.0,0.0,0.0,0.0,-107.0,0.0,-45.0,0.0,0.0,0.0,34.27253218749016,17.55503396713325,5.662887596197093,2.537662489106027,1.312256207209568,0.7335389728753821,0.2093475985336125,0.09162833986416377,0.05682053298473564,0.0066124741813170275,0.06171873071806264,0.07877214886598216,0.0030740004136095454,0.013697342602708995,-0.0016625368611524847,0.04614102331239123,-0.043263692255646115,7.966485986538401,4.828115306775652,3.203010669721139,1.9406947354343627,1.0850799294532254,0.5568303582508479,0.3351210255497,0.17393516774494405,0.16914246693099882,0.027226143956564836,0.043840042037320934,0.06833036005767282,0.014802519568469548,-0.010966798240563848,0.016424098037931885
0.0,40.0,40.0,0.0,120.0,0.0,0.0,0.0,0.0,-107.0,0.0,-45.0,0.0,0.0,0.0,34.27253218749016,17.55503396713325,5.599814485837864,2.4582759711885163,1.3335512682833746,0.6887887586732303,0.27194582564127984,0.12229621205834415,0.04196604075034045,-0.02398501207956527,0.019860071295160552,-0.014402203666717088,0.010990336272709466,0.022434132615739608,-0.0012306213838303283,-0.021048092434111328,0.044804078213810015,7.888720263038275,4.798495914962825,3.143358686832109,1.8925228956786189,1.0472229091830842,0.5415165531631382,0.32649197553005993,0.1900539479358422,0.11855913718338472,0.07491999041598005,0.10314063741927988,0.058248660705935755,0.026394075227082887,0.044912578602650785,-0.0015279134789220336
0.0,41.0,41.0,0.0,120.0,0.0,0.0,0.0,0.0,-107.0,0.0,-45.0,0.0,0.0,0.0,34.27253218749016,17.55503396713325,5.632615003133837,2.4108675016101833,1.3037418328761279,0.6500774782543187,0.37411915078198993,0.09390412920049254,0.07121776824702623,0.036828723966527865,0.03898524886439962,-0.02885442129803546,0.022444041869789474,0.020448303505836957,-0.04699580354502526,-0.010635625124842023,0.05293686859643439,7.877516023365845,4.722222655257259,3.1451719396700692,1.8926297289941434,1.0453668108222913,0.5344265800640934,0.29894463705153623,0.2187375842432008,0.13457041489507066,0.09199112696823072,0.060867563004452986,0.07717344575683188,0.02356749123264284,0.005365248225167537,0.029893975630171467
0.0,42.0,42.0,0.0,120.0,0.0,0.0,0.0,0.0,-107.0,0.0,-45.0,0.0,0.0,0.0,34.27253218749016,17.55503396713325,5.57397016789044,2.4958952264431447,1.2695227798012643,0.6087560747382573,0.2760400736381764,0.1136001747832114,-0.028119859697055792,0.05044870240798097,0.07691319407491455,-0.006414209513353223,-0.00724138391941189,-0.010837032851508955,-0.02772759046550427,-0.018613168299573195,0.08401541183233789,7.862996207448649,4.702314066302043,3.10005516013312,1.85887455869653,1.01401153269673,0.4976234674134652,0.32139184749073874,0.15753931504775662,0.12351088413027697,0.05204498045061515,0.04697647684165612,0.018908419581400687,0.022174308187101803,0.01687297429683864,0.02906081275451517
0.0,43.0,43.0,0.0,120.0,0.0,0.0,0.0,0.0,-107.0,0.0,-45.0,0.0,0.0,0.0,34.27253218749016,17.55503396713325,5.5423085475779095,2.4731753881477316,1.2100243083039632,0.6042520149683027,0.2553416672204615,0.15280962871409268,0.10702922449660959,0.04090075794667125,0.016325591558217573,0.01598835299466854,-0.017464623945868955,0.040229100298545185,-0.06708369508934829,-0.03558310671981142,-0.003944707891383995,7.84631017615997,4.657061686822238,2.981297451441514,1.8063869731795594,1.0024791944564142,0.5003897378732662,0.270640320957993,0.19293041237580888,0.11835100696794726,0.04638659904876105,0.07604860891434553,0.02850701258772427,0.03330378520960815,0.007477077426661928,0.0016485907030191161
0.0,44.0,44.0,0.0,120.0,0.0,0.0,0.0,0.0,-107.0,0.0,-45.0,0.0,0.0,0.0,34.27253218749016,17.55503396713325,5.474764515477675,2.3345572626478917,1.2320398960943308,0.5847527844915317,0.28827082065450016,0.05662976272002052,0.046309328985433315,0.050560230796328876,-0.019667291481840897,-0.05259062314857086,-0.0344425147740614,0.01834732524238243,0.014009316403936867,0.006362644041688896,-0.024945352279847396,7.839739322271011,4.5558155667402565,2.95803104857863,1.7730035598709484,0.893951200235837,0.4979544861099883,0.2597867704452633,0.1520509072090791,0.07290719063335169,0.10629663911824494,0.06814757980958489,0.034360704652143644,0.03457993309492674,0.05048166714892478,0.023602183758217606
0.0,45.0,45.0,0.0,120.0,0.0,0.0,0.0,0.0,-107.0,0.0,-45.0,0.0,0.0,0.0,34.27253218749016,17.55503396713325,5.512940908015679,2.288858933392183,1.1890958842017538,0.533251434594009,0.23492377448037743,0.11773219959223902,0.08651245658445064,0.022535428710933957,-0.06111713437491567,0.0026148255656739975,-0.008585297138043546,-0.03273280759183422,0.019078304143072843,0.02997084974349027,0.030652679605120553,7.780525941436423,4.49482812702376,2.9354447412079003,1.757476172766052,0.9445961360229684,0.47917949214065686,0.29128628125121275,0.14364514593243538,0.10813316165983693,0.09003324223145176,0.04082112010425051,0.038489410446762955,-0.00978961975032035,0.00934081000199224,0.028607346674939367
0.0,46.0,46.0,0.0,120.0,0.0,0.0,0.0,0.0,-107.0,0.0,-45.0,0.0,0.0,0.0,34.27253218749016,17.55503396713325,5.459592555006765,2.250981051852389,1.1207924511593854,0.5038793522885069,0.22158793848124067,0.12238128125576053,0.06195040901091074,0.06806119328567174,0.0310934313980525,0.0303752857136314,-0.025647887293262735,0.021342076305640324,0.028889202725072415,0.02120798121242079,0.012640415568505172,7.78353134094827,4.4618398595981175,2.819133033578847,1.7187078168410763,0.8998401239406011,0.4260264964084089,0.3036229629323033,0.15519121319547516,0.13137895272867778,0.09477301533743845,0.06220938188407644,0.04448271723332667,0.004366578391593084,0.03447658927578483,-0.028780453219156652
0.0,47.0,47.0,0.0,120.0,0.0,0.0,0.0,0.0,-107.0,0.0,-45.0,0.0,0.0,0.0,34.27253218749016,17.55503396713325,5.4159279645535605,2.2079597105456807,1.1460293914786623,0.5092429081757286,0.21655869865144742,0.19351754367194673,0.03296754254896222,0.012148708566576271,-0.02372757884792167,-0.029428083473325498,-0.04066489006626944,0.010762111109198365,0.025775896228581115,0.033655887257998354,-0.049405607169303915,7.7444123083284495,4.382486397664471,2.7741049631213843,1.6611211620423827,0.8820946241376817,0.41081593771755337,0.18814667317321174,0.1087744255118122,0.12687186550450227,0.04813448364838215,0.05621630845836417,0.03142156371772187,0.040332272562086754,-0.015171055608398596,0.028650622702581313
0.0,48.0,48.0,0.0,120.0,0.0,0.0,0.0,0.0,-107.0,0.0,-45.0,0.0,0.0,0.0,34.27253218749016,17.55503396713325,5.394130853005423,2.2257412378885553,1.1172907299210777,0.5010836894424087,0.19333647634248036,0.10825793725342919,0.013102471015849323,0.028972719183544198,-0.00465364955451251,0.0027661221511885437,0.033991961095207184,0.011312674772610267,0.004735973887405602,-0.005190496851931133,0.01437090512039039,7.735169104482825,4.342562379128865,2.7128842809156466,1.6355710826128633,0.8410001715905232,0.42259755204398614,0.2749754082486375,0.16141452773876602,0.06269349769317711,0.10355055864615872,0.059878186601734884,0.04152575762979489,0.018701697969730327,0.02312470589098226,-0.003713325488255109
0.0,49.0,49.0,0.0,120.0,0.0,0.0,0.0,0.0,-107.0,0.0,-45.0,0.0,0.0,0.0,34.27253218749016,17.55503396713325,5.31306238544203,2.147452261839896,1.067739901468075,0.5672717235363788,0.19232178253539148,0.01503280781103336,0.037091222285939314,-0.10052747534744144,-0.0105481113016897,0.02474747330111083,0.024243321607421757,-0.01939702153419809,0.03120479046734298,0.012760970156420689,-0.027637208590763424,7.7147640979944105,4.309664290522324,2.646018487952763,1.599967208251422,0.8207221168314941,0.42318380124169264,0.23576353565971703,0.1477226004003654,0.095353883708682,0.027448934476298627,0.055387886473363734,0.05125603210347,-0.009861909472986763,-0.009396405677387672,-0.003943869875265827
0.0,50.0,50.0,0.0,120.0,0.0,0.0,0.0,0.0,-107.0,0.0,-45.0,0.0,0.0,0.0,34.27253218749016,17.55503396713325,5.320339945211897,2.0724283553460925,1.0103617885541318,0.5232302341761493,0.16714130241814137,0.11294477700986177,0.03452763878755918,-0.04988765732987768,0.029418405259679092,-0.06052035179088026,0.06738118188585603,-0.010980237595054662,0.030682830345293517,0.007553575091566625,0.04943307523582532,7.675224834106182,4.22751930693121,2.6647795750047045,1.5229863038239992,0.8114888089239789,0.40904669941732724,0.23858236604786764,0.16580797416512597,0.08848146940420445,0.07342440931418974,0.049295309377644606,0.020911897153945806,0.00034315738915723787,0.02867861437322277,-0.027623107607862595
0.0,51.0,51.0,0.0,120.0,0.0,0.0,0.0,0.0,-107.0,0.0,-45.0,0.0,0.0,0.0,34.27253218749016,17.55503396713325,5.304172192843651,2.017084753561159,0.9575399813874738,0.36870624384189066,0.2521849471349134,0.05640332525194525,0.025489103093756797,0.061632254956046684,0.08118818714540973,0.011689069245086843,0.007881847924358754,-0.042031760722228126,-0.04603186486404729,-0.006767254072011256,0.019800047368523827,7.620122431947581,4.1544670032061255,2.548390675000425,1.4603066930544026,0.7956770521463862,0.43760879638569977,0.21357859277615457,0.20227579067414847,0.10268261515859027,0.0638845980699144,0.0497409893175984,0.021518933889461783,0.010100042076371113,0.002899800459545302,0.007390621396097918
0.0,52.0,52.0,0.0,120.0,0.0,0.0,0.0,0.0,-107.0,0.0,-45.0,0.0,0.0,0.0,34.27253218749016,17.55503396713325,5.211885594073581,1.9417794149318526,0.9530901397785729,0.43602542547637135,0.18424458308679942,0.1266904286066245,0.06293840586587802,-0.04160866392455632,-0.018045262936188248,-0.00015411087873634568,0.01181778567559148,-0.007114532532002914,0.04103478623346313,-0.0035599449450719896,0.007382037471920643,7.5560287320958714,4.064721335983938,2.485143779963774,1.4611912231353048,0.7303041789398145,0.3493761300798228,0.21921983886712565,0.13872304906006114,0.060921719585551995,0.039480360103076005,0.04847105921264421,0.0662206261022631,0.0626827230271236,0.039772247974782314,-0.022810343595999604
0.0,53.0,53.0,0.0,120.0,0.0,0.0,0.0,0.0,-107.0,0.0,-45.0,0.0,0.0,0.0,34.27253218749016,17.55503396713325,5.19066950029016,1.8947423341977285,0.9290878400133556,0.46361640921375924,0.11654848339616802,0.10120901805356058,0.025578341100631244,-0.011063532023261942,0.003024888284246992,-0.057538181174372795,-0.02095228041476579,0.03417057446701476,-0.07279944206381787,0.01730247179894533,-0.027418932201546585,7.526656314884894,3.9771173367180865,2.4199146850993976,1.3890264009803777,0.7407129116375348,0.39128538020844394,0.2345132355403692,0.17618966579208395,0.11920916387320803,0.03572701324018947,-0.010453862096983305,0.04657504427709078,0.06239438609012867,0.02592762229447419,-0.03447367209411633
0.0,54.0,54.0,0.0,120.0,0.0,0.0,0.0,0.0,-107.0,0.0,-45.0,0.0,0.0,0.0,34.27253218749016,17.55503396713325,5.1532103158898135,1.8533879160684907,0.9003990995180572,0.38356169791973244,0.153490006694265,0.09345056562545756,0.02626014874785658,-0.021994716571881602,0.058859230389525216,-0.015705497298685034,0.016205567437268704,-0.018406705937268366,-0.02214630763301793,-0.046327738805702436,-0.035773473364852475,7.485815331877486,3.923046528497351,2.3603438966770094,1.395843819966473,0.7418087495039408,0.3623082898517246,0.20329598303589194,0.09895391013456756,0.0881548760056126,0.05305789036618326,0.0272210396929502,0.056931527365077964,0.020344774613889414,0.04356290785471621,0.004157829593970485
0.0,55.0,55.0,0.0,120.0,0.0,0.0,0.0,0.0,-107.0,0.0,-45.0,0.0,0.0,0.0,34.27253218749016,17.55503396713325,5.116473042573841,1.815570928396558,0.8297475609651928,0.321483614901898,0.11903748932848113,0.06946026919971121,0.02068418112109948,0.017944232843878916,-0.02041292647848709,-0.001193351552200064,-0.012934489317727508,0.033675340936719894,0.004311392583447671,-0.07290266356663674,-0.01730677873394598,7.433995165410023,3.854235096805882,2.3165189608744674,1.3089910121819257,0.6846921948859004,0.34401025711107036,0.164999141002954,0.1109112156773186,0.09256616681780219,0.04431059478753811,0.02796191301646418,0.031012388961103296,-0.008511540916389684,-0.0035218313866156384,-0.04254176262010082
0.0,56.0,56.0,0.0,120.0,0.0,0.0,0.0,0.0,-107.0,0.0,-45.0,0.0,0.0,0.0,34.27253218749016,17.55503396713325,5.043379141644851,1.7655166509672102,0.8549477550722782,0.39888423989884203,0.16759055266265843,0.03752381803603993,0.006794934133784729,0.028784934430007545,0.05153955013083818,0.04305738322152484,0.06748325399993697,0.08931554543561665,0.1054567739298158,0.009604233820465652,0.05291979816562285,7.375101836828032,3.772367883356526,2.250933676775505,1.3007416324479797,0.6889720365969451,0.31865547176065434,0.1319444011818287,0.11625658832462492,0.07624459115905192,0.0757626374425114,0.042314031597292,0.05040119651487494,0.015657404716532902,0.016231008683865306,-0.0234008930881367
0.0,57.0,57.0,0.0,120.0,0.0,0.0,0.0,0.0,-107.0,0.0,-45.0,0.0,0.0,0.0,34.27253218749016,17.55503396713325,4.9343174382258645,1.70293416572936,0.7941326009431904,0.3373742011251121,0.16084312815110746,0.024403888071095774,0.019468964283455223,0.029565774234689465,-0.039524846388815385,0.04696879896359046,0.050275851800592894,-0.06097033650690753,-0.021885766844381923,0.055633789123352574,0.04982525827245626,7.280405809183097,3.635774804287185,2.2115775816754195,1.2452516795272912,0.655024118946234,0.3420704978467197,0.19161860436702152,0.12408251132746141,0.08732831753006946,0.0721417855269175,0.015283749244834402,0.011449601864310842,-0.009245849649177441,0.027732031821393825,-0.03542981243705906
0.0,58.0,58.0,0.0,120.0,0.0,0.0,0.0,0.0,-107.0,0.0,-45.0,0.0,0.0,0.0,34.27253218749016,17.55503396713325,4.867742177870038,1.6401153946209428,0.7304420047716386,0.30236392740341184,0.08535223225617149,0.052859848457619714,0.045790216720161286,0.04607884553519886,0.016765490024494536,0.01720823656912877,-0.018129578955240075,-0.020358682876265306,-0.004524214380252247,0.026744736042497084,0.0189497447099367,7.230471505712306,3.5660102021448323,2.1720917277552068,1.199451673673702,0.6447292900839163,0.3486866959271333,0.16081918410381316,0.0754853372516257,0.10083690913792054,0.05782603750090759,0.03442280970154894,-0.013131677643511225,-0.03573897631365629,0.016998193179977934,-0.0013423557374948932
0.0,59.0,59.0,0.0,120.0,0.0,0.0,0.0,0.0,-107.0,0.0,-45.0,0.0,0.0,0.0,34.27253218749016,17.55503396713325,4.785126524134374,1.5338713283719374,0.6671323055715155,0.35223434396439274,0.10057057104574786,0.06045758513811415,0.07772607593940309,-0.03247811415704037,0.051249286780492044,0.022752389978417706,0.07914197063074685,0.005400105668967009,0.010933470624799874,-0.08522540333395691,0.006515065636972504,7.148261114172532,3.4690372919231676,2.0293582180716583,1.189087985131564,0.5877658271629339,0.3278446788084732,0.18869084287833404,0.13386405280561914,0.08315993335039694,0.042546001428086,0.05044603145061195,0.02650392269233619,0.04455153887752415,0.009745680708935575,0.026606485624689015
0.0,60.0,60.0,0.0,120.0,0.0,0.0,0.0,0.0,-107.0,0.0,-45.0,0.0,0.0,0.0,34.27253218749016,17.55503396713325,4.643912326729674,1.4660799501761788,0.6941301827570308,0.2641026985372991,0.08682585529632192,0.04529351909883571,0.04134119638263349,0.006708146081955205,0.006568320835772525,-0.0015409836042172406,0.04289088658214761,-0.0011180541764789437,0.0076803095167655,0.02517236678213134,-0.015696245446664328,7.079816479989548,3.4205834860039843,1.9666824825385116,1.1330326798570765,0.6124192348759161,0.30984015489795075,0.17902472307562847,0.1153907105625209,0.07730379891564877,0.0236152388834344,0.005476531742516104,-0.002941275452138261,0.018706709472587433,-0.019802851526770863,0.007069029594308895
0.0,61.0,61.0,0.0,120.0,0.0,0.0,0.0,0.0,-107.0,0.0,-45.0,0.0,0.0,0.0,34.27253218749016,17.55503396713325,4.537021788768288,1.4403273511928478,0.5755162353949724,0.3203060834489847,0.06648732451815081,0.03214420625388815,0.09420823374016804,-0.05071096350449339,-0.04854709574881036,0.02537571139611082,-0.02215538113082332,0.030736847319567634,0.018122399745227884,-0.042748491077379984,0.0007006749363493161,6.994934583776099,3.2901022744876944,1.9038788506795619,1.0768346768054489,0.549669614784431,0.28553045475625455,0.15003264265221936,0.12211766672171456,0.09313851309529081,0.06818792746823088,0.027941959020332544,0.023991289572623864,0.010722590093943631,0.00875228696553188,0.02722224926966542
0.0,62.0,62.0,0.0,120.0,0.0,0.0,0.0,0.0,-107.0,0.0,-45.0,0.0,0.0,0.0,34.27253218749016,17.55503396713325,4.506253348721984,1.3318669691260534,0.6148996681948312,0.24343535868119892,0.06239737541405943,0.035402186202219,-0.018673729108022258,-0.014611294820434169,0.011117862553927979,0.07266485064596251,-0.0034703340361146692,0.0037397814047051975,-0.012110364187189077,-0.00735194240296078,0.004465091146852963,6.845980966627572,3.2241247408136853,1.8583165505117714,1.0348037481948689,0.544232332845418,0.2750355304473161,0.18365074055287414,0.14814318638172405,0.08273192086360616,0.0354985672591917,0.05934952276541253,0.028993143227761888,0.0026806147964276873,0.009183924716694027,0.013646230823607957
0.0,63.0,63.0,0.0,120.0,0.0,0.0,0.0,0.0,-107.0,0.0,-45.0,0.0,0.0,0.0,34.27253218749016,17.55503396713325,4.464647261965034,1.2615031393220193,0.6102819397557228,0.2839721282219815,0.10893996042036132,0.049822478501361296,-0.005361270431665208,0.07191867066838495,0.013862834854905776,0.022212973190145743,-0.012807630464654286,0.019802022562972026,-0.029371493785460077,0.04281221143963965,0.07066138793858825,6.815370150127032,3.081583681265558,1.7388748853967189,1.0380233919567898,0.5538718900610685,0.3013505251898183,0.17141987994823463,0.1261503964957964,0.08034199003314091,0.09935761371693999,0.05251597737796729,0.03229689948981919,-0.004148918805014341,0.04407450303188065,0.02804186925962311
0.0,64.0,64.0,0.0,120.0,0.0,0.0,0.0,0.0,-107.0,0.0,-45.0,0.0,0.0,0.0,34.27253218749016,17.55503396713325,4.342735509391772,1.2472280758206478,0.5549123110429733,0.20324590938496795,0.14336788710096804,0.03761960091733618,0.01597662039625712,0.04685299232668015,0.013378475935235784,-0.024352093649079223,0.004589757582914284,0.02636755242205677,0.0028423801269089233,-0.047339417411341934,0.029476182901353343,6.644768872974467,3.0175141189572705,1.714884654072572,0.9740807271278797,0.5193864004315051,0.3016262805244312,0.11758243365239987,0.1521824559451813,0.08683233243643927,0.009303860089272205,0.0038093861688924674,0.01634884846700956,0.006579944594588291,0.029785352347651145,0.00047073679963968804
0.0,65.0,65.0,0.0,120.0,0.0,0.0,0.0,0.0,-107.0,0.0,-45.0,0.0,0.0,0.0,34.27253218749016,17.55503396713325,4.117307553410402,1.2020403792893553,0.5569826791371841,0.20528130088398047,0.1312423705298961,0.058207480713165116,0.017993391253211668,0.01734823040054491,-0.020525310453048895,-0.0566452131608445,0.031010644141982333,-0.019192678845161393,-0.029633912974558994,-0.06969764664770976,-0.06128451034088383,6.578610172960451,2.8916537677309226,1.6223160605075777,0.9416173179448164,0.4788814515493654,0.25080755332362686,0.12957145762825445,0.11395171432454641,0.05626846431647761,0.04032259521215124,0.0262050418573282,0.026312319138735392,0.04289474650716826,0.027860612570027463,0.0225024750961959
0.0,66.0,66.0,0.0,120.0,0.0,0.0,0.0,0.0,-107.0,0.0,-45.0,0.0,0.0,0.0,34.27253218749016,17.55503396713325,4.011088797538718,1.075827330132717,0.5143112165296815,0.22531136410733116,0.1441660612731564,0.09423213373311662,0.01840155240023062,0.010221074168386432,-0.020263141826797323,0.0037086072741915593,-0.03360784641550456,-0.019569447389179196,0.027533910914405692,-0.006972564963371249,0.006530179585511415,6.461233365995314,2.7874066867126133,1.6248625709537943,0.8984188249538414,0.49899638902839705,0.2434390019377119,0.15060780694303302,0.10219563161407531,0.04586683123390127,0.07954548648996575,0.02852266466482845,0.04751130991483087,0.00794329302975208,0.047097831328268266,-0.03158546680652754
0.0,67.0,67.0,0.0,120.0,0.0,0.0,0.0,0.0,-107.0,0.0,-45.0,0.0,0.0,0.0,34.27253218749016,17.55503396713325,3.9503257607341644,1.0049807968084672,0.4619248257935664,0.19639727778739097,0.0906348024327759,-0.007391799690699814,-0.062083760184342696,0.06828582637471874,0.042210566183962114,0.01792021574176027,0.010980726608837196,-0.011828337546565518,-0.03128867633867995,0.009458842839540958,0.03783153872332049,6.259988746269364,2.6597625794815927,1.51860841468136,0.8251232430883728,0.45390408667737525,0.23971016013282348,0.13904182026040152,0.15438087740239498,0.03909847783737473,0.06381738099903704,-0.008557388192931961,0.03746832001535003,0.007696935048030871,0.040472728357731795,0.010138350746119794
0.0,68.0,68.0,0.0,120.0,0.0,0.0,0.0,0.0,-107.0,0.0,-45.0,0.0,0.0,0.0,34.27253218749016,17.55503396713325,3.7950624923498344,0.9615160409563531,0.49516895871647065,0.16073448691535622,0.10108818830633101,0.09489948574064425,-0.02293172739948223,0.003357453926281193,0.015588646154883482,0.0510985721670505,0.01063806547674626,0.004808747749904403,0.04222065260671864,-0.011453978284729844,0.008384515071979145,6.117664478726804,2.566348287621681,1.4359487927947638,0.8171701944541422,0.4355809621874371,0.25296331028508157,0.2033735593219365,0.0686821953053706,0.07033616505371042,0.053852686912316615,0.009492422098685144,0.03820642116492251,0.028209715338620836,0.0035939516951454835,-0.03223617643861969
0.0,69.0,69.0,0.0,120.0,0.0,0.0,0.0,0.0,-107.0,0.0,-45.0,0.0,0.0,0.0,34.27253218749016,17.55503396713325,3.631813735143494,0.8692348588550304,0.41471579504389383,0.22048269438185342,0.13062895791239534,0.02915574364297069,-0.027738509902688543,-0.038967131570807015,0.051570810469556284,-0.0688529203877597,-0.03447752001939587,0.03762594427077804,-0.00600826346261874,0.018762805014351135,-0.045342100226762584,5.985407005034768,2.470784098163326,1.3848977094146275,0.8532712763389985,0.43444506788358545,0.23930679568679963,0.12774378574846088,0.1014882513278986,0.0909331490439339,0.03963384673007448,-0.0016625295883528624,0.023361909825257304,0.02666849806049896,-0.019753724318409147,-0.00808462315708083
0.0,70.0,70.0,0.0,120.0,0.0,0.0,0.0,0.0,-107.0,0.0,-45.0,0.0,0.0,0.0,34.27253218749016,17.55503396713325,3.4341846258848414,0.8468818993740089,0.43427894793402355,0.1720877849531503,0.06443805620356483,-0.0032109543396235535,0.019653912257124966,0.01603149945118362,0.01896168211493789,-0.12524961669544768,-0.02298138721093018,0.05674446235486064,0.00026796377736948895,-0.0048364412923590765,0.014368818267162924,5.780249269335834,2.3653616367427723,1.3266079645173607,0.7765670875129354,0.41638796983508686,0.20840876902295055,0.10774834928512275,0.08724895598839962,0.048645721994905765,0.031533507060325136,0.018282288257550964,0.00867260784304335,0.03401142713065659,-0.0004960762394732605,-0.021764550859217177
0.0,71.0,71.0,0.0,120.0,0.0,0.0,0.0,0.0,-107.0,0.0,-45.0,0.0,0.0,0.0,34.27253218749016,17.55503396713325,3.3172354300305043,0.816897318352517,0.3474161333962578,0.1313688854475203,0.09428576378809522,0.06979752558177782,0.02391997145381235,0.03775831964756594,-0.06713657551321135,-0.031131803662821964,0.015415588014478404,0.01663641763809984,-0.03021134728231518,0.021409905424482966,-0.030638831371511473,5.61316956213611,2.237810399949815,1.266590731929354,0.7481321602886866,0.41647479955491956,0.2271192060149263,0.13255602155825028,0.092548781740535,0.06343843453722414,0.05507305187171064,0.018560715718819287,0.023918265665344315,0.002283742255605882,0.005940132751397575,-0.008968380734092313
0.0,72.0,72.0,0.0,120.0,0.0,0.0,0.0,0.0,-107.0,0.0,-45.0,0.0,0.0,0.0,34.27253218749016,17.55503396713325,3.1424257544341967,0.7130746303225447,0.33065391415363454,0.15898710931562648,0.0764786557816837,0.04134816604280919,0.040400379373905115,-0.012745544979108675,-0.01925563301840573,-0.054454368967813034,-0.017986978579251606,0.013180136422792244,0.020862301378692952,0.04017468247617015,-0.030381695504562666,5.436600670294341,2.103349103229288,1.2157946726571494,0.7276463622262382,0.4410381083869325,0.2235456333657743,0.16214377083939333,0.0877345846029911,0.05921118809674825,0.0642200283476109,0.03932398784180502,0.0170666427818445,0.035633692016357854,0.013817727366855034,0.003571887564754628
0.0,73.0,73.0,0.0,120.0,0.0,0.0,0.0,0.0,-107.0,0.0,-45.0,0.0,0.0,0.0,34.27253218749016,17.55503396713325,2.9174080494112005,0.7049464221223993,0.30342707811620484,0.18581670100902886,0.03001239261229202,0.019457198106423712,0.01534933129649502,-0.02926386882327995,0.01524482499450932,-0.02417786967251092,-0.0037441281637470556,-0.006112985393830676,-0.0007605354414997221,0.004215877570619082,0.0072614753810348286,5.200160049874843,2.0049181965265466,1.156583665320547,0.6873513956288415,0.4145737661761009,0.18255884634338135,0.11219979448279192,0.05281522248621885,0.029194027739574344,0.0540485179502889,0.028770072075635113,0.008054212052918232,-0.020797928824424675,0.00017450268374782744,-0.023935121267082686
0.0,74.0,74.0,0.0,120.0,0.0,0.0,0.0,0.0,-107.0,0.0,-45.0,0.0,0.0,0.0,34.27253218749016,17.55503396713325,2.7209980751360012,0.590945856815968,0.29862405109610013,0.16568396311911443,0.01680809898433199,0.014210995139022947,0.041805409237780276,-0.06314327212243367,-0.05569038100362684,-0.035590332755868814,-0.011288765937267735,0.03329009611074414,-0.06138390212240437,0.004776708885512858,-0.0020050851613066536,4.924598414874587,1.9066010191994518,1.1200745403536039,0.6856628593371805,0.3785740666152904,0.20831871343242894,0.13663338847047507,0.0689451587721247,0.04027250169864395,0.031123055822941302,0.04793846365426149,0.028801687080125673,0.03545457809793932,-0.029789956056863805,0.01635228969955297
0.0,75.0,75.0,0.0,120.0,0.0,0.0,0.0,0.0,-107.0,0.0,-45.0,0.0,0.0,0.0,34.27253218749016,17.55503396713325,2.4981686480629874,0.5568800368284063,0.27487787128784946,0.12313988782119176,0.1544645099929881,0.06032702147879985,0.029573117379821375,0.003656571841804261,0.028817911845955092,0.012452878369658502,0.07468768953557345,-0.026232495621446042,0.05476774330457242,0.04888530850035506,-0.005338998407008588,4.689744958571897,1.8459965455422864,1.093833768629185,0.6426465510160344,0.3211517662882082,0.16864245119143165,0.11409463227008351,0.10651252082378908,0.07104554262373122,0.04643368965782272,0.03777521462298937,0.029724966493110766,0.03996357866428007,-0.0019667028370295627,-0.02644213317209626
0.0,76.0,76.0,0.0,120.0,0.0,0.0,0.0,0.0,-107.0,0.0,-45.0,0.0,0.0,0.0,34.27253218749016,17.55503396713325,2.4015089531646745,0.5407960917231797,0.20997357010558115,0.15637559615703908,0.024811035342458446,0.054152400722019225,0.004485902301421872,-0.08542820477972624,0.014711140943335862,0.03422753279692208,-0.03148758093998116,-0.02194746257011584,0.030688987347187356,0.014815805166709753,0.04351180581474997,4.476573810139408,1.6986359095908192,1.000657727142208,0.6061136335901047,0.32816249647325296,0.21459306057676272,0.10151390517413954,0.10112867494162427,0.05545373543251839,0.036602372146177,0.02287647786815489,0.014120709151904845,0.03579264418827796,0.0348239848496793,-0.03775121965670834
0.0,77.0,77.0,0.0,120.0,0.0,0.0,0.0,0.0,-107.0,0.0,-45.0,0.0,0.0,0.0,34.27253218749016,17.55503396713325,2.1413341466637568,0.4294025331277851,0.23794632417650144,0.10128137792231565,0.00830009787145123,-0.006789198637688898,0.03196739813891736,0.08385312639891965,-0.01727950780162487,0.023781993696260738,0.04937815717938859,0.0240071542636965,0.07699842328141686,-0.023495324072492815,-0.04172314461113369,4.168850031395826,1.6186711343297429,0.9542073427799983,0.5839766819446461,0.31285364449685377,0.1594137962122307,0.10181370042952045,0.09070628455510282,0.05252785969158663,0.020777577341991885,0.0534917279520505,0.009297519673000786,0.030090528230978693,-0.016206376141698946,0.024488662773447818
0.0,78.0,78.0,0.0,120.0,0.0,0.0,0.0,0.0,-107.0,0.0,-45.0,0.0,0.0,0.0,34.27253218749016,17.55503396713325,1.9427119236831514,0.5223111203862292,0.2113895550124418,0.13312258923240772,0.08063558118740469,0.06316288178870494,0.03744468777068224,-0.053312575373299184,-0.018680183482405,0.03335787541707492,0.0425803110263226,-0.025058546781720807,0.03400701491128599,0.023851361521915422,0.054937628486572555,3.8938181878199467,1.527168132705495,0.8795546635698309,0.5427258248494016,0.29137348179608724,0.1996514467110262,0.0799530900416515,0.09480396945566757,0.0628446843347059,0.04384439625554549,0.012583271111245267,0.009303067062752173,-0.0009692483061622403,0.01002832717004952,0.04211009101577298
