Line_number,Fiducial,Easting,Northing,Height,Elevation,tx_pitch,tx_roll,tx_yaw,txrx_dx,txrx_dy,txrx_dz,rx_pitch,rx_roll,rx_yaw,PX,PZ,S0X_time_1.086e-05,S0X_time_3.256e-05,S0X_time_5.426e-05,S0X_time_8.680e-05,S0X_time_1.411e-04,S0X_time_2.279e-04,S0X_time_3.689e-04,S0X_time_5.860e-04,S0X_time_9.115e-04,S0X_time_1.411e-03,S0X_time_2.192e-03,S0X_time_3.418e-03,S0X_time_5.339e-03,S0X_time_8.301e-03,S0X_time_1.338e-02,S0Z_time_1.086e-05,S0Z_time_3.256e-05,S0Z_time_5.426e-05,S0Z_time_8.680e-05,S0Z_time_1.411e-04,S0Z_time_2.279e-04,S0Z_time_3.689e-04,S0Z_time_5.860e-04,S0Z_time_9.115e-04,S0Z_time_1.411e-03,S0Z_time_2.192e-03,S0Z_time_3.418e-03,S0Z_time_5.339e-03,S0Z_time_8.301e-03,S0Z_time_1.338e-02
0.0,0.0,0.0,0.0,120.0,0.0,0.0,0.0,0.0,-107.0,0.0,-45.0,0.0,0.0,0.0,34.27253218749016,17.55503396713325,4.5537949340093995,2.66119604861026,2.177780255413544,1.794203648245261,1.391149358713806,0.9995836750847159,0.6529129515672044,0.39306859633400015,0.22325497812689613,0.11908229028870837,0.059590439173382595,0.02821390944513315,0.012747824830358172,0.00554255486038821,0.00207791808023845,6.925324744975024,4.906824266144437,4.269777158494445,3.739128874145843,3.1468109265454727,2.511667371720757,1.871409713404852,1.3106267376209917,0.8750677694596092,0.5542566636152122,0.3323472719484228,0.18963187108410032,0.10360975099984412,0.05473247254027142,0.026486841638445897
0.0,1.0,1.0,0.0,120.0,0.0,0.0,0.0,0.0,-107.0,0.0,-45.0,0.0,0.0,0.0,34.27253218749016,17.55503396713325,4.558316278122539,2.6803556355664573,2.2030113449625257,1.8309939908345725,1.4429860654048192,1.0579961125387976,0.70492787317439,0.4306713770734068,0.24633812300228733,0.13134609397744215,0.06531218111560796,0.030615273129844307,0.013677186281407024,0.005881749898610233,0.002183935322940686,6.928842520174626,4.92786562858854,4.300453041001444,3.787211810554201,3.2218700754591323,2.6078971302534564,1.9713167670574823,1.396396922598115,0.9382441851172187,0.5949730638783802,0.3556189838262081,0.20165850333171934,0.10934617547135882,0.05731243221733468,0.02751770769443716
0.0,2.0,2.0,0.0,120.0,0.0,0.0,0.0,0.0,-107.0,0.0,-45.0,0.0,0.0,0.0,34.27253218749016,17.55503396713325,4.563140195059301,2.699715451361584,2.2251966996483885,1.8581404564615995,1.480934257936238,1.104317389065363,0.7498006560630048,0.46551663698001194,0.2689553821216985,0.1438647870758386,0.07130982148008835,0.033166414546661374,0.014668058553064347,0.006242551403059226,0.0022965479138826114,6.932609963769468,4.949155522975838,4.327787027495223,3.8229568530204965,3.276257065869382,2.6827172980461107,2.055293440739915,1.4734703301807424,0.9981119533066817,0.6351538211697298,0.37924211762195564,0.21407337894805714,0.1153136004175603,0.06000083062991727,0.028590712869849527
0.0,3.0,3.0,0.0,120.0,0.0,0.0,0.0,0.0,-107.0,0.0,-45.0,0.0,0.0,0.0,34.27253218749016,17.55503396713325,4.568285249725491,2.7195812419806593,2.2467369268572934,1.8806569167176874,1.5096328067725386,1.1408932341370432,0.7879657628090522,0.49722206019986814,0.2906941099038705,0.1564217451512224,0.07750932344661497,0.035849930136232736,0.015717756754789234,0.006624832236930815,0.0024158243330909927,6.9366437235765925,4.970983496006968,4.354443332040708,3.852929633142936,3.3172939259261365,2.740981320821206,2.12527288704537,1.5418478712405923,1.0540329207552677,0.6742630475116467,0.402946930112603,0.22677925368481336,0.1214849323979779,0.06279162683496557,0.029704882189557632
0.0,4.0,4.0,0.0,120.0,0.0,0.0,0.0,0.0,-107.0,0.0,-45.0,0.0,0.0,0.0,34.27253218749016,17.55503396713325,4.573770587733137,2.7400053989142625,2.2684122651613166,1.901260320464586,1.5325798939062776,1.1699358912132318,0.8201340020008113,0.5256808426465173,0.31126946585688836,0.16882953515252314,0.08383599540231573,0.038645641605269045,0.016822531166111043,0.00702820438791336,0.002541787124521269,6.940961102797991,4.993397764198224,4.3812530611746885,3.8805551550075403,3.3502265975904635,2.786838347887666,2.1833131513085156,1.601950920937662,1.1056808131476785,0.7118915979781193,0.42648971277448855,0.2396776618612214,0.1278301938940985,0.06567755844600087,0.030858904971104932
0.0,5.0,5.0,0.0,120.0,0.0,0.0,0.0,0.0,-107.0,0.0,-45.0,0.0,0.0,0.0,34.27253218749016,17.55503396713325,4.579616281175701,2.761002355197275,2.290436089567655,1.9212641834270516,1.5522181656265086,1.193398344066772,0.8471268423514259,0.5509677258553841,0.3305056111521655,0.18093503943795686,0.09021862882030128,0.041531721516472955,0.017977729010852116,0.0074520261423817935,0.002674409370468216,6.9455803056358185,5.0164116075023415,4.408433273147433,3.9074369865062466,3.3785794874027517,2.82372529798455,2.2314057724483956,1.654428088368164,1.1529599223725693,0.7477477460780118,0.44965972164205115,0.25267289791843,0.13431760159665915,0.0686503242182292,0.03205115332481295
0.0,6.0,6.0,0.0,120.0,0.0,0.0,0.0,0.0,-107.0,0.0,-45.0,0.0,0.0,0.0,34.27253218749016,17.55503396713325,4.585843394231862,2.7825822264505695,2.312858973115098,1.9412389544420738,1.5701219216974074,1.2129114555418334,0.8697866824756311,0.5732704161920322,0.3483131555554984,0.19261959272563658,0.09659228444754255,0.04448572666536186,0.019177983990837845,0.00789541804600622,0.0028136136834950036,6.95052052484469,5.040034210912415,4.436031871375242,3.934251387330292,3.404555170795523,2.8543845919434934,2.2713954065886655,1.7000355041488648,1.1959359548284179,0.7816408232598876,0.47228166016222817,0.26567500367305036,0.14091458053340886,0.07170078937833001,0.0332797100425317
0.0,7.0,7.0,0.0,120.0,0.0,0.0,0.0,0.0,-107.0,0.0,-45.0,0.0,0.0,0.0,34.27253218749016,17.55503396713325,4.592474002718459,2.8047544140580194,2.3356938284239686,1.9614090532904296,1.5872309886124785,1.2297630593934266,0.8889239453704287,0.5928432582957817,0.3646680399877648,0.2037962470526407,0.10289988393337632,0.04748546790637578,0.020417415355101217,0.00835728619145573,0.002959273023868356,6.955801942303154,5.064273893672285,4.464059297375186,3.961256491029759,3.42943501266822,2.8809083089568275,2.304941153432052,1.7395669258724218,1.2347825952206466,0.8134629775597563,0.49421509055072127,0.2786017884649104,0.14758865896022114,0.07481920020808107,0.03454240119359992
0.0,8.0,8.0,0.0,120.0,0.0,0.0,0.0,0.0,-107.0,0.0,-45.0,0.0,0.0,0.0,34.27253218749016,17.55503396713325,4.599531218425603,2.8275279897591354,2.358946953991147,1.9818556946763723,1.6040680974911807,1.2449155842675448,0.9052820306226179,0.6099766926123263,0.37959391689095084,0.21440569444264118,0.10909286809571771,0.05050968897248103,0.021689821586269826,0.008836350954556416,0.0031112128537602586,6.961445728904199,5.089138513961713,4.492519646104541,3.988542351518763,3.4539156636792834,2.9048176232909326,2.333493224520848,1.7738134269787404,1.2697426520423247,0.8431718568081621,0.5153519638977921,0.2913800096706348,0.15430821478536963,0.07799539612466466,0.035836831990651935
0.0,9.0,9.0,0.0,120.0,0.0,0.0,0.0,0.0,-107.0,0.0,-45.0,0.0,0.0,0.0,34.27253218749016,17.55503396713325,4.607039216347569,2.8509118496760597,2.382623859243768,2.0026073534526434,1.6209057685872428,1.2590517211979673,0.9195143744639505,0.6249764013138669,0.39314840740394164,0.2244118180557733,0.11513119337885966,0.053538556469477395,0.022988858119560116,0.009331179153055523,0.0032692142634026776,6.96747405207681,5.114635626376831,4.521416175058386,4.016138880076786,3.478352672531115,2.927167474080183,2.3582807168535043,1.803538501209407,1.3011009657295476,0.870775491925908,0.5356131701945456,0.3039458802229066,0.16104306500650803,0.0812190099787913,0.03716042449654696
0.0,10.0,10.0,0.0,120.0,0.0,0.0,0.0,0.0,-107.0,0.0,-45.0,0.0,0.0,0.0,34.27253218749016,17.55503396713325,4.6150232596296075,2.874914769704577,2.4067299859240623,2.023675402348087,1.6378780752966073,1.2726329364006268,0.9321726988745417,0.638148037272958,0.4054127526679696,0.233797433007599,0.12098289965698217,0.0565539809124999,0.024308192635602903,0.009840217672971462,0.003433017807704353,6.973910079151711,5.1407725067725405,4.550751960888357,4.044057075114396,3.5029172806735493,2.9486573724811165,2.380312123343882,1.8294606819033326,1.3291658752791033,0.8963197860378449,0.5549447256842008,0.31624507217651504,0.1677649039763439,0.08447964995562793,0.038510455777418934
0.0,11.0,11.0,0.0,120.0,0.0,0.0,0.0,0.0,-107.0,0.0,-45.0,0.0,0.0,0.0,34.27253218749016,17.55503396713325,4.62350972117747,2.8995454040097965,2.4312707919160137,2.04506647945573,1.655047972329442,1.2859576878230732,0.943705545543026,0.6497855009581823,0.4164840407481518,0.2425605032275213,0.12662342864905554,0.059539797255056065,0.025641634811310956,0.010361826865919316,0.003602327858593619,6.980777976376648,5.167556117312685,4.58053001198566,4.072302868081198,3.5276880687029437,2.969732154602513,2.400388539676439,1.8522405039298526,1.3542563452152157,0.9198785473671981,0.5733139863643297,0.32823236784945353,0.17444760495887626,0.08776705901127277,0.039884095440633115
0.0,12.0,12.0,0.0,120.0,0.0,0.0,0.0,0.0,-107.0,0.0,-45.0,0.0,0.0,0.0,34.27253218749016,17.55503396713325,4.63252610216599,2.924812272096067,2.4562518229408914,2.0667861992177934,1.6724444215901415,1.2992114011438176,0.9544649503400153,0.6601620809857809,0.42646921035907365,0.2507109369672379,0.1320348221821059,0.06248183525824883,0.026983239938691724,0.010894312393406208,0.0037768173097998655,6.988102904463059,5.194993065882139,4.610753362077795,4.100881117389856,3.552700233083657,2.990663979740146,2.419126699281429,1.8724711988778715,1.3766925545473583,0.941545754198956,0.5907061141838221,0.33987108332443644,0.18106740388613277,0.09107124997848781,0.04127844169168736
0.0,13.0,13.0,0.0,120.0,0.0,0.0,0.0,0.0,-107.0,0.0,-45.0,0.0,0.0,0.0,34.27253218749016,17.55503396713325,4.6421010476212965,2.9507237519427285,2.481678770907239,2.088840075550346,1.6900813033538722,1.3125051997282489,0.9647183637787532,0.6695243275076352,0.4354802393194562,0.2582679447912863,0.1372048896375361,0.06536790772823604,0.0283273876405528,0.011435954583470622,0.003956132482354504,6.995911011168952,5.223089575945171,4.641425128464712,4.129796550526658,3.5779701151169876,3.0116136157659112,2.436987540414998,1.890673324455442,1.3967885584157198,0.9614296237249308,0.6071209146172878,0.3511323604877838,0.1876029857985732,0.0943826161779545,0.042690555217135245
0.0,14.0,14.0,0.0,120.0,0.0,0.0,0.0,0.0,-107.0,0.0,-45.0,0.0,0.0,0.0,34.27253218749016,17.55503396713325,4.652264358852664,2.9772880801211223,2.507557503437313,2.111233699346709,1.7079663419942344,1.325903666026675,0.974662986144147,0.6780885636476248,0.44363017030542423,0.265257878688643,0.14212640320755746,0.06818774041617078,0.02966883810223513,0.011985034704499487,0.004139898087947755,7.004229420825069,5.2518514655004305,4.6725485301437155,4.159053931646908,3.6035065147128877,3.0326731975713277,2.45430614325904,1.9072933807265775,1.4148463203724992,0.9796480384361004,0.6225700928811617,0.3619943980611502,0.19403549405706932,0.09769201855551667,0.04411749037505137
0.0,15.0,15.0,0.0,120.0,0.0,0.0,0.0,0.0,-107.0,0.0,-45.0,0.0,0.0,0.0,34.27253218749016,17.55503396713325,4.663047002298143,3.0045133561953152,2.533894074744059,2.1339727676446563,1.726104999485861,1.3394435146248687,0.9844402848944172,0.6860397704637561,0.45102981815420007,0.271712449268357,0.14679635565914573,0.07093286284229647,0.03100276886763876,0.012539857831133072,0.004327722125062263,7.013086220493625,5.281284131517516,4.704126885548366,4.188658087067125,3.6293155024954613,3.053894371620342,2.4713199027175237,1.922706022534162,1.4311508677368043,0.9963249367006198,0.6370749275973888,0.3724416713593992,0.20034848070882685,0.10099085111791792,0.045556323352929445
0.0,16.0,16.0,0.0,120.0,0.0,0.0,0.0,0.0,-107.0,0.0,-45.0,0.0,0.0,0.0,34.27253218749016,17.55503396713325,4.6744811143628935,3.0324075497538714,2.5606947303716416,2.1570630977950396,1.744502030917956,1.3531454844287438,0.9941492379176434,0.6935324077788565,0.4577851126978322,0.2776672261920349,0.15121529676538895,0.07359647524392064,0.03232479542281821,0.013098772187473904,0.004519200607628807,7.022510442449159,5.311392538238015,4.736163606317361,4.21861391749901,3.6554022841976628,3.0753058917835316,2.488193064648656,1.9372191088154296,1.4459665458481328,1.0115873664795514,0.6506643283643356,0.38246417480408257,0.20652781393935293,0.1042710868797546,0.04700417711676157
0.0,17.0,17.0,0.0,120.0,0.0,0.0,0.0,0.0,-107.0,0.0,-45.0,0.0,0.0,0.0,34.27253218749016,17.55503396713325,4.686600001833742,3.0609785097174287,2.5879659121648975,2.1805106415685866,1.7631620433660753,1.367021549084385,1.0038575549317865,0.7006926420012263,0.4639950698572019,0.2831603502798322,0.15538675104394606,0.07617330341405967,0.03363097865391864,0.01366018501789984,0.00471392205031568,7.032532042597712,5.342181209324667,4.768662193912384,4.248926407344087,3.6817718427552917,3.0969241102685072,2.5050368517964667,1.9510806605730306,1.4595344024004233,1.0255630020131263,0.6633732246760997,0.39205670949495297,0.2125615558371008,0.10752530676070082,0.04845824310682517
0.0,18.0,18.0,0.0,120.0,0.0,0.0,0.0,0.0,-107.0,0.0,-45.0,0.0,0.0,0.0,34.27253218749016,17.55503396713325,4.699438137395278,3.090233976150209,2.6157142649824516,2.204321495825642,1.782089670639667,1.3810790914290587,1.0136106606328168,0.7076214522055415,0.46975037768022354,0.2882314120487962,0.15931671076074125,0.07865945028813967,0.034917821960713566,0.014222575164078384,0.004911471654180861,7.043181874334662,5.373654224403827,4.801626239899008,4.279600627276358,3.7084291254311905,3.118758953495608,2.5219251862198027,1.9644868172642576,1.4720706959078385,1.0383780105687417,0.6752412261801843,0.4012182292147185,0.21843982110147875,0.11074671394558033,0.04991579973070243
0.0,19.0,19.0,0.0,120.0,0.0,0.0,0.0,0.0,-107.0,0.0,-45.0,0.0,0.0,0.0,34.27253218749016,17.55503396713325,4.713031149729348,3.1201815948955924,2.6439466446488016,2.2285019084757085,1.8012896184194962,1.3953232132077678,1.0234385606715304,0.71439815246732,0.47513255841561425,0.29292047338440164,0.16301319378266982,0.08105225062448224,0.036182260441882774,0.014784502620134926,0.005111435151168078,7.054491657279583,5.405815220536466,4.835059428655978,4.310641730326934,3.7353790849070543,3.1408171736963943,2.538906474841101,1.9775900218148776,1.483766453171915,1.0501552191170287,0.6863114960657763,0.40995125128122245,0.22415462504529454,0.11392913617375094,0.051374227768300494
0.0,20.0,20.0,0.0,120.0,0.0,0.0,0.0,0.0,-107.0,0.0,-45.0,0.0,0.0,0.0,34.27253218749016,17.55503396713325,4.727415807672744,3.1508289352653898,2.672670126315742,2.253058280997242,1.820766673848414,1.409757955032719,1.0333608868065434,0.7210839695128239,0.4802136402196026,0.2972672236049727,0.16648585484572398,0.08335013295755082,0.03742164420852495,0.01534461539663561,0.005313402277309976,7.066493940304236,5.438667398972395,4.8689655412246875,4.342054944263804,3.762626683685346,3.1631040350642015,2.5560121304358647,1.9905068598623228,1.4947879366827719,1.0610125677562214,0.6966297874325511,0.4182613332465322,0.22969972734605784,0.11706701828263548,0.052831022846721004
0.0,21.0,21.0,0.0,120.0,0.0,0.0,0.0,0.0,-107.0,0.0,-45.0,0.0,0.0,0.0,34.27253218749016,17.55503396713325,4.74262999790623,3.18218351089606,2.7018920126664905,2.2779971693077066,1.8405257088321747,1.4243869094287263,1.0433904777892729,0.7277254233367796,0.4850562521067331,0.30131026842499026,0.16974563999253878,0.08555249119211458,0.03863371755511151,0.015901654050226345,0.005516969854443252,7.079222058242028,5.472213537363163,4.903348459503195,4.373845562985538,3.79017689345294,3.185624142927849,2.5732625350753273,2.0033251785991038,1.5052778412770764,1.071061852282386,0.7062436036781501,0.42615661242079617,0.23507047645909165,0.12015540711692813,0.05428380517366766
0.0,22.0,22.0,0.0,120.0,0.0,0.0,0.0,0.0,-107.0,0.0,-45.0,0.0,0.0,0.0,34.27253218749016,17.55503396713325,4.75871269563749,3.2142528037886184,2.7316198417009305,2.3033252842715646,1.8605716835229327,1.4392135121121858,1.053535842267388,0.7343573570153613,0.4897140464305095,0.30508655191098294,0.17280447623523543,0.08765956678220466,0.03981659542594138,0.01645445423483038,0.005721744470052359,7.092710081631491,5.506456007471946,4.938212170412776,4.406018938583742,3.818034695256537,3.2083818270704714,2.590671089845035,2.0161102845863383,1.515357023568686,1.0804077591824939,0.7152014556137001,0.43364740250357536,0.24026365835114227,0.12318993065789326,0.05573032674228457
0.0,23.0,23.0,0.0,120.0,0.0,0.0,0.0,0.0,-107.0,0.0,-45.0,0.0,0.0,0.0,34.27253218749016,17.55503396713325,4.775703927733199,3.247044291474968,2.761861394031919,2.3290494924929073,1.8809096501283502,1.4542411715419892,1.0638028037821312,0.741005541639637,0.4942323538722299,0.30863090955731814,0.175674991062725,0.08967234141316079,0.04096873835417071,0.01700194760971692,0.0059273447550413656,7.106992758823984,5.541396798316233,4.973560769893501,4.438580474746736,3.8462050799827274,3.231381305888669,2.608246887428437,2.0289101549062876,1.5251265738112127,1.0891471890168671,0.7235521983368861,0.4407458401347887,0.2452773521760665,0.1261667729533218,0.0571684762399046
0.0,24.0,24.0,0.0,120.0,0.0,0.0,0.0,0.0,-107.0,0.0,-45.0,0.0,0.0,0.0,34.27253218749016,17.55503396713325,4.793644727765677,3.2805654771915447,2.7926246997075816,2.3551768175976293,1.9015447563113024,1.4694733220428329,1.0741955690392337,0.7476888406617007,0.49864898419532033,0.31197574698160596,0.1783702586829039,0.0915924394557794,0.04208892681339806,0.017543161407448625,0.006133403269369401,7.122105449789076,5.577037544591437,5.009398466666798,4.471535621587399,3.874693048238095,3.254626749900782,2.625996427395397,2.04175969024373,1.5346700612758906,1.0973688537876671,0.7313444388879025,0.4474655737525752,0.25011079464278024,0.1290826461617809,0.05859628190752353
0.0,25.0,25.0,0.0,120.0,0.0,0.0,0.0,0.0,-107.0,0.0,-45.0,0.0,0.0,0.0,34.27253218749016,17.55503396713325,4.812577082470406,3.3148239228825545,2.823918044598641,2.3817144419926377,1.922482247853208,1.4849134434869562,1.0847174027466189,0.7544209564945709,0.5029950989958359,0.3151508348526395,0.18090357159179823,0.09342203913382567,0.04317623570545166,0.018077216927501267,0.006339568014749126,7.138084050976695,5.613379560136374,5.04572958571205,4.504889871727165,3.9035036094431885,3.2781223029627475,2.643924686865186,2.054684096643593,1.5440558141324172,1.105153123892695,0.7386260111206672,0.4538214875221927,0.2547642540905224,0.13193476078084843,0.06001191260446972
0.0,26.0,26.0,0.0,120.0,0.0,0.0,0.0,0.0,-107.0,0.0,-45.0,0.0,0.0,0.0,34.27253218749016,17.55503396713325,4.832543869157802,3.3498272847946198,2.8557499763892626,2.4086697090197933,1.9437274706619412,1.5005650678190265,1.0953710421894254,0.7612118044249779,0.5072960977335101,0.3181832073923498,0.18328823712390965,0.09516379126582634,0.04423000951309745,0.018603327184159957,0.0065455036011233024,7.154964910637536,5.650423876108218,5.082558571391711,4.538648757415023,3.932641780447859,3.301872087915649,2.6620357700105237,2.067701512313988,1.5533391275774333,1.1125720925431695,0.7454435172562902,0.45982945401051667,0.2592389146758202,0.13472079491683386,0.06141367733262762
0.0,27.0,27.0,0.0,120.0,0.0,0.0,0.0,0.0,-107.0,0.0,-45.0,0.0,0.0,0.0,34.27253218749016,17.55503396713325,4.853588783027263,3.385583351096271,2.888129310394345,2.436050126166029,1.965285873171984,1.5164317806588468,1.1061589448120968,0.7680685688036002,0.511572473469335,0.32109714955959356,0.18553739912468792,0.09682074452962519,0.04524983847547191,0.019120793903008585,0.0067508921020219635,7.172784743119652,5.6881713076851375,5.119890024292577,4.57281788243021,3.9621125847417322,3.325880183208556,2.680333302869492,2.0808250006051296,1.562564326696251,1.1196898206025396,0.7518419367538639,0.4655061104669872,0.2635367705856721,0.13743886327584576,0.06280002372076977
0.0,28.0,28.0,0.0,120.0,0.0,0.0,0.0,0.0,-107.0,0.0,-45.0,0.0,0.0,0.0,34.27253218749016,17.55503396713325,4.875756253995328,3.4221000809456643,2.921065134938395,2.4638633689746725,1.9871630093860058,1.5325172215699456,1.117083431613572,0.7749964981354642,0.5158406085269184,0.3239142569590645,0.18766388491977407,0.09839627638235207,0.046235535999893,0.01962900403015997,0.006955433631537543,7.1915805397503245,5.72662254407399,5.157728765303518,4.607402982440026,3.9919210527617177,3.3501505789106973,2.698820673899955,2.0940640309828127,1.5717666370668768,1.1265627233907558,0.7578643028891584,0.4708686548348374,0.2676605298225071,0.1400874864077217,0.06416953565373981
0.0,29.0,29.0,0.0,120.0,0.0,0.0,0.0,0.0,-107.0,0.0,-45.0,0.0,0.0,0.0,34.27253218749016,17.55503396713325,4.8990913593829974,3.4593856537066805,2.9545668175563495,2.4921172725786116,2.009364532755748,1.5488250910666959,1.1281467656972224,0.7819994927691326,0.5201134917553714,0.3266535525963358,0.18968007746642496,0.09989402899451898,0.04718711740741968,0.020127425892239738,0.007158846639946262,7.211389354525624,5.765777936501749,5.19607945636626,4.642409545193669,4.022072215032764,3.3746874501529094,2.717501016219998,2.107425615814152,1.5809738233218862,1.1332400649703884,0.7635514459696519,0.4759346588374708,0.27161352685953727,0.14266556060184443,0.0655209267828314
0.0,30.0,30.0,0.0,120.0,0.0,0.0,0.0,0.0,-107.0,0.0,-45.0,0.0,0.0,0.0,34.27253218749016,17.55503396713325,4.92363971896599,3.4974484992399346,2.9886440074962484,2.5208198504444543,2.0318962054812664,1.5653591453705107,1.1393511974337804,0.789080529514088,0.5244013496984814,0.3293316450810491,0.19159781222021557,0.10131784975572199,0.04810478002548227,0.020615605123394762,0.007360868076440855,7.232248289189888,5.805637845350485,5.234947041532374,4.677843248459222,4.052571108039029,3.399494845600078,2.736377429862517,2.120915038060088,1.5902076324746606,1.1397645167937227,0.7689418023504818,0.48072189630974876,0.2753996432879924,0.14517232877670846,0.06685303940806231
0.0,31.0,31.0,0.0,120.0,0.0,0.0,0.0,0.0,-107.0,0.0,-45.0,0.0,0.0,0.0,34.27253218749016,17.55503396713325,4.949447387462714,3.53629734156871,3.023306637940195,2.5499792949598277,2.0547638966772825,1.5821232006163124,1.150698986041336,0.7962419647744998,0.528712189140911,0.33196291488845425,0.1934282976316283,0.10267173612203319,0.048988884576483274,0.021093160455308506,0.007561253322080728,7.254194313730344,5.846202584410404,5.274336594766164,4.71370980794983,4.083422772192842,3.424576799422812,2.7554529584942733,2.134536423102123,1.5994850008989,1.146172759402314,0.774071284434238,0.485248185977719,0.2790232355624767,0.14760735255497653,0.06816483850123059
0.0,32.0,32.0,0.0,120.0,0.0,0.0,0.0,0.0,-107.0,0.0,-45.0,0.0,0.0,0.0,34.27253218749016,17.55503396713325,4.976560727442782,3.575941249774643,3.058564935937382,2.5796039749874335,2.0779735868749185,1.5991211338295834,1.162192410705501,0.8034857463973241,0.5330522550378187,0.3345597166667797,0.19518205782062342,0.10395978469447634,0.0498399377779963,0.021559779449862308,0.00775977598658749,7.27726412090807,5.887472488024288,5.314253315950313,4.750014973770957,4.114632254869839,3.4499373330505225,2.7747306053415195,2.1482931222876243,1.6088190655677126,1.1524960964169348,0.7789732075750226,0.48953124821811667,0.2824890689301393,0.14997048569787746,0.06945540653887419
0.0,33.0,33.0,0.0,120.0,0.0,0.0,0.0,0.0,-107.0,0.0,-45.0,0.0,0.0,0.0,34.27253218749016,17.55503396713325,5.005026281300372,3.61638967613103,3.094429424591645,2.6097024423946635,2.101531369186393,1.6163568847059402,1.1738337757967774,0.8108135593047832,0.5374264103816606,0.3371325877612752,0.1968688955425713,0.10518614451990901,0.05065857605147951,0.02201521423850372,0.007956227590428406,7.301493965295013,5.929447958482952,5.3547025323548825,4.786764533679575,4.146204611044109,3.4755804573292126,2.7942133410766323,2.162187974583376,1.618219994644759,1.1587610610221313,0.7836782679460377,0.49358857574380804,0.2858022567120254,0.15226184898946335,0.07072393807598805
0.0,34.0,34.0,0.0,120.0,0.0,0.0,0.0,0.0,-107.0,0.0,-45.0,0.0,0.0,0.0,34.27253218749016,17.55503396713325,5.034890632487024,3.6576524968654107,3.1309109275556506,2.640283436056646,2.125443451752269,1.6338344570917207,1.1856254133368525,0.8182269238764663,0.541838446435843,0.3396904551045191,0.198497873273808,0.1063549746529929,0.051445550233952,0.022459277318728516,0.00815041715107729,7.326919494370959,5.972129518509425,5.395689697934055,4.823964314586136,4.178144905227793,3.501510174590344,2.813904107992879,2.1762234820949704,1.6276956599789467,1.1649899990054695,0.7882145648943821,0.4974373182951008,0.2889682042056624,0.1544818066130414,0.07196973419989314
0.0,35.0,35.0,0.0,120.0,0.0,0.0,0.0,0.0,-107.0,0.0,-45.0,0.0,0.0,0.0,34.27253218749016,17.55503396713325,5.0662002594860285,3.6997400510739413,3.1680205736542897,2.6713558860633384,2.149716160347657,1.651557920442048,1.1975696842677521,0.8257272612324822,0.5462913324913924,0.3422408345132046,0.2000773100667767,0.1074704060287001,0.052201711194815655,0.02289183744585455,0.008342170694820284,7.3535755712007065,6.015517861543031,5.4372203923898486,4.861620184364906,4.210458213713659,3.527730480780002,2.8338058227465637,2.190401925810747,1.6372521743806872,1.1712016168648722,0.7926076609661826,0.5010941814269919,0.2919925565996186,0.15663094401850552,0.07319219693862997
0.0,36.0,36.0,0.0,120.0,0.0,0.0,0.0,0.0,-107.0,0.0,-45.0,0.0,0.0,0.0,34.27253218749016,17.55503396713325,5.099001383920201,3.742663177250387,3.2057698017142964,2.702928918128109,2.174355941131449,1.669531411284305,1.2096689792974131,0.8333159357632075,0.550787414264733,0.3447900181347943,0.2016147917533253,0.1085365076768699,0.052927996274123784,0.02331281564751985,0.008531330711774197,7.381496090176707,6.059613898872539,5.479300320115874,4.8997380539305135,4.24314962706423,3.5542453676809442,2.8539213787059086,2.204725440660372,1.646894315516735,1.177411487401672,0.796880672749266,0.5045753393949678,0.2948811504173962,0.15871004724396615,0.07439082369227437
0.0,37.0,37.0,0.0,120.0,0.0,0.0,0.0,0.0,-107.0,0.0,-45.0,0.0,0.0,0.0,34.27253218749016,17.55503396713325,5.133339812734516,3.7864332475520346,3.244170368589671,2.7350118639450733,2.1993693708536592,1.687759135645671,1.22192571517816,0.8409942845956645,0.5553285687322449,0.34734324746684825,0.20311719205752463,0.10955725727899418,0.05362541647533493,0.023722181378529415,0.008717755638873798,7.410713823990195,6.104418894088825,5.521935446276378,4.938324056799523,4.276224407911983,3.581058774018966,2.8742535679719587,2.2191961147010435,1.6566258384640042,1.1836325127457035,0.8010543852520274,0.507896362053738,0.2976399681399159,0.1607200836118377,0.07556520365571281
0.0,38.0,38.0,0.0,120.0,0.0,0.0,0.0,0.0,-107.0,0.0,-45.0,0.0,0.0,0.0,34.27253218749016,17.55503396713325,5.169260783967021,3.8310621963206573,3.2832343471489165,2.7676142518992695,2.2247631423215,1.7062453688012793,1.234342346158041,0.848763629158263,0.5599163266517855,0.34990486945245414,0.20459070250492228,0.11053651598248403,0.054295044365935324,0.0241199488291955,0.008901319074755347,7.44126014464358,6.149934283166299,5.56513166858504,4.977384128879335,4.3096876242385145,3.6081747104552067,2.8948052752321254,2.2338158971113327,1.6664497731987493,1.1898753245337825,0.8051473864511396,0.5110721551790799,0.30027509570440414,0.16266218378622516,0.0767150078882993
0.0,39.0,39.0,0.0,120.0,0.0,0.0,0.0,0.0,-107.0,0.0,-45.0,0.0,0.0,0.0,34.27253218749016,17.55503396713325,5.206808807626383,3.8765625485805586,3.3229741365703607,2.800745819915231,2.250544076754984,1.7249944573054585,1.2469213593584272,0.8566252885700566,0.56455196396828,0.3524784765351692,0.20604086871000277,0.11147800740652478,0.054938002650928554,0.02450617338733873,0.009081909238361155,7.4731648774508415,6.19616182217504,5.6088949885813415,5.01692423307675,4.343544346075653,3.6355971974474466,2.915579380199565,2.2485866811148894,1.6763685964360047,1.1961486514335469,0.8091762118106619,0.514116914124308,0.3027926827946244,0.16453762498372354,0.07783998649523076
0.0,40.0,40.0,0.0,120.0,0.0,0.0,0.0,0.0,-107.0,0.0,-45.0,0.0,0.0,0.0,34.27253218749016,17.55503396713325,5.246027509840837,3.9229474434172182,3.363402470221192,2.8344165242569597,2.276719131819686,1.7440108215189392,1.2596652727212028,0.8645805874637466,0.5692365713195271,0.355067029924705,0.20747263128575616,0.1123853006491492,0.055555453402767824,0.02488094825632463,0.009259428369897758,7.506456135698698,6.243103673921459,5.653231600980053,5.056950478385233,4.37779975051222,3.6633302344889023,2.9365787074895273,2.263510349472217,1.6863843664184164,1.2024596379702672,0.81315549651142,0.5170440898734127,0.3051989057838221,0.16634781530417114,0.07893996485192341
0.0,41.0,41.0,0.0,120.0,0.0,0.0,0.0,0.0,-107.0,0.0,-45.0,0.0,0.0,0.0,34.27253218749016,17.55503396713325,5.28695948563136,3.9702306531518374,3.40453242065096,2.8686365418604844,2.303295401113264,1.7632989569639979,1.2725766383209114,0.8726308585732847,0.5739711069313942,0.35767296663201104,0.20889036970718827,0.11326179707662437,0.056148587941646705,0.02524440122587539,0.009433792048290394,7.541160119286936,6.290762380694548,5.698147821598992,5.097469030002314,4.412459043754693,3.6913778297738977,2.95780607135732,2.278588755214536,1.6964988417771687,1.208814115092528,0.8170981314756447,0.5198663666182989,0.3074999332851218,0.16809427908936156,0.0800148377704839
0.0,42.0,42.0,0.0,120.0,0.0,0.0,0.0,0.0,-107.0,0.0,-45.0,0.0,0.0,0.0,34.27253218749016,17.55503396713325,5.329646160615561,4.018426599421713,3.446377406619467,2.903416275963647,2.3302801175930092,1.782863436148904,1.285658043367703,0.8807774450038579,0.5787564355306207,0.36029829168534033,0.21029794760300582,0.11411072065088072,0.056718617366477056,0.025596691588998677,0.00960492854943532,7.577300942996087,6.339140878616249,5.743650087382272,5.138486112275625,4.44752746434809,3.71974400305307,2.9792642784327086,2.2938237266978967,1.7067135625258674,1.2152168333041626,0.8210154184830131,0.5225956500070288,0.3097018943231982,0.1697786431855623,0.08106456487762967
0.0,43.0,43.0,0.0,120.0,0.0,0.0,0.0,0.0,-107.0,0.0,-45.0,0.0,0.0,0.0,34.27253218749016,17.55503396713325,5.374127666117867,4.06755036605965,3.4889512005213956,2.938766361955117,2.3576806570987285,1.8027089104580096,1.298912111222758,0.8890217016334141,0.5835933568965114,0.36294465669453285,0.21169875828205945,0.11493511150316159,0.05726676374268142,0.025938007198563935,0.009772778212731613,7.614900479487895,6.388242505925624,5.789744956703957,5.18000801170021,4.483010286430941,3.7484327885295823,3.0009561304203327,2.3092170712536793,1.7170299094332555,1.2216716600732827,0.8249172217983658,0.5252430649885422,0.31181084913483204,0.1714026240289668,0.08208916620878516
0.0,44.0,44.0,0.0,120.0,0.0,0.0,0.0,0.0,-107.0,0.0,-45.0,0.0,0.0,0.0,34.27253218749016,17.55503396713325,5.420442731430071,4.117617709215446,3.5322679361934424,2.9746976734479453,2.3855045419676273,1.8228401121024067,1.3123415024200795,0.8973649960420241,0.5884826265942774,0.36561342615526216,0.2130957695095178,0.11573782244225433,0.057794251954565105,0.026268561656448756,0.009937292819336464,7.653978221373811,6.438071005629319,5.836439109923272,5.222041079946468,4.51891282300698,3.7774482377718925,3.022884426750398,2.3247705780832657,1.727449147179803,1.228181745552648,0.8288121140268466,0.5278189621579685,0.31383276261673926,0.17296801547489232,0.0830887180193244
0.0,45.0,45.0,0.0,120.0,0.0,0.0,0.0,0.0,-107.0,0.0,-45.0,0.0,0.0,0.0,34.27253218749016,17.55503396713325,5.468628597510284,4.16864507221926,3.5763421324575195,3.011221343401629,2.4137594488133587,1.8432618580833275,1.3259489064028844,0.9058087117080947,0.5934249710397512,0.3683057328269969,0.2144915667155929,0.11652151810159482,0.05830230222015493,0.02658859163081449,0.010098435084039594,7.694551198008052,6.488630606976397,5.883739475639103,5.264591901188555,4.555240640688677,3.8067945792733515,3.0450518547974705,2.3404859737887262,1.7379725003386346,1.234749645269739,0.8327075174406385,0.5303329312046615,0.31577348038426983,0.17447667737408756,0.08406335212143665
0.0,46.0,46.0,0.0,120.0,0.0,0.0,0.0,0.0,-107.0,0.0,-45.0,0.0,0.0,0.0,34.27253218749016,17.55503396713325,5.518720885584168,4.2206495581936005,3.6211887145258785,3.0483487705709953,2.442453166821026,1.86397905970698,1.3397370641350967,0.9143542421087012,0.5984210978229003,0.3710225239174844,0.21588839428170453,0.11728867625568927,0.05879212331670136,0.02689835428448174,0.010256177713550406,7.736633817271663,6.539925871217631,5.931652969479328,5.307666830001245,4.591999022360218,3.8364758185514383,3.0674612827481584,2.3563650446334448,1.7486010606613953,1.2413774734171708,0.8366098260979018,0.5327938216358326,0.3176387076664785,0.17593052451421912,0.085013243800024
0.0,47.0,47.0,0.0,120.0,0.0,0.0,0.0,0.0,-107.0,0.0,-45.0,0.0,0.0,0.0,34.27253218749016,17.55503396713325,5.5707537553722375,4.273649003805082,3.6668229124273437,3.0860915380208063,2.4715937083009534,1.8849966932044426,1.3537087595411237,0.9230029954791973,0.6034717032423932,0.3737645988988603,0.2172881940677791,0.11804159123135252,0.05926490644004578,0.027198124828175064,0.010410503309282617,7.780237857799631,6.5919616432742005,5.980186534419348,5.351272400913815,4.6291933501797145,3.8664960190796753,3.090115557086216,2.3724095567029497,1.7593358827824623,1.2480669690963435,0.8405245313634429,0.535209767478291,0.3194339906266575,0.17733151644647985,0.08593861365322718
0.0,48.0,48.0,0.0,120.0,0.0,0.0,0.0,0.0,-107.0,0.0,-45.0,0.0,0.0,0.0,34.27253218749016,17.55503396713325,5.624759723629119,4.327661926055224,3.7132603922789253,3.124461533195809,2.501189221420418,1.9063198340122347,1.3678668123643127,0.9317563962866728,0.6085774776572235,0.3765326403706819,0.21869264129378754,0.11878237889091235,0.05972181975591581,0.027488194179916634,0.010561403522112241,7.825372447277087,6.644743224774485,6.029347343078538,5.395415255405633,4.666829128899651,3.8968593305093915,3.113017493042974,2.3886212499566253,1.77017800206222,1.2548195703522946,0.8444563327536706,0.5375882166098405,0.3211647003668261,0.17868164773491862,0.08683972512380565
0.0,49.0,49.0,0.0,120.0,0.0,0.0,0.0,0.0,-107.0,0.0,-45.0,0.0,0.0,0.0,34.27253218749016,17.55503396713325,5.680769747056976,4.382707545619591,3.760517225319164,3.163470914203897,2.531248021304874,1.9279536485090094,1.3822140847815871,0.9406158845882536,0.6137391090777057,0.3793272391809861,0.2201031775029303,0.11951298294231144,0.06016400361801611,0.027768866730513875,0.010708878575041488,7.872044072734349,6.6982762767414545,6.079142694056009,5.440102116030029,4.704911918342424,3.9275699340406867,3.1361699158090737,2.4050018574989083,1.7811284267280774,1.261636481253124,0.8484092374023455,0.5399359634477031,0.3228360194943092,0.1799829386861316,0.08771687998272672
0.0,50.0,50.0,0.0,120.0,0.0,0.0,0.0,0.0,-107.0,0.0,-45.0,0.0,0.0,0.0,34.27253218749016,17.55503396713325,5.738813284430333,4.438805793129578,3.808609897813409,3.203132117158466,2.561778594404126,1.9499033961488392,1.3967534824661776,0.9495829165833423,0.6189572856841431,0.38214891462799255,0.22152104055012667,0.12023518231255281,0.06059256643184625,0.028040458214784004,0.010852936738055116,7.920256635522435,6.752566805310794,6.129580013504114,5.485339789792478,4.7434473362385114,3.958632045183758,3.1595756627515703,2.4215531076162344,1.792188143765359,1.2685187214451386,0.8523866508152992,0.5422591838731531,0.3244529311249052,0.18123742660246875,0.08857041529117533
0.0,51.0,51.0,0.0,120.0,0.0,0.0,0.0,0.0,-107.0,0.0,-45.0,0.0,0.0,0.0,34.27253218749016,17.55503396713325,5.798918392322008,4.495977316553708,3.8575553216378013,3.2434578638362583,2.5927896029071023,1.97217443164154,1.4114879556494717,0.9586589651726695,0.6242326975728629,0.3849981306201713,0.22294729166479269,0.12095059931691424,0.06100858114695172,0.028303293686409204,0.010993593817909215,7.970011545148492,6.807621147649161,6.180666857077167,5.531135171543188,4.782441060899798,3.9900499164941126,3.183237585547985,2.438276725743251,1.8033581232449625,1.2754671657532142,0.8563914582016853,0.5445634717008102,0.3260202102346373,0.18244715752280874,0.08940070051538865
0.0,52.0,52.0,0.0,120.0,0.0,0.0,0.0,0.0,-107.0,0.0,-45.0,0.0,0.0,0.0,34.27253218749016,17.55503396713325,5.8611117440679585,4.554243446566608,3.9073708884822755,3.284461291438274,2.624289876637768,1.9947721846985162,1.4264205066576066,0.9678455207890105,0.629566037410441,0.38787530871502257,0.2243828396314655,0.12166070840371392,0.061413082349702684,0.028557705595613183,0.01113087267038725,8.021307900587594,6.8634460686045005,6.23241103001483,5.57749527650367,4.821898734330357,4.021827883138999,3.2071585374959675,2.4551744409856884,1.8146393205329672,1.2824825758247167,0.8604260968296558,0.5468538759927386,0.327542417237046,0.1836141784442114,0.09020813535603893
0.0,53.0,53.0,0.0,120.0,0.0,0.0,0.0,0.0,-107.0,0.0,-45.0,0.0,0.0,0.0,34.27253218749016,17.55503396713325,5.9254191022600295,4.613626352179644,3.9580743919558805,3.326155631387549,2.656288428697866,2.017702234586209,1.4415541695895693,0.9771440923048383,0.6349580026198551,0.39078083776450867,0.22582846246975363,0.12236684520773376,0.06180706393877103,0.02880403196980907,0.011264802827569143,8.074142555774262,6.9200484607581805,6.284820254127413,5.624427125309622,4.86182624070675,4.053970255318887,3.231341413812694,2.472247975134972,1.8260326818704569,1.2895656244355864,0.8644926201131126,0.549134938590399,0.3290238936448619,0.18474053002562993,0.09099314556227549
0.0,54.0,54.0,0.0,120.0,0.0,0.0,0.0,0.0,-107.0,0.0,-45.0,0.0,0.0,0.0,34.27253218749016,17.55503396713325,5.991865232923674,4.674148909252965,4.00968409483203,3.3685544884920087,2.688794465126315,2.040970236550211,1.4568920260540479,0.9865562096911165,0.640409297108416,0.39371508073639006,0.22728482682059375,0.12307021575184852,0.06219147733120987,0.029042614706028834,0.01139541965910747,8.128510378204933,6.977435593933755,6.337902521315769,5.671937971742103,4.902229611916073,4.086481581879948,3.2557892359352554,2.4894989418253965,1.8375391243938188,1.2967169425320302,0.8685927455102241,0.5514107325440977,0.3304687597963238,0.18582823953888195,0.09175618589259237
0.0,55.0,55.0,0.0,120.0,0.0,0.0,0.0,0.0,-107.0,0.0,-45.0,0.0,0.0,0.0,34.27253218749016,17.55503396713325,6.060474172019934,4.735834747419421,4.0622187392906985,3.411671797909888,2.721817392339233,2.064581957449566,1.4724372154527787,0.9960834171731004,0.6459206272516541,0.396678384432953,0.22875250354595306,0.123771905935431,0.06256723016595021,0.029273797936238487,0.011522764372089914,8.184404459371894,7.035614987452506,6.391665900377649,5.720035057023341,4.943114759758988,4.119366231741286,3.280504897892358,2.506929108173103,1.8491595833627854,1.3039370718656158,0.8727279228352156,0.5536848959224296,0.33188091393101515,0.18687931505553834,0.09249772788663554
0.0,56.0,56.0,0.0,120.0,0.0,0.0,0.0,0.0,-107.0,0.0,-45.0,0.0,0.0,0.0,34.27253218749016,17.55503396713325,6.131269468344907,4.7987082689927565,4.115697558789615,3.455521820445001,2.75536681766193,2.0885432729124904,1.4881929287468105,1.005727277526421,0.6514927044216606,0.39967108265145057,0.23023198280382895,0.12447289061141645,0.06293518548268315,0.029497926527258217,0.011646883381558943,8.241816360277008,7.094594420823026,6.44611858460505,5.768725702822425,4.984487630941269,4.152628571096982,3.3054912859229924,2.5245402796960215,1.8608949936206394,1.3112265047139968,0.876899368449429,0.5559606684556835,0.33326403330125803,0.1878957393525481,0.09321826176893769
0.0,57.0,57.0,0.0,120.0,0.0,0.0,0.0,0.0,-107.0,0.0,-45.0,0.0,0.0,0.0,34.27253218749016,17.55503396713325,6.204274389623743,4.862794669413014,4.17014034685642,3.5001192462383237,2.789452612668149,2.112860093021581,1.5041624298597034,1.0154893659397015,0.6571262502880769,0.40269349775927427,0.23172368725669285,0.12517404243185581,0.06329616132827082,0.02971534468390155,0.011767828247730457,8.30073646507219,7.154382051998999,6.5012690302763,5.8180174295406335,5.026354260078,4.186273101415099,3.3307514042814415,2.5423341927628895,1.8727462748603931,1.3185857173181246,0.8811080947223665,0.5582409266672301,0.33462157670414655,0.1888794643279251,0.0939182984494418
0.0,58.0,58.0,0.0,120.0,0.0,0.0,0.0,0.0,-107.0,0.0,-45.0,0.0,0.0,0.0,34.27253218749016,17.55503396713325,6.279512300973183,4.928119967678241,4.225567382800539,3.5454790017356146,2.8240847564364127,2.1375385227432147,1.5203490093475025,1.025371287757183,0.6628219890358088,0.40574594630756666,0.2332279822924815,0.12587614063218278,0.06365093072597021,0.02992639463653005,0.011885654321635778,8.361154059419704,7.214986170878226,6.557125714702413,5.867917797291009,5.068720826336153,4.220304428826827,3.3562882476441445,2.5603126044993303,1.8847143407348876,1.3260151609773185,0.8853549468791897,0.5605282156025652,0.3359567881133652,0.18983240623114567,0.0945983636711089
0.0,59.0,59.0,0.0,120.0,0.0,0.0,0.0,0.0,-107.0,0.0,-45.0,0.0,0.0,0.0,34.27253218749016,17.55503396713325,6.357006856792783,4.994710982034084,4.281999456379287,3.5916163304219566,2.8592734281349244,2.162584812041498,1.5367559975576595,1.0353746739774556,0.6685806498586974,0.40882874053039703,0.23474518554079288,0.1265798792775944,0.06400022200500421,0.03013141544173723,0.01200042058243666,8.423057640345606,7.27641527550194,6.61369723385523,5.918434491405734,5.111593635922989,4.254727207505482,3.382104835929761,2.578477282847594,1.8968001028194155,1.3335152671228445,0.8896406302458663,0.562824779564306,0.33727270148042376,0.19075644123507726,0.09525899668214324
0.0,60.0,60.0,0.0,120.0,0.0,0.0,0.0,0.0,-107.0,0.0,-45.0,0.0,0.0,0.0,34.27253218749016,17.55503396713325,6.436782246812973,5.062595359688787,4.339457939509109,3.6385468961083594,2.89502906383819,2.1880052914756214,1.5533867911067794,1.0455011725043082,0.6744029702219211,0.41194218927872167,0.23627557500444543,0.12728587510045256,0.0643447194277049,0.030330741885962013,0.01211218977318881,8.486435261877544,7.338678163889009,6.670992374783339,5.969575343941589,5.1549790479517315,4.289546130254095,3.408204234406368,2.596830002171782,1.9090044724287443,1.3410864517099335,0.8939657333555281,0.5651325910263906,0.33857214648048145,0.191653401474852,0.0959007486777793
0.0,61.0,61.0,0.0,120.0,0.0,0.0,0.0,0.0,-107.0,0.0,-45.0,0.0,0.0,0.0,34.27253218749016,17.55503396713325,6.518863506329077,5.131801598220858,4.397964777674251,3.6862867467502842,2.931362323755148,2.2138064118008676,1.5702448411667311,1.0557524534625584,0.6802896944203776,0.4150865997284591,0.2378193957606728,0.127994674928092,0.0646850640729856,0.03052470348716893,0.012221027780369086,8.551274728837992,7.40178388523752,6.729020062800316,6.021348310761413,5.198883512655406,4.324765946364225,3.4345895412603906,2.6153725489223794,1.921328360780557,1.3487291186244523,0.8983307476379327,0.5674533776090525,0.33985775506327676,0.19252507154464912,0.0965241806120323
0.0,62.0,62.0,0.0,120.0,0.0,0.0,0.0,0.0,-107.0,0.0,-45.0,0.0,0.0,0.0,34.27253218749016,17.55503396713325,6.603276799364862,5.202359069927044,4.457542502516584,3.7348523288899327,2.9682840983282204,2.2399947455098093,1.5873336547447472,1.06613020965111,0.6862415738287467,0.41826227834013796,0.23937686571150946,0.1287067626178906,0.06502185494552594,0.030713623596570105,0.0123270032770512,8.617563814221494,7.465741751507094,6.78778935872875,6.073761470816282,5.24331357432318,4.360391463105474,3.461263889425147,2.6341067226374264,1.933772680001054,1.3564436622907157,0.9027360840465836,0.5697886471400841,0.3411319686504328,0.19337318544506066,0.09712986133181127
0.0,63.0,63.0,0.0,120.0,0.0,0.0,0.0,0.0,-107.0,0.0,-45.0,0.0,0.0,0.0,34.27253218749016,17.55503396713325,6.69004974044156,5.274298113383588,4.518214305869839,3.7842605628296333,3.005805543010675,2.266576941139264,1.6046567892254373,1.076636167852952,0.6922593632767411,0.4214695322403194,0.2409481804348708,0.12942256547642322,0.06535565028545774,0.030897818592542908,0.012430187922091175,8.685290500322951,7.530561383490314,6.8473094639015715,6.126822994561527,5.288275807979841,4.396427508995114,3.488230495027039,2.6530343175567537,1.9463383507398084,1.3642304677260453,0.9071820875303054,0.5721397107116165,0.3423970458601897,0.19419942397140627,0.09771836528191431
0.0,64.0,64.0,0.0,120.0,0.0,0.0,0.0,0.0,-107.0,0.0,-45.0,0.0,0.0,0.0,34.27253218749016,17.55503396713325,6.779211585530196,5.347649983748914,4.580003929919829,3.8345287321187422,3.0439380119555244,2.293559796787899,1.622217882047266,1.0872720628849908,0.6983438306086699,0.4247086679056179,0.2425335174058023,0.1301424602500221,0.06568696899813659,0.031077597183622335,0.012530654714290232,8.754443054297987,7.59625266080504,6.90758968932893,6.180541162501897,5.3337769247240265,4.432879021477281,3.5154925812185587,2.672157152507962,1.959026293180316,1.3720899153648487,0.9116690479603692,0.5745077041327086,0.34365507057837713,0.1950054125158373,0.0982902712069182
0.0,65.0,65.0,0.0,120.0,0.0,0.0,0.0,0.0,-107.0,0.0,-45.0,0.0,0.0,0.0,34.27253218749016,17.55503396713325,6.870793418256602,5.422446872799116,4.6429356344560215,3.885674470574325,3.0826930824048486,2.320950305999178,1.6400206333283676,1.0980396413060216,0.7044957558682405,0.4279799921897048,0.24413303916713727,0.13086677867474236,0.06601629221114623,0.03125325979368356,0.012628477353932785,8.825010199763943,7.662825754708269,6.968639503928142,6.234924414678036,5.379823836911153,4.4697510495950725,3.543053342582869,2.691477091873607,1.9718374209365235,1.3800223841882377,0.9161972096158582,0.5768936074441475,0.3449079603295694,0.19579271927452344,0.09884616103909613
0.0,66.0,66.0,0.0,120.0,0.0,0.0,0.0,0.0,-107.0,0.0,-45.0,0.0,0.0,0.0,34.27253218749016,17.55503396713325,6.964828476141811,5.498722132886323,4.707034360097002,3.9377159093030003,3.122082627887288,2.3487555466695507,1.6580687930389673,1.1089406902745258,0.7107159225830464,0.43128381284692036,0.2457468968187747,0.13159581222657354,0.06634406500574286,0.03142509802890343,0.012723731036873525,8.896981445609496,7.730291204606789,7.030468587196398,6.289981297800092,5.426423533649885,4.507048715304874,3.570916114637447,2.7109960251544116,1.98477261500524,1.3880282509609358,0.9207667840440542,0.5792982615899183,0.3461574746329901,0.19656285415172323,0.09938661903636521
0.0,67.0,67.0,0.0,120.0,0.0,0.0,0.0,0.0,-107.0,0.0,-45.0,0.0,0.0,0.0,34.27253218749016,17.55503396713325,7.06135234179892,5.576510318439868,4.772325684063983,3.99067160584401,3.1621187900519625,2.3769827282837164,1.6763661749552616,1.1199770269122054,0.717005122738702,0.4346204369255213,0.24737523289344332,0.1323298165724637,0.06667069816002347,0.03159339424464437,0.01281649121741804,8.970347314701481,7.798659856137015,7.093086866757956,6.345720504480992,5.473583172623579,4.544777303402929,3.5990843757502278,2.730715907581081,1.9978326820012895,1.396107895616795,0.9253779593699201,0.5817223838944143,0.34740522342086827,0.1973172679730471,0.099912232328208
0.0,68.0,68.0,0.0,120.0,0.0,0.0,0.0,0.0,-107.0,0.0,-45.0,0.0,0.0,0.0,34.27253218749016,17.55503396713325,7.160403284148451,5.655847299799855,4.838835887145416,4.044560554861772,3.202813997895007,2.4056391969137136,1.6949166453055904,1.131150475563622,0.7233641555815752,0.4379901820238418,0.24901817799693132,0.13306901734801138,0.06699656962104807,0.03175842113443079,0.012906832859817382,9.045099674759607,7.8679426960692425,7.156504441075176,6.402150692129309,5.521309787273391,4.582941852796522,3.627561280832398,2.750638547944362,2.0110187150143832,1.4042616772798868,0.9300308762369415,0.5841665895974381,0.3486526774797137,0.19805734933313818,0.1004235743608856
0.0,69.0,69.0,0.0,120.0,0.0,0.0,0.0,0.0,-107.0,0.0,-45.0,0.0,0.0,0.0,34.27253218749016,17.55503396713325,7.26202271841624,5.7367702821212765,4.906592010216343,4.0994021633243145,3.2441809592519872,2.434732436027394,1.713724138348953,1.142462897219757,0.7297938296294021,0.44139336275843405,0.2506758589844911,0.13381361188703847,0.06732202666853455,0.03192044150203341,0.012994830719993,9.121232169301672,7.938150792812929,7.220731762372484,6.459280732332134,5.569610635321831,4.6215476645286175,3.65635023375328,2.770765869358444,2.0243316547933805,1.4124899652105565,0.9347256687370683,0.5866313963824586,0.34990117475059657,0.19878442724779688,0.1009212227706524
0.0,70.0,70.0,0.0,120.0,0.0,0.0,0.0,0.0,-107.0,0.0,-45.0,0.0,0.0,0.0,34.27253218749016,17.55503396713325,7.3662559225624715,5.819317751995507,4.9756219724173345,4.155216261150384,3.2862326679320955,2.4642700725158484,1.7327926515702894,1.1539161794373232,0.7362949621401723,0.444830295944932,0.25234839787285795,0.1345637733326776,0.0676473875719489,0.03207970802512338,0.01308055958714223,9.198740510868939,8.009295078102017,7.285779582830979,6.517119661379298,5.618493065258642,4.660600123909984,3.685454682855668,2.791099816006698,2.037772449214415,1.420793128530337,0.9394624551722962,0.5891172391991145,0.35115192952801033,0.19949977000902247,0.10140575144358444
0.0,71.0,71.0,0.0,120.0,0.0,0.0,0.0,0.0,-107.0,0.0,-45.0,0.0,0.0,0.0,34.27253218749016,17.55503396713325,7.473152914147642,5.9035292656754255,5.045954692399124,4.212023121336055,3.32898239800012,2.494259878215099,1.7521262458569777,1.1655122392401223,0.7428683779766933,0.4483013011741117,0.25403591280666143,0.13531965368245644,0.06797294336685994,0.03223646310619368,0.013164094796675348,9.277622486253495,8.08138620850452,7.351658883418226,6.575676718879304,5.667964506844515,4.700104703493072,3.7148781285248673,2.8116423521643377,2.051342053922759,1.4291715368570697,0.9442413412710948,0.5916244807350076,0.3524060406652531,0.2002045854058942,0.10187772874214891
0.0,72.0,72.0,0.0,120.0,0.0,0.0,0.0,0.0,-107.0,0.0,-45.0,0.0,0.0,0.0,34.27253218749016,17.55503396713325,7.5827692819548345,5.989445124005163,5.11762017402619,4.269843474811842,3.3724436195971426,2.524709679235477,1.7717290513372959,1.1772530728382335,0.7495148817287023,0.45180671028045866,0.2557385166613507,0.13608138689889157,0.068298959566264,0.03239093875876945,0.013245510998124474,9.357877349288211,8.154434503337592,7.418380585705439,6.634961259784902,5.718032372524677,4.740066971740765,3.744624247883644,2.8323954213075258,2.0650414351500945,1.4376255605882908,0.9490624238010434,0.5941534202945093,0.3536644996714787,0.2009000211750655,0.10233771383289242
0.0,73.0,73.0,0.0,120.0,0.0,0.0,0.0,0.0,-107.0,0.0,-45.0,0.0,0.0,0.0,34.27253218749016,17.55503396713325,7.695166224998013,6.077105941998715,5.190649457132186,4.328698661449043,3.4166302140156324,2.5556276823322026,1.7916052835293577,1.1891405845549405,0.7562353495253235,0.4553468370643949,0.2574563254107772,0.13684908986090855,0.06862567803212499,0.032543356664471994,0.01332488486669882,9.43950520749233,8.228450791142542,7.485955761622295,6.694983217666604,5.768704401649747,4.780492601012728,3.7746965064109808,2.853361063438905,2.07887157235402,1.4461555693787078,0.9539257903272925,0.5967043034795322,0.35492819798634856,0.20158716581231553,0.10278625915298771
0.0,74.0,74.0,0.0,120.0,0.0,0.0,0.0,0.0,-107.0,0.0,-45.0,0.0,0.0,0.0,34.27253218749016,17.55503396713325,7.810409798961201,6.166552792194444,5.265074489862932,4.388610685914866,3.4615562627982834,2.5870221612776634,1.8117592025192384,1.2011767673575617,0.7630306371351366,0.45892200784575404,0.25918945084651673,0.13762286605517973,0.06895331844369675,0.032693928120084224,0.013402289345678327,9.522505814263575,8.303446868063263,7.554394977258816,6.755752648754718,5.819988325262599,4.821387330155511,3.805098547544419,2.8745413140168856,2.092833449470631,1.454761937140342,0.9588315227899555,0.5992773283088452,0.3561979347691819,0.20226704939021592,0.1032239050240883
0.0,75.0,75.0,0.0,120.0,0.0,0.0,0.0,0.0,-107.0,0.0,-45.0,0.0,0.0,0.0,34.27253218749016,17.55503396713325,7.928568879955265,6.257827914834514,5.340927713698137,4.449602311250301,3.507236105848221,2.6189015658565724,1.8321951367892653,1.2133636418257185,0.7699016101000996,0.4625325516846733,0.2609380036634968,0.1384028069300005,0.06928207996969941,0.03284285413491242,0.013477793184835428,9.606879409423033,8.37943661824082,7.623708359462497,6.817279789833935,5.871892010707523,4.862756976074497,3.835834072027665,2.895938233912967,2.106928060472101,1.4634450404453332,0.9637796985937834,0.6018726520924146,0.35747442384293954,0.2029406447047422,0.10365118375774442
0.0,76.0,76.0,0.0,120.0,0.0,0.0,0.0,0.0,-107.0,0.0,-45.0,0.0,0.0,0.0,34.27253218749016,17.55503396713325,8.049714263252119,6.350976385909363,5.418241592899857,4.511697084859849,3.5536843515454857,2.6512745223354237,1.8529174868223466,1.2257032563570744,0.776849143776485,0.4661788005153006,0.26270209383841464,0.13918899356218725,0.06961214280579302,0.03299032554812263,0.013551462666281476,9.692630402302022,8.45643637080195,7.693905888029694,6.879574908143814,5.924423493887693,4.904607425041329,3.866906841074034,2.917553910387123,2.121156409934793,1.4722052590063055,0.9687703918621202,0.6044903971648694,0.35875830042698625,0.20360886855247554,0.10406862435540157
0.0,77.0,77.0,0.0,120.0,0.0,0.0,0.0,0.0,-107.0,0.0,-45.0,0.0,0.0,0.0,34.27253218749016,17.55503396713325,8.17392230403781,6.446048048301218,5.4970483700962385,4.574919248450959,3.600915901216597,2.68414982786521,1.8739307298891146,1.2381976874247416,0.7838741233527136,0.46986108927490977,0.26448183093733674,0.13998149812298288,0.06994366964342,0.03313652318515291,0.013623369114257955,9.779772059561571,8.534463579738285,7.7649981877761025,6.942648135776251,5.977591010803316,4.946944623375004,3.898320678337466,2.939390458199092,2.135519513637532,1.4810429761278456,0.9738036744964179,0.6071306559264732,0.36005012752391957,0.20427258315292626,0.10447675550626666
0.0,78.0,78.0,0.0,120.0,0.0,0.0,0.0,0.0,-107.0,0.0,-45.0,0.0,0.0,0.0,34.27253218749016,17.55503396713325,8.301282670693155,6.543097967532522,5.577380522054481,4.639293519838105,3.6489459868681386,2.7175364370301387,1.8952394255052953,1.2508490399752432,0.7909774438569764,0.47357975602262653,0.26627732436799073,0.14078038516322702,0.07027680706690334,0.033281618048834186,0.013693598160770154,9.868325658683466,8.613533519824927,7.836997648498094,7.006509398085058,6.031403021116868,4.989774571285592,3.9300794697418517,2.9614500208443006,2.1500183992051585,1.4899585791290497,0.9788796170802192,0.6097934952653131,0.3613504019555559,0.2049325976957561,0.10487609686660217
