Line_number,Fiducial,Easting,Northing,Height,Elevation,tx_pitch,tx_roll,tx_yaw,txrx_dx,txrx_dy,txrx_dz,rx_pitch,rx_roll,rx_yaw,PX,PZ,S0X_time_1.086e-05,S0X_time_3.256e-05,S0X_time_5.426e-05,S0X_time_8.680e-05,S0X_time_1.411e-04,S0X_time_2.279e-04,S0X_time_3.689e-04,S0X_time_5.860e-04,S0X_time_9.115e-04,S0X_time_1.411e-03,S0X_time_2.192e-03,S0X_time_3.418e-03,S0X_time_5.339e-03,S0X_time_8.301e-03,S0X_time_1.338e-02,S0Z_time_1.086e-05,S0Z_time_3.256e-05,S0Z_time_5.426e-05,S0Z_time_8.680e-05,S0Z_time_1.411e-04,S0Z_time_2.279e-04,S0Z_time_3.689e-04,S0Z_time_5.860e-04,S0Z_time_9.115e-04,S0Z_time_1.411e-03,S0Z_time_2.192e-03,S0Z_time_3.418e-03,S0Z_time_5.339e-03,S0Z_time_8.301e-03,S0Z_time_1.338e-02
0.0,0.0,0.0,0.0,120.0,0.0,0.0,0.0,0.0,-107.0,0.0,-45.0,0.0,0.0,0.0,34.27253218749016,17.55503396713325,10.41405905150883,9.616908426275918,9.196081699073082,8.636138014376243,7.981473633571729,7.262921467034706,6.369352290518711,5.53127100960769,4.573787131528701,3.5998987951319044,2.5818671314448896,1.515504545436551,0.8436475166718642,0.42094822632707285,0.18791053627735985,10.908067786587253,10.562883171755908,10.227318956238927,9.884590219725666,9.47935335854484,8.912976788981466,8.32065083087707,7.567502037659305,6.729475161001044,5.7565308634560255,4.6353431916238526,3.3974256307107558,2.1815232143768735,1.2352731234158276,0.5851929387402988
0.0,1.0,1.0,0.0,120.0,0.0,0.0,0.0,0.0,-107.0,0.0,-45.0,0.0,0.0,0.0,34.27253218749016,17.55503396713325,10.419440083012216,9.677141357939645,9.252082863657199,8.686456496325617,8.031163647692962,7.168575409618479,6.39961249531679,5.545953961696742,4.650134329031026,3.594150516331347,2.5635508073964495,1.600801181754843,0.8053838853971902,0.4058858198349912,0.15985185794418322,10.955303361462102,10.438808334845929,10.222127802235878,9.901673054483442,9.435249354206425,8.926994420868818,8.247503252642812,7.5564067060093,6.780907738721288,5.761280360258363,4.628582172932151,3.3531287981495184,2.1248688240870894,1.1683201697497596,0.5792191295281764
0.0,2.0,2.0,0.0,120.0,0.0,0.0,0.0,0.0,-107.0,0.0,-45.0,0.0,0.0,0.0,34.27253218749016,17.55503396713325,10.398011634752933,9.73779845566547,9.119514451959507,8.712108140757149,7.916527330354355,7.318250948597525,6.418173174520216,5.545106507746485,4.5719704958141785,3.5659459782581564,2.5039098934419033,1.5952693227389565,0.8526532641493967,0.35870915590057006,0.1691108844523179,10.888615783672469,10.512611541451145,10.183488382892824,9.896736106998945,9.462641013571046,8.918920899837827,8.298205052818494,7.600079085105634,6.756384619360155,5.760278006807016,4.572844657969487,3.3378697213060913,2.126208566810748,1.1760624037027418,0.5561240385449904
0.0,3.0,3.0,0.0,120.0,0.0,0.0,0.0,0.0,-107.0,0.0,-45.0,0.0,0.0,0.0,34.27253218749016,17.55503396713325,10.383979355733624,9.713751721741883,9.258357918330772,8.599465008664337,7.998104718088839,7.291673640189337,6.425461458804021,5.468286408066583,4.540120551869436,3.534403635788057,2.5699363476988526,1.5647004990068833,0.8316616467172823,0.35737119116785504,0.15244758007707562,10.948115000493532,10.561523878056748,10.257144065733469,9.847751503906386,9.455175156525057,8.953090930425251,8.291578445050947,7.578908652355312,6.7392153312444805,5.749265412203927,4.568980296782827,3.29761413339286,2.057993398562911,1.184637270464948,0.506001362182247
0.0,4.0,4.0,0.0,120.0,0.0,0.0,0.0,0.0,-107.0,0.0,-45.0,0.0,0.0,0.0,34.27253218749016,17.55503396713325,10.44308842178563,9.64372420197583,9.072357013799211,8.642043267552285,8.00984864996663,7.287152796710771,6.392984231638092,5.500063055053607,4.556305039930843,3.5987078336054568,2.4880945269912074,1.5365999363374128,0.7763808805514133,0.367223229140711,0.15651876317392543,10.946137778985829,10.52355338151476,10.25309561551452,9.9186504420539,9.460378050421479,9.008317442600003,8.34726309271981,7.591829305281588,6.789369994275093,5.736549586881937,4.583875440403348,3.290687535332552,2.069125808244967,1.1506350328263402,0.49602740503136844
0.0,5.0,5.0,0.0,120.0,0.0,0.0,0.0,0.0,-107.0,0.0,-45.0,0.0,0.0,0.0,34.27253218749016,17.55503396713325,10.413572033507181,9.646349098516948,9.189062058309721,8.718747513051799,7.983288073920491,7.254022182622424,6.505982308703219,5.439582507683305,4.55821096943984,3.540746571806057,2.456931623188234,1.5029189225272508,0.7842522133025774,0.31834059258424624,0.1492202106039231,10.970700233511309,10.507163039129933,10.208716520513399,9.906412553314754,9.496794411209867,8.9737160395907,8.318039841323598,7.5800311495100035,6.758632532628051,5.723153353754596,4.501886487210583,3.2360494280140073,2.0521433523657437,1.1042197604433672,0.5530920294321421
0.0,6.0,6.0,0.0,120.0,0.0,0.0,0.0,0.0,-107.0,0.0,-45.0,0.0,0.0,0.0,34.27253218749016,17.55503396713325,10.384218463996843,9.78586628955836,9.199710558411644,8.648160405290293,7.952453143788987,7.247984005371526,6.457341872467663,5.545019557105448,4.61147216507022,3.501980646539952,2.38416981838506,1.4298352674853394,0.7495159796466921,0.3284034238947167,0.10006564339084446,11.015816129249682,10.598519319437804,10.230225206013086,9.917422960886169,9.447340725596563,8.977820221319934,8.298625850112414,7.57148401728333,6.7811868590222115,5.739289994175461,4.552677626595835,3.1844549600994756,2.0371246264753173,1.0859619573934014,0.485495535252452
0.0,7.0,7.0,0.0,120.0,0.0,0.0,0.0,0.0,-107.0,0.0,-45.0,0.0,0.0,0.0,34.27253218749016,17.55503396713325,10.401434051173037,9.561803025525295,9.192084429897177,8.634266433450355,8.036887326479007,7.288013709053928,6.473040123211497,5.473454929379005,4.618554196004142,3.4471945971997293,2.4918155475793062,1.44923740691286,0.7464960133851417,0.36496762524734216,0.07925437472310079,10.931777502452098,10.525078593394781,10.238212403130257,9.943481665300277,9.52849168506695,8.961292994690645,8.345533769204884,7.590763211665134,6.75797499583126,5.746212337954768,4.549293899549953,3.227501183998252,1.9619634718815562,1.06667380965319,0.49081769268285846
0.0,8.0,8.0,0.0,120.0,0.0,0.0,0.0,0.0,-107.0,0.0,-45.0,0.0,0.0,0.0,34.27253218749016,17.55503396713325,10.52175149964268,9.620910137826552,9.241208168110807,8.65464820911999,8.024073245316774,7.211689639723695,6.4499633060647295,5.532544798754342,4.550922803261901,3.488905233100402,2.4334281983757373,1.4581653380836277,0.8131968099482537,0.3447216744165828,0.1521119370969814,11.00913627879676,10.517189484906861,10.239315435209217,9.934507087473982,9.474343876942953,9.001134106493652,8.363772512429543,7.58836968793429,6.7241704871078385,5.7053818633131765,4.45718996802558,3.1450723600868558,1.9912009845701764,1.077335626072959,0.4768428366481002
0.0,9.0,9.0,0.0,120.0,0.0,0.0,0.0,0.0,-107.0,0.0,-45.0,0.0,0.0,0.0,34.27253218749016,17.55503396713325,10.395631742427392,9.631413994462644,9.20780990691727,8.64480646043249,8.042795171223808,7.289906764291307,6.425527125227847,5.59457563834896,4.4437225127232045,3.4765391524467684,2.4056226758786,1.449728056667439,0.7229176479374928,0.3500552928469625,0.11563337052051395,11.03444718354493,10.55187662783936,10.311044957569415,9.927416848171212,9.519101487940736,8.941910744916,8.315731842057222,7.5855011827336,6.736632042472315,5.708722705836442,4.50207419183133,3.1692899426872274,1.9260415350955618,1.0521389201417604,0.4815372046208599
0.0,10.0,10.0,0.0,120.0,0.0,0.0,0.0,0.0,-107.0,0.0,-45.0,0.0,0.0,0.0,34.27253218749016,17.55503396713325,10.43151254378974,9.659793882307905,9.063183799023342,8.759472116046924,8.098303972667756,7.247518911272021,6.347349942576696,5.411133249143326,4.565086603158014,3.4455582760038146,2.4141503473131736,1.4111266127442064,0.7436722561162707,0.2983631432902462,0.0690820783377777,11.033651011033468,10.502420519585574,10.238524792505558,9.944786743196133,9.53613376547566,8.955426131431746,8.363792324753,7.57832694550469,6.788118238514333,5.740897299515414,4.472287284022415,3.1224020845553118,1.9120820864035637,1.0025382042004662,0.48720746183780084
0.0,11.0,11.0,0.0,120.0,0.0,0.0,0.0,0.0,-107.0,0.0,-45.0,0.0,0.0,0.0,34.27253218749016,17.55503396713325,10.409365085830862,9.611782595409347,9.116219320415347,8.644277132541772,7.955918163324502,7.29201343844087,6.481536312231775,5.544338366412857,4.487898560481671,3.456111104320049,2.3776749681153477,1.3713078543847141,0.6910760488504268,0.2847116676456303,0.07661998850917802,11.03175797724591,10.589801294247847,10.276596120706632,9.953748503586803,9.48415155558217,8.991353789600822,8.367283199391991,7.644467582432285,6.806950673241869,5.724279763518908,4.471031628416231,3.084821050987668,1.8996991805415955,1.0197338171108736,0.45929359506794176
0.0,12.0,12.0,0.0,120.0,0.0,0.0,0.0,0.0,-107.0,0.0,-45.0,0.0,0.0,0.0,34.27253218749016,17.55503396713325,10.42124130478964,9.696664910841305,9.164039727876098,8.653845204974536,7.979646548066391,7.321171919661427,6.377453281146427,5.526953645972945,4.520559509849793,3.4509822385673234,2.337589942382895,1.4651876431478366,0.7472456540031459,0.2562042399564943,0.1063268295877565,11.019601145762136,10.612515962515776,10.318218690218371,9.974110135971339,9.563878139055712,8.978145993047868,8.363311790489131,7.633926285857515,6.792733554348026,5.677351264099548,4.446479495685394,3.0447125712082777,1.8526800131911265,1.017171829095781,0.4390159758488885
0.0,13.0,13.0,0.0,120.0,0.0,0.0,0.0,0.0,-107.0,0.0,-45.0,0.0,0.0,0.0,34.27253218749016,17.55503396713325,10.42899691681281,9.715847015576925,9.219348695741276,8.66509541664191,8.085158427024284,7.2527381811742515,6.357922511976199,5.480500678574421,4.527332781984373,3.427978469822031,2.345632186207278,1.4376402973031652,0.650509658972944,0.2762795542719428,0.11754899842572007,11.037054751123895,10.608735137640794,10.331329606843413,10.02713940506522,9.521651385541285,8.997641386214553,8.393925846823725,7.6543339532217605,6.74277710260117,5.701596498154941,4.412767929019789,3.0701046013456845,1.9013257266187473,1.0139881687613859,0.43986313887037043
0.0,14.0,14.0,0.0,120.0,0.0,0.0,0.0,0.0,-107.0,0.0,-45.0,0.0,0.0,0.0,34.27253218749016,17.55503396713325,10.375190968819478,9.64432453257274,9.120038881268082,8.713930776449338,8.027996446567425,7.28254791001841,6.3724598992335695,5.426535415101365,4.474486754287586,3.3696374750114853,2.353812208555015,1.3615157533626792,0.618944230211359,0.2712370174874125,0.12189707015090057,11.063634993679333,10.54951686456629,10.313716176559867,9.973896242591652,9.516346133183182,9.02523935158789,8.374365800391319,7.605065713516801,6.727736782134158,5.675076648197018,4.3233238129440865,3.0547796594385463,1.7920726966356957,0.9895751992545074,0.3887785471575088
0.0,15.0,15.0,0.0,120.0,0.0,0.0,0.0,0.0,-107.0,0.0,-45.0,0.0,0.0,0.0,34.27253218749016,17.55503396713325,10.442432611232935,9.686348694917978,9.154982935566085,8.705393563495617,8.015135203998128,7.2115001539063694,6.419131931152939,5.402326457114952,4.438378625244087,3.4152759474989933,2.2829582090153275,1.3776929745318316,0.6227573199921917,0.26682159121260196,0.050466400710307426,11.028275385119306,10.613890713206661,10.285173422355092,9.998404184013225,9.558177242859578,9.01305250072875,8.42711759967952,7.642369490759681,6.731740165197392,5.6534211024809595,4.312504678377686,2.9825827884867646,1.8002374635648855,0.9491558433331185,0.37185417404778615
0.0,16.0,16.0,0.0,120.0,0.0,0.0,0.0,0.0,-107.0,0.0,-45.0,0.0,0.0,0.0,34.27253218749016,17.55503396713325,10.482258114952069,9.66343057842121,9.17979438204898,8.714757932223701,8.027769265564535,7.252795908626369,6.412131235294754,5.572385318606001,4.549274477061626,3.4484850045692914,2.277722016337581,1.3165147750180206,0.6493310851799169,0.268084292971214,0.08443999134178941,11.035729864276188,10.575916481273635,10.34108892753001,9.950903078629262,9.544957133622095,9.003946331138632,8.392230447076543,7.632899030736632,6.723635226826302,5.6337787700470185,4.349421409506586,2.954127922274883,1.7866620042906534,0.9440750428713209,0.4240196764780251
0.0,17.0,17.0,0.0,120.0,0.0,0.0,0.0,0.0,-107.0,0.0,-45.0,0.0,0.0,0.0,34.27253218749016,17.55503396713325,10.431294599812595,9.683037628864469,9.159315188370778,8.65177921068671,8.05318998495366,7.2689853852557285,6.503772863419435,5.478730573180124,4.430484034947756,3.330063292967488,2.2522539489956364,1.2810771330515336,0.6054820708097146,0.22512632124137613,0.10743867297241728,11.063047164373032,10.617217406677735,10.329489376824093,10.010952985575567,9.580359898602147,9.050535102622337,8.383788235210607,7.646454095185154,6.774487677591314,5.651166377949281,4.366757575772255,2.9412867825166056,1.7382118610335189,0.8909632934610083,0.36290788780472066
0.0,18.0,18.0,0.0,120.0,0.0,0.0,0.0,0.0,-107.0,0.0,-45.0,0.0,0.0,0.0,34.27253218749016,17.55503396713325,10.456349484172923,9.675084842081644,9.168677251535255,8.632215128427136,8.100649190935867,7.234327204267488,6.454875379672225,5.480147189991707,4.449586692409815,3.35370715774219,2.2286176013789056,1.2466689852505242,0.5678275442029943,0.22927552098261333,0.02307146952422439,11.023799720380634,10.603199414411675,10.257617041874019,9.97484785932505,9.563907185577424,9.07707084334126,8.416480568490769,7.660176780271287,6.739156370537387,5.623482585710569,4.339493206791962,2.88406833982554,1.7620444808245628,0.8951007596501817,0.4075530514771931
0.0,19.0,19.0,0.0,120.0,0.0,0.0,0.0,0.0,-107.0,0.0,-45.0,0.0,0.0,0.0,34.27253218749016,17.55503396713325,10.427099609382593,9.687845021810265,9.236310458674001,8.657903342590688,8.063043394858965,7.286830666897158,6.412505683856666,5.4844231398764425,4.391508515378666,3.413492961868048,2.2003773031872518,1.2851768866003652,0.6748957285080923,0.3264437517225911,0.12397638327071647,11.026760937426733,10.678177311855077,10.239721306159273,9.978955675288836,9.597873209991496,9.02945106387161,8.444333154110971,7.616163932746536,6.770754911413299,5.585381462003139,4.260645611726122,2.854910206373832,1.7143006857991323,0.8889253963254895,0.35391388729067513
0.0,20.0,20.0,0.0,120.0,0.0,0.0,0.0,0.0,-107.0,0.0,-45.0,0.0,0.0,0.0,34.27253218749016,17.55503396713325,10.412196207135967,9.667616896031994,9.283133648265595,8.750987939457243,8.063728297715477,7.32637235663268,6.441434777801229,5.5101572012568605,4.463705185006511,3.246571576423138,2.206219856649779,1.1730975476807965,0.5804487236918826,0.2463121446197374,0.05725385264510453,11.07836162951678,10.649201176471866,10.34690433768545,10.01666286722826,9.57789238040925,9.078780826746218,8.41377051623245,7.610230706355584,6.69877052752928,5.61290555616419,4.200928120979124,2.832154080654807,1.6959033581957528,0.8437039845965347,0.3876007100227579
0.0,21.0,21.0,0.0,120.0,0.0,0.0,0.0,0.0,-107.0,0.0,-45.0,0.0,0.0,0.0,34.27253218749016,17.55503396713325,10.427710305399735,9.700064628257032,9.348047101556121,8.632103563158699,8.049254257920692,7.248637275540693,6.408989401204872,5.431094537906929,4.403728035365348,3.2789135996647376,2.143008385141333,1.166405930678652,0.5578538999565691,0.2181805400055437,0.05605740117449132,11.069720235321114,10.628853706305561,10.358476553659466,9.95591739814278,9.57344534355269,9.083071186564245,8.455636323698158,7.620221517855823,6.7401175268459115,5.569244368905714,4.184054383352939,2.825733255331406,1.6551750443561342,0.8220369779804252,0.3159789446921936
0.0,22.0,22.0,0.0,120.0,0.0,0.0,0.0,0.0,-107.0,0.0,-45.0,0.0,0.0,0.0,34.27253218749016,17.55503396713325,10.445515832150106,9.734736067049372,9.12219921067965,8.729678022567082,8.058902394589266,7.28945239336297,6.3717663760437855,5.475694078145588,4.378975418470639,3.3535988031099775,2.138300950590675,1.2300066791841389,0.5475680568465269,0.23490127099422553,0.06381066074196505,11.11078645576139,10.632348955445275,10.344130243978013,10.055668412826313,9.551728264280593,9.058220648805822,8.437862093689002,7.674022484585218,6.696391904629841,5.533797765792662,4.133597755073345,2.7758676163772487,1.5895494859300388,0.832972332848672,0.37326540084063664
0.0,23.0,23.0,0.0,120.0,0.0,0.0,0.0,0.0,-107.0,0.0,-45.0,0.0,0.0,0.0,34.27253218749016,17.55503396713325,10.422885460017836,9.635283894073943,9.208711410831409,8.616521916683299,8.05156600793176,7.248752276243834,6.464641304915399,5.548673955982032,4.349824943153183,3.1886361868924316,2.041097329537766,1.1105643645008563,0.5513699836148076,0.2793229902525082,0.09169105637104016,11.093921224107227,10.631071571631677,10.353423652287514,10.080359469524636,9.61713110653165,9.054327432044785,8.471289650404124,7.6308506561309235,6.663314854846254,5.476985784656667,4.114817351519674,2.719811032758595,1.5966908366283028,0.7850771223494398,0.3676660644815659
0.0,24.0,24.0,0.0,120.0,0.0,0.0,0.0,0.0,-107.0,0.0,-45.0,0.0,0.0,0.0,34.27253218749016,17.55503396713325,10.44546720640485,9.683006737367185,9.260091850686727,8.714677159077242,8.001260348556551,7.278761912330449,6.445328046729625,5.4812798148038,4.402733290403875,3.266216005698198,2.0877037564785392,1.192227431841544,0.5034329100154135,0.2458658770266085,0.10138488317793508,11.160875968432643,10.694490126997803,10.366067858449433,10.06953451766481,9.594911680524776,9.151311697718876,8.405692589285104,7.624757064072584,6.6811059076413235,5.507290246424621,4.033389084201959,2.708639461619039,1.553338459883415,0.7756847166711706,0.32794372309208847
0.0,25.0,25.0,0.0,120.0,0.0,0.0,0.0,0.0,-107.0,0.0,-45.0,0.0,0.0,0.0,34.27253218749016,17.55503396713325,10.387570103816838,9.717096419671845,9.19309157636411,8.721847931718651,8.048110838014841,7.255916609225223,6.423850248341337,5.42277534794599,4.361810458821204,3.224385475495382,2.0674033239901224,1.136681433610953,0.4875281915130511,0.2309258177930442,0.06642658022816422,11.064208004303246,10.651370221105886,10.332931166485471,10.009650553877677,9.598845291651912,9.114249368987474,8.431264483514434,7.692187113626249,6.6200982666352415,5.468165904362175,4.015456270078646,2.694009827635557,1.5011678100275763,0.7607259350706287,0.2968941200298954
0.0,26.0,26.0,0.0,120.0,0.0,0.0,0.0,0.0,-107.0,0.0,-45.0,0.0,0.0,0.0,34.27253218749016,17.55503396713325,10.417628601832858,9.694631576505342,9.202592423845768,8.703286248986457,8.01962605705295,7.420498087737247,6.416466409514792,5.485449775302717,4.454699208431578,3.168082559745753,2.0399335008088597,1.1125454312055238,0.5417984498159842,0.23149564896909297,0.02571676283739776,11.137967517259979,10.664102466134603,10.382521339306729,10.089670137258612,9.594420595450341,9.12890321257106,8.451955288155142,7.668709467948387,6.675710725929338,5.420645166661983,4.046923296745575,2.6484709253598355,1.4782098942770916,0.75093959524431,0.3076966214444303
0.0,27.0,27.0,0.0,120.0,0.0,0.0,0.0,0.0,-107.0,0.0,-45.0,0.0,0.0,0.0,34.27253218749016,17.55503396713325,10.383427403537029,9.770363503600242,9.125577035524127,8.73288223089131,8.135033237400975,7.30767419150169,6.409437112607991,5.412068404232547,4.326125595177354,3.0945306979251455,1.9362949980546584,1.1304653949929753,0.4803462226914683,0.18837567655018336,0.027145356878358506,11.133191511680213,10.635301192888939,10.38649437994144,10.10485695465835,9.624678098065003,9.098628775599082,8.44725690665497,7.656067201992321,6.605382589049942,5.3836340625243055,3.9617064136384337,2.572646583264328,1.4711427745830419,0.7195086226693009,0.2620112224610993
0.0,28.0,28.0,0.0,120.0,0.0,0.0,0.0,0.0,-107.0,0.0,-45.0,0.0,0.0,0.0,34.27253218749016,17.55503396713325,10.513488962886637,9.69434290243171,9.172006898618017,8.612061665666062,8.028887306519659,7.339348276435015,6.3989093798328485,5.421547439557098,4.252930133362583,3.0617459464498222,1.963987444620403,0.9890560366218092,0.4675983007014619,0.13685420535035042,0.012981150630628949,11.091355517254286,10.720082020455134,10.363967635014358,10.06678638847259,9.629343514116075,9.135361565449296,8.447829457539036,7.646884084068893,6.638002218054142,5.388868496667259,3.9496529883264935,2.548513057700052,1.42490832268554,0.6781402805328637,0.2846188120162727
0.0,29.0,29.0,0.0,120.0,0.0,0.0,0.0,0.0,-107.0,0.0,-45.0,0.0,0.0,0.0,34.27253218749016,17.55503396713325,10.490207955969185,9.713346212811913,9.182765554376436,8.712632902006481,8.019202884320773,7.296909586629044,6.371239053590501,5.427200775188296,4.298610909660587,3.073025594893131,2.0198939376806964,0.9933839835512919,0.44135815559933117,0.21283596497368162,0.018844499754207697,11.21563116111468,10.645520214811153,10.434278499045659,10.028037148343078,9.649786892600893,9.151591787984124,8.480826810019328,7.617717710155705,6.572070803541269,5.359880196598637,3.8569424699071737,2.5594358418335177,1.4450268470990906,0.6849432990754644,0.28316039370507917
0.0,30.0,30.0,0.0,120.0,0.0,0.0,0.0,0.0,-107.0,0.0,-45.0,0.0,0.0,0.0,34.27253218749016,17.55503396713325,10.454813753099,9.702923134574316,9.322227514953378,8.690260327051304,8.07189929206374,7.239899520726419,6.415926873129382,5.420610522557653,4.240398564161212,3.035323047153816,1.8817213686589775,0.9461678605288634,0.47157489571776356,0.10576774058570752,0.02864643553939718,11.093276214705783,10.65390844150618,10.382324980721823,10.059000391119413,9.649338525661717,9.09860931712027,8.418641815603053,7.651574506557117,6.5962817161714495,5.302651131988611,3.830066521525807,2.4417035537858176,1.34990802449569,0.6715264410918133,0.2514224587181685
0.0,31.0,31.0,0.0,120.0,0.0,0.0,0.0,0.0,-107.0,0.0,-45.0,0.0,0.0,0.0,34.27253218749016,17.55503396713325,10.385850316988126,9.672044479532163,9.117205703783387,8.730150822496858,8.068216269507243,7.258549193292612,6.457841255830185,5.357542354318153,4.2230554175371875,3.010754179879208,1.916548390698991,0.9927292586801866,0.4288925689359006,0.112726275418026,-0.016955379510914033,11.156342216427637,10.6835130852209,10.40467032986021,10.085374199701088,9.634723627371972,9.104529367249802,8.500984733795821,7.662372161380194,6.616245305414747,5.282478619035163,3.819030556325947,2.4107711456747705,1.3437591508051256,0.6319885703775541,0.2557255227781971
0.0,32.0,32.0,0.0,120.0,0.0,0.0,0.0,0.0,-107.0,0.0,-45.0,0.0,0.0,0.0,34.27253218749016,17.55503396713325,10.395892684614768,9.685058966271072,9.208482402813884,8.62277713426204,8.125386733272748,7.289540371771044,6.458042935073485,5.331201546754419,4.2322590853285575,2.975262124118573,1.7718574062041632,0.9769409542968501,0.39893472451148404,0.114116066348721,0.018389281719490044,11.117542868844616,10.701152230507999,10.3987818959878,10.095332008273736,9.663007538057022,9.154668513231252,8.513355805649539,7.625427036087127,6.489447869484072,5.2371616286046505,3.78109697817908,2.3921565636256865,1.2766173119381141,0.5941368930665408,0.2603503731569776
0.0,33.0,33.0,0.0,120.0,0.0,0.0,0.0,0.0,-107.0,0.0,-45.0,0.0,0.0,0.0,34.27253218749016,17.55503396713325,10.46920771554615,9.642285971328262,9.281714897328776,8.69187826838791,8.007578501556711,7.400959567001654,6.402058669334709,5.380466339027756,4.159091303611142,3.0108635627085256,1.7421441160994393,0.9859139708986029,0.43229759385718214,0.20479515181414207,0.08131089601691362,11.196241352884842,10.75390303978373,10.447469458835839,10.090678891821758,9.681756557258522,9.177632114883997,8.463061323508372,7.589748750223961,6.470200444060537,5.215951927417534,3.7275946253695746,2.3278716161668846,1.2671108600751069,0.5688140565743448,0.23758913020516134
0.0,34.0,34.0,0.0,120.0,0.0,0.0,0.0,0.0,-107.0,0.0,-45.0,0.0,0.0,0.0,34.27253218749016,17.55503396713325,10.38292132020418,9.768357145966352,9.325793024707846,8.703193172964221,8.044730053178894,7.288433625599517,6.402851780439069,5.360427181625439,4.1415128553832705,2.927984769668148,1.7475644098624554,0.8738387769614914,0.37870815355676446,0.1984229039487477,0.0037219737446079065,11.151305920141722,10.735606882726115,10.416193558760295,10.163417064070988,9.676864204237637,9.167792350846794,8.465576910782058,7.6580309758888765,6.494582237813566,5.138561491294287,3.654187080586905,2.295136292078241,1.2466311199739932,0.5706270309906294,0.20435961581505951
0.0,35.0,35.0,0.0,120.0,0.0,0.0,0.0,0.0,-107.0,0.0,-45.0,0.0,0.0,0.0,34.27253218749016,17.55503396713325,10.388091413859488,9.728200287085981,9.240535082430489,8.745088293441562,8.072948491884961,7.264349772038111,6.417293203640864,5.377514039966847,4.16209943008654,2.899310065943747,1.7146001549098184,0.8285006735466898,0.3664898027492105,0.11223245665087142,0.031566724796793594,11.101690572477931,10.712684435886517,10.401979865443511,10.092188385465557,9.669275707750616,9.098171485338892,8.46078078106646,7.5741870346125575,6.472243920146416,5.080275768392749,3.600635802103935,2.199200182724649,1.266102095949536,0.5587566580325314,0.20602149801463904
0.0,36.0,36.0,0.0,120.0,0.0,0.0,0.0,0.0,-107.0,0.0,-45.0,0.0,0.0,0.0,34.27253218749016,17.55503396713325,10.402079749994941,9.678697373363686,9.161148756921815,8.70261455927374,8.07698443848806,7.312335037555519,6.411550204938501,5.330953935710052,4.123887396633248,2.824783399340285,1.7036124714183267,0.8593070741519747,0.37159390906253953,0.20510997686793012,0.05132582325076449,11.192464760304237,10.720024755901896,10.430802666377618,10.079191685405826,9.651497120853197,9.198748480499017,8.449983594652261,7.5837176335155325,6.39320570747295,5.014204748935244,3.542331140515464,2.1920539390040976,1.1888704018270988,0.5498965582348304,0.2144545037777844
0.0,37.0,37.0,0.0,120.0,0.0,0.0,0.0,0.0,-107.0,0.0,-45.0,0.0,0.0,0.0,34.27253218749016,17.55503396713325,10.440277713033467,9.750830118409185,9.283035669647893,8.716887717152343,8.088206641055606,7.248151735784992,6.42714189302799,5.230402904268094,3.9992821852055593,2.7813043209569757,1.6999594010961707,0.8573992995805121,0.37480013978458077,0.09158391081736669,0.1234532263987343,11.187400555747248,10.651524875413186,10.383371930879507,10.13000619599283,9.619082094499692,9.13058247842069,8.445156787820922,7.513491838811559,6.391099287495081,4.995072190152265,3.4982438446362685,2.121357972301277,1.1308271847369618,0.5429608208056138,0.19997010817222144
0.0,38.0,38.0,0.0,120.0,0.0,0.0,0.0,0.0,-107.0,0.0,-45.0,0.0,0.0,0.0,34.27253218749016,17.55503396713325,10.5128163290195,9.703948812422354,9.275490526745516,8.695612577892243,8.086053290576997,7.180322635545965,6.473923134422864,5.178055822648513,4.006197527135226,2.7812815194494815,1.6048841006814873,0.7351529020276033,0.30047640894557437,0.13999979099488458,0.03039820003075722,11.161934521249101,10.810061491934494,10.487835400820444,10.12106508177358,9.65312134276555,9.133097726549213,8.434703915333959,7.523223927711026,6.32342680003551,4.96043499273797,3.3874380688384016,2.1030397269840546,1.0915404971312739,0.503849170716049,0.20140295740263192
0.0,39.0,39.0,0.0,120.0,0.0,0.0,0.0,0.0,-107.0,0.0,-45.0,0.0,0.0,0.0,34.27253218749016,17.55503396713325,10.396842089085554,9.790549587072258,9.208211166629761,8.745536440938858,8.074375756209694,7.2305448048227055,6.3700664268348115,5.178027206953429,3.9860365655940684,2.717025721600698,1.5430752941621646,0.7660490890724596,0.3426035109972754,0.11107781142234882,0.03420221090305631,11.161982808639149,10.737669645056707,10.483610701565064,10.12710997797986,9.685062405477181,9.129762732107869,8.42369605233415,7.498685614304088,6.346801722550746,4.893126548566238,3.413932310965026,2.0361851026930777,1.07561843842315,0.4798702090182587,0.14527999281585788
0.0,40.0,40.0,0.0,120.0,0.0,0.0,0.0,0.0,-107.0,0.0,-45.0,0.0,0.0,0.0,34.27253218749016,17.55503396713325,10.399828913174577,9.714344132715027,9.269868405795682,8.727906195623738,8.026905918970211,7.331155763003551,6.426580859745784,5.208426126782052,3.856833427384057,2.673957433728699,1.5282502532002902,0.7475200889706871,0.34928493088108015,0.0784854029356762,0.06475933653296251,11.177697136021216,10.720181151301011,10.490730797773896,10.118638064457958,9.741715052671946,9.175462356611822,8.443196210019973,7.472128520080203,6.2732703796285225,4.7966210370642965,3.318785909713027,1.9733667609478374,1.0510550557557945,0.4503681940026881,0.1847253411246124
0.0,41.0,41.0,0.0,120.0,0.0,0.0,0.0,0.0,-107.0,0.0,-45.0,0.0,0.0,0.0,34.27253218749016,17.55503396713325,10.475752350477025,9.804102607172535,9.279241549624695,8.668215932493066,8.038557803580247,7.342141439373809,6.333013135993503,5.136150216524634,3.852619812073187,2.5894530894113523,1.514354863280387,0.7143704953913815,0.2658585568780689,0.1522225812099062,0.0343757267091397,11.238404633740421,10.740492676885866,10.453939215781412,10.105259399486881,9.670723413879303,9.182242175268224,8.443548995551879,7.435473520281036,6.2176245943378445,4.719906486232138,3.259214463686522,1.9069782308850993,1.0209908153783342,0.4618256639514856,0.17059588071191997
0.0,42.0,42.0,0.0,120.0,0.0,0.0,0.0,0.0,-107.0,0.0,-45.0,0.0,0.0,0.0,34.27253218749016,17.55503396713325,10.445969684563712,9.682862245899342,9.328742473107468,8.685905617934598,8.054781285006761,7.3024958679115635,6.229671973676749,5.077240244746373,3.8515610627597114,2.551491104701653,1.4538528653226914,0.6409571410353062,0.22897658091794823,0.15825932066705478,0.047429913068900445,11.226712188540382,10.745947099963656,10.466947005903688,10.081564354743977,9.682890756895315,9.17235377217919,8.382781281414953,7.41834572053506,6.128389911340592,4.693609583472846,3.175364171748474,1.8953048550537932,0.9579513273434083,0.45813453783985253,0.1850921627694158
0.0,43.0,43.0,0.0,120.0,0.0,0.0,0.0,0.0,-107.0,0.0,-45.0,0.0,0.0,0.0,34.27253218749016,17.55503396713325,10.490776847140662,9.653305919246138,9.254881402853979,8.693069973840426,8.11183121729709,7.278779086076565,6.3369680084727,5.074836046873564,3.7872810970991715,2.460875377622579,1.371988972021256,0.6713036964400005,0.28143188341916836,0.11488970034124554,0.026210769357022504,11.155294721320743,10.656966559411186,10.39859971235706,10.149088331719804,9.77276850637808,9.16723673245725,8.377978651558243,7.40255060547134,6.074599703721688,4.618739269825956,3.0897126995542923,1.8240435966284692,0.9017473723851583,0.38563184440882065,0.1604688000688076
0.0,44.0,44.0,0.0,120.0,0.0,0.0,0.0,0.0,-107.0,0.0,-45.0,0.0,0.0,0.0,34.27253218749016,17.55503396713325,10.38283436052433,9.725356215419419,9.247429887234887,8.740161622042256,7.987797769085397,7.233215274962054,6.326542052828397,5.00855030530559,3.7088904340940005,2.4507410357368213,1.4178577542921662,0.604494447652925,0.2764487253677498,0.006106177113673061,-0.04135500310681742,11.18258790204616,10.785544364754251,10.46271415272175,10.129289931496437,9.663923146432507,9.150715555104073,8.359956399224428,7.374472898717429,6.0679795979962075,4.618220040314015,3.066348686075743,1.7708662826552124,0.8936101953440316,0.3813471969530938,0.1718315437080264
0.0,45.0,45.0,0.0,120.0,0.0,0.0,0.0,0.0,-107.0,0.0,-45.0,0.0,0.0,0.0,34.27253218749016,17.55503396713325,10.455755029202736,9.652312500116087,9.190781217629656,8.692837055114264,8.127097686757232,7.251912611168571,6.267219741534609,4.944912525052498,3.658368269958582,2.3515114201231064,1.2841951554490536,0.6416089012791327,0.2619435009131863,0.013827218615829702,-0.015998981636741485,11.228108841151911,10.76427515155557,10.489832491132969,10.169879914648432,9.75203048922237,9.171064254236594,8.345776904920331,7.343447329270655,5.980335993586492,4.491877236511039,2.965558561151217,1.7019499567051284,0.8723049022015564,0.39007671866294413,0.1217819179584635
0.0,46.0,46.0,0.0,120.0,0.0,0.0,0.0,0.0,-107.0,0.0,-45.0,0.0,0.0,0.0,34.27253218749016,17.55503396713325,10.456258022016973,9.783919395051548,9.183374525475589,8.70898357344219,7.954830960659991,7.230188381068486,6.152607486277687,4.933543282011791,3.61903783832813,2.316637903793181,1.271415771267118,0.5903685780740118,0.12685937741020636,0.05423121272231579,-0.04111976374876236,11.212548800771339,10.751255377242988,10.48395820673992,10.123731184707514,9.718607202173857,9.123097692342345,8.312731956469971,7.305983496934166,5.945378407930492,4.454771169457338,2.90530248107329,1.6169743192671298,0.8060766512105209,0.3734663132879494,0.1404973925892798
0.0,47.0,47.0,0.0,120.0,0.0,0.0,0.0,0.0,-107.0,0.0,-45.0,0.0,0.0,0.0,34.27253218749016,17.55503396713325,10.47564747509277,9.647940975630947,9.227834462791934,8.735898388749401,8.116946771019597,7.263564323163124,6.161364143825861,4.9230558560835505,3.533762568807471,2.278172495070492,1.1521407972271833,0.5438490136185177,0.23147559093618134,0.07713144420317529,0.09479433244095274,11.230191768663744,10.780416737845709,10.49804695280586,10.147610181073045,9.739014366554308,9.151147642899323,8.32468699290673,7.231189185274693,5.838276178227914,4.302637650776719,2.815104849574588,1.597380363611027,0.7853501148460399,0.34789804993836304,0.13709321319460993
0.0,48.0,48.0,0.0,120.0,0.0,0.0,0.0,0.0,-107.0,0.0,-45.0,0.0,0.0,0.0,34.27253218749016,17.55503396713325,10.48052534821326,9.68984863698537,9.27791630021526,8.792823110469662,8.06779440360026,7.23884088172654,6.158292658347892,4.800112137006856,3.4405755486275487,2.136819497011512,1.1576490901777055,0.551785680733516,0.20025551678189643,0.05872204765623239,0.011339834340081574,11.253742983774847,10.736525406177025,10.487002606413238,10.168027154841452,9.65740273896569,9.098032345011159,8.35686798417867,7.173779782415583,5.788036411239435,4.242340908659608,2.7291871320143235,1.547179709810141,0.7404713248343737,0.2988539384622572,0.09171567029584828
0.0,49.0,49.0,0.0,120.0,0.0,0.0,0.0,0.0,-107.0,0.0,-45.0,0.0,0.0,0.0,34.27253218749016,17.55503396713325,10.506503417300397,9.60242041340999,9.210464274276445,8.74093567594041,8.130304250450523,7.270971110207824,6.111706172028753,4.725840347009174,3.3542625459653843,2.089426986498134,1.0995166285493174,0.4559106340721313,0.1976687753579244,0.06363698219097008,-0.0006603522028741267,11.234485560305362,10.728407036947752,10.481267576812215,10.151502904316487,9.7131699766759,9.096950198127308,8.300785612730191,7.086304381428644,5.696736127089042,4.182945610942617,2.6656416233501026,1.4727564562540114,0.6430844130568562,0.27954838610141436,0.14310780172292759
0.0,50.0,50.0,0.0,120.0,0.0,0.0,0.0,0.0,-107.0,0.0,-45.0,0.0,0.0,0.0,34.27253218749016,17.55503396713325,10.414544861601177,9.650080930637367,9.249816882171727,8.729412080712256,8.039167259155635,7.155645469396031,6.101776899908272,4.725402500030755,3.3023918317745578,1.9970267533545594,1.0058262176200197,0.4834503680794621,0.2488920876646504,0.028888959169571,0.025616686893271914,11.254479480070486,10.810897093552697,10.483389704836638,10.123185774950755,9.707088637035886,9.101018163211627,8.20464079710453,7.028763898451354,5.6392185772072505,4.062143955381902,2.56662160689497,1.3796271360624182,0.6522687214976501,0.25209988916887005,0.12170506339708531
0.0,51.0,51.0,0.0,120.0,0.0,0.0,0.0,0.0,-107.0,0.0,-45.0,0.0,0.0,0.0,34.27253218749016,17.55503396713325,10.507597972835397,9.685212797518288,9.253282808519108,8.727791579878991,8.083464466188072,7.144696893664308,6.025441421783914,4.58333373566041,3.2100823286282116,1.9765562163859947,1.043958926581936,0.4816388211799947,0.15342677520978587,0.048949421299793905,-0.037595564222108954,11.199211906860835,10.809497371138614,10.47050039068744,10.184059679341566,9.679998926634632,9.057939789409994,8.263954012452993,6.9888543868158814,5.514793649493257,3.9123880326632308,2.4787812370952027,1.4018003538748824,0.6144327034023522,0.24505149895804754,0.08929718768182746
0.0,52.0,52.0,0.0,120.0,0.0,0.0,0.0,0.0,-107.0,0.0,-45.0,0.0,0.0,0.0,34.27253218749016,17.55503396713325,10.516534288451727,9.737674204572247,9.201520775345681,8.6274803777643,8.014974300607276,7.134083813343926,5.915135765091265,4.513861471098053,3.1296639080123514,1.8566364308834011,0.9373749391120809,0.3940170033024309,0.17147359872908355,0.03932645397969872,-0.013768066535307684,11.196035985694637,10.7936950869049,10.52491176360856,10.17604571575701,9.625200658757144,9.101469024084492,8.152034790080197,6.8917279204872886,5.43501118348957,3.8541269462975207,2.42363004235767,1.2974206398851063,0.5840708886984379,0.25473584969315904,0.08976145697667254
0.0,53.0,53.0,0.0,120.0,0.0,0.0,0.0,0.0,-107.0,0.0,-45.0,0.0,0.0,0.0,34.27253218749016,17.55503396713325,10.384585815633027,9.708759589827238,9.241560665598122,8.71074262545131,8.047841520587172,7.03940990047904,5.885540847246792,4.469109673556162,3.0746549133636147,1.8512925091687167,0.9402641716530464,0.33203174507898925,0.10277230715831563,0.07414316653970474,-0.004018604004528848,11.265452428952441,10.75284783987044,10.477521631580988,10.158436525454503,9.72144069211641,9.062473243343113,8.089825761244288,6.790429797589746,5.3290504685807845,3.716751075390791,2.330343178171921,1.18041541486978,0.547042929152599,0.2429160061436165,0.0954192106924103
0.0,54.0,54.0,0.0,120.0,0.0,0.0,0.0,0.0,-107.0,0.0,-45.0,0.0,0.0,0.0,34.27253218749016,17.55503396713325,10.521069086018041,9.635693374938304,9.2602990150134,8.785834359921564,8.003523532673448,7.129348486688938,5.8195633625445025,4.360520941643693,2.9324527624844645,1.7194683815258056,0.8606184495323963,0.3239418684596815,0.14098796563321142,0.02034315280294286,0.008950327976430306,11.23199483525593,10.803511844836233,10.543211554676782,10.161773933000335,9.727846737392783,8.995291447497621,8.023236982960295,6.709762923977487,5.211374234756436,3.675439312982955,2.1899944511133587,1.1071160180008266,0.5132847679041782,0.20339349747909605,0.07125907169605981
0.0,55.0,55.0,0.0,120.0,0.0,0.0,0.0,0.0,-107.0,0.0,-45.0,0.0,0.0,0.0,34.27253218749016,17.55503396713325,10.470172047144661,9.68658611516114,9.238184357058305,8.682094612274971,7.9314929966643835,6.959112895270168,5.7127185782432255,4.284279584949393,2.7716658047573657,1.6571439582415814,0.8657601234297096,0.3825724778931908,0.10857465243427859,0.10209243026341935,0.0036883962319005474,11.257446289341,10.826421544028605,10.48659386301491,10.089356873235415,9.720033718833948,8.940425723915924,8.019418772610948,6.627523181153867,5.151461492010132,3.512960078213151,2.1061311392491677,1.0826374778067052,0.4796293058587566,0.16958517227475825,0.06483326243178042
0.0,56.0,56.0,0.0,120.0,0.0,0.0,0.0,0.0,-107.0,0.0,-45.0,0.0,0.0,0.0,34.27253218749016,17.55503396713325,10.363075268217317,9.665382645882314,9.237164606793671,8.75030442513024,7.9614497587514705,6.840670039117283,5.600452289225924,4.200433840290146,2.7396224188309994,1.5675671575822203,0.7043705770882963,0.3635756158354231,0.11959690605547876,0.12513540621708902,0.009334155978649531,11.264220133814785,10.776904492347429,10.470313987803088,10.199406460984383,9.720113937924662,8.909919310184286,7.947716195270623,6.555168172909151,4.997747899688112,3.372129033591767,1.9861717997726775,1.0373908732194908,0.454719996277295,0.1976257036940493,0.06641525231895778
0.0,57.0,57.0,0.0,120.0,0.0,0.0,0.0,0.0,-107.0,0.0,-45.0,0.0,0.0,0.0,34.27253218749016,17.55503396713325,10.44152566347965,9.761392576010012,9.172706293755105,8.63021377815719,7.9362398095736,6.9158380118019585,5.48880811893559,4.073027955736584,2.6935996211207245,1.5635584048280133,0.692304790274864,0.29939837221388244,0.1108926484702358,-0.024716083459088347,0.058890056079155255,11.212330230442594,10.818071815116602,10.525942924456055,10.124999435658419,9.701163726391675,8.941488644533774,7.8037188831127,6.401862180115766,4.880537444524775,3.243513072407167,1.8781511705896123,1.0089468518773739,0.43746723207781696,0.18225128089505263,0.07350281377506108
0.0,58.0,58.0,0.0,120.0,0.0,0.0,0.0,0.0,-107.0,0.0,-45.0,0.0,0.0,0.0,34.27253218749016,17.55503396713325,10.417085682274553,9.79496285994304,9.28928181208806,8.762308260871281,7.947650862537314,6.8691489531379535,5.411059716784605,3.958276496153011,2.5776868217006412,1.3830523888630302,0.675526407750841,0.2839928282070215,0.03354407880925757,-0.0021718190710412442,-0.01951597665426069,11.242909158098922,10.798294502556688,10.482528991638079,10.137273453245195,9.627526232118305,8.889929247960742,7.727507793807388,6.325987201312484,4.7528226939994305,3.149346778444019,1.8338530429353301,0.894517380381682,0.4179933901999141,0.12922109156399894,0.11014585905666606
0.0,59.0,59.0,0.0,120.0,0.0,0.0,0.0,0.0,-107.0,0.0,-45.0,0.0,0.0,0.0,34.27253218749016,17.55503396713325,10.41578891044297,9.760259075436052,9.196640239901988,8.719136774131242,7.918113295433895,6.664906513520144,5.384869208675841,3.802745811705661,2.3737466005753314,1.3246632041973234,0.6192970517358454,0.18384322405275555,0.1260875272679456,0.02371540369702254,-0.005018380831595932,11.292409304338133,10.834809801538322,10.485730273120533,10.211990478414425,9.611899686108199,8.767669848584353,7.686014504697411,6.191720297262941,4.581201370152605,2.9880026098638277,1.6781691825934468,0.8840806137082269,0.39223065358910053,0.1366379208876587,0.06152490526216509
0.0,60.0,60.0,0.0,120.0,0.0,0.0,0.0,0.0,-107.0,0.0,-45.0,0.0,0.0,0.0,34.27253218749016,17.55503396713325,10.46568101016547,9.730087284710738,9.306104816366673,8.659444019258705,7.787933542959378,6.683366036436341,5.195109757830612,3.737724936815442,2.2765875344818043,1.1873048528491414,0.5711174253322104,0.19814399642745462,0.047524294541551895,0.007501280459768871,0.03659006407196081,11.298511672945091,10.848679723654495,10.479303827335018,10.163211965942264,9.583604396018078,8.727711769910321,7.555395261002593,5.99907475475588,4.439361356293452,2.876256739577696,1.6067382868352307,0.7699372624706418,0.34284630498883656,0.1312280048294172,0.0772312826185885
0.0,61.0,61.0,0.0,120.0,0.0,0.0,0.0,0.0,-107.0,0.0,-45.0,0.0,0.0,0.0,34.27253218749016,17.55503396713325,10.511500144113741,9.709862159395586,9.206041351682044,8.618320683267191,7.753055578422948,6.5878091914611,5.068116627578118,3.543563348684711,2.1778883769586517,1.1268181939339648,0.48126157181480245,0.11652820380316582,0.08928802582573009,-0.07836937648922884,-0.020819623348384008,11.25560017707856,10.833038867290119,10.524119077185656,10.132797921974147,9.575886868113347,8.66056253160849,7.411512033172761,5.88231656087437,4.24764568316527,2.7105559991677675,1.4993818290520788,0.7575837049783127,0.32587081023992287,0.1013213570439712,0.031091794895461006
0.0,62.0,62.0,0.0,120.0,0.0,0.0,0.0,0.0,-107.0,0.0,-45.0,0.0,0.0,0.0,34.27253218749016,17.55503396713325,10.50561445311918,9.777879222211805,9.211462327759197,8.630496810116458,7.653546155964406,6.481399662727586,4.96867070242707,3.468272522812028,2.0504424771875827,1.0408687511411763,0.4991696565994714,0.1409953734307567,0.07477158682302247,-0.00823855993843309,0.020763483744522873,11.269934898075135,10.830612575626184,10.489231713784877,10.065443938378394,9.515849114664693,8.578781856147536,7.303086982440669,5.720414669317497,4.083921692862381,2.56591839053392,1.3773326480845542,0.6465724807302632,0.2587389885925436,0.11765928253915746,0.06717929043708502
0.0,63.0,63.0,0.0,120.0,0.0,0.0,0.0,0.0,-107.0,0.0,-45.0,0.0,0.0,0.0,34.27253218749016,17.55503396713325,10.49270978734762,9.770905951090953,9.25254948613986,8.565566578057327,7.659941726604684,6.356037810970891,4.809888515282406,3.2597358442455424,1.9159981392822594,0.91475098169992,0.4382597746463501,0.10482051013049526,0.022679757021500293,0.021717220992324832,0.008093451217765314,11.2032115436247,10.811292676140596,10.509553855939851,10.087571315363082,9.350343537002692,8.463613387825395,7.163155576330913,5.5343799850731665,3.880146667043298,2.4443759146759456,1.2880826693007579,0.6279020677829192,0.2559405903548977,0.11029467080663868,0.023911719383281366
0.0,64.0,64.0,0.0,120.0,0.0,0.0,0.0,0.0,-107.0,0.0,-45.0,0.0,0.0,0.0,34.27253218749016,17.55503396713325,10.429780543553738,9.765980495185259,9.13013388646208,8.454848734164717,7.559593247348183,6.120904908820585,4.632742093363368,3.0350214650778407,1.7802380539032747,0.9089195903780449,0.36308933198220766,0.06267055108728553,0.020183155850971208,0.027885949863300393,-0.00965639126842429,11.23843633464293,10.846455118063917,10.488344310172454,10.043707183809756,9.404965643167849,8.418331125068022,7.017117344918534,5.338759793565506,3.7041414370357675,2.220811162782493,1.1885401131216866,0.5421092723216472,0.22293543615999956,0.07696044739135618,0.051790169006546524
0.0,65.0,65.0,0.0,120.0,0.0,0.0,0.0,0.0,-107.0,0.0,-45.0,0.0,0.0,0.0,34.27253218749016,17.55503396713325,10.421101344855252,9.708113126686202,9.148567646274024,8.443903864131498,7.461489847825219,6.124189145539966,4.447994888907712,2.9150657962304773,1.595074888733209,0.8028125391239022,0.2377706517000276,0.053314555547487374,-0.0074706897553720245,-0.06756718617746443,-0.0018069694953247758,11.292015623101491,10.817601736529731,10.523155195533855,10.103771883670023,9.304708459622086,8.217114658602414,6.800161969130698,5.125277042281543,3.5281492785741557,2.0549700207613735,1.1049367373277055,0.4808826162433815,0.23149584968926873,0.11324405717138633,0.028463048838345547
0.0,66.0,66.0,0.0,120.0,0.0,0.0,0.0,0.0,-107.0,0.0,-45.0,0.0,0.0,0.0,34.27253218749016,17.55503396713325,10.447874687414464,9.69760418306098,9.127108651309575,8.403587640095338,7.224755719544275,5.888352213744207,4.270343124654738,2.7272677905298424,1.4985228688020122,0.7308008630911113,0.17726345628656012,0.11088696797176699,0.07407521932716424,0.026071651580655178,0.023120306408215253,11.313953549763074,10.724821426637195,10.496547306321279,9.964885601638178,9.176457327434003,8.114276478094746,6.648208328090119,4.941343242266784,3.30517665001949,1.8783597838351629,0.9500397698274158,0.3949796808690482,0.17535754695965772,0.06529125979974372,0.027273262161537554
0.0,67.0,67.0,0.0,120.0,0.0,0.0,0.0,0.0,-107.0,0.0,-45.0,0.0,0.0,0.0,34.27253218749016,17.55503396713325,10.521463511524841,9.70809056477451,8.990426220363737,8.253296879838677,7.120936761914772,5.671250458704021,3.9948375410660852,2.5084363774344793,1.4128426138768486,0.6502237199986138,0.19876838787058873,0.13957210623525496,0.05017253127749374,-0.021492838840024214,0.018586825591229008,11.31110494752466,10.736638763300729,10.43062199190587,9.93283727349698,9.128400917222525,7.975979184158842,6.4147388812786525,4.642278481584156,3.033277052473306,1.730402758947446,0.8140147621418161,0.44437076077188675,0.17276645611133495,0.11642649892225439,0.02101611093636786
0.0,68.0,68.0,0.0,120.0,0.0,0.0,0.0,0.0,-107.0,0.0,-45.0,0.0,0.0,0.0,34.27253218749016,17.55503396713325,10.524579879661534,9.685335394680964,9.042322383947024,8.260211804783214,6.983006947974356,5.440755884762348,3.8023331348474843,2.341313135312463,1.1786536098513192,0.48449387633512975,0.14067899524439115,0.06430410729701054,0.03962735152541977,-0.06918219263217416,-0.003360620726380413,11.281114809209233,10.815113412093213,10.390606301274824,9.858123479507746,8.963216721644127,7.783552187428784,6.159898225242994,4.40297392611831,2.7924220016305217,1.553332517903503,0.7841515678128522,0.36052407130676994,0.16830014557143916,0.10921856584467839,0.019617292227528976
0.0,69.0,69.0,0.0,120.0,0.0,0.0,0.0,0.0,-107.0,0.0,-45.0,0.0,0.0,0.0,34.27253218749016,17.55503396713325,10.48170356555459,9.629437257097113,8.826655988867453,8.018230239187803,6.775344903708535,5.18233153928588,3.507952275524377,2.0916829944856414,1.106193285659701,0.46543327690525454,0.2031883326981659,0.06994561708839424,-0.017912061870458608,0.016460250919720927,-0.02857364537845825,11.288157416534736,10.74163383465233,10.305634577832036,9.761115841592664,8.861594700821618,7.5618470956488455,5.866956644997999,4.086094657267118,2.5262695664674277,1.3975030163897744,0.6810523799991145,0.29459833292111115,0.13329516914832878,0.05726819835323026,0.04561534743934617
0.0,70.0,70.0,0.0,120.0,0.0,0.0,0.0,0.0,-107.0,0.0,-45.0,0.0,0.0,0.0,34.27253218749016,17.55503396713325,10.518757417825306,9.584896993892968,8.803142065102188,7.861991690411599,6.522454064103606,4.936942631071351,3.335527286280285,1.8297529372883758,0.8478340383099001,0.3355935616806306,0.1554465231823275,-0.003767359010365859,-0.020326075727671915,-0.05979282658348388,-0.00033178217961014216,11.28674203467393,10.800400716520397,10.291868819413727,9.65826077454948,8.575312513387912,7.221031962093809,5.580405154906251,3.7778137461638135,2.276182037672957,1.2339807816962673,0.5931376796941457,0.2656912523400693,0.09678112793228957,0.05236520582308393,-0.02793800114803565
0.0,71.0,71.0,0.0,120.0,0.0,0.0,0.0,0.0,-107.0,0.0,-45.0,0.0,0.0,0.0,34.27253218749016,17.55503396713325,10.497879347234317,9.559727673738804,8.729724092809096,7.623313128877305,6.215805989094384,4.560487943883285,2.88344192486301,1.5092199183482968,0.7615115814363633,0.2882793660171929,0.08979100940141577,0.10121137384221235,-0.04854537503275,0.0037189836021281424,0.009056047382073598,11.190913344326512,10.681591596196592,10.183747896038982,9.44869192416962,8.418615521943655,6.958206380966173,5.194536027872463,3.400906955177747,2.0421182550320993,1.069379090833303,0.49205241205838784,0.21443001917979007,0.11446465587968976,0.03293234067145555,0.00724480687165637
0.0,72.0,72.0,0.0,120.0,0.0,0.0,0.0,0.0,-107.0,0.0,-45.0,0.0,0.0,0.0,34.27253218749016,17.55503396713325,10.48835099759433,9.337512066752648,8.545940829705945,7.341745001699913,5.9172392782856225,4.12604831848277,2.536104358247509,1.3295840164579966,0.5772796837039791,0.2501536158838802,0.09450778906399415,0.03198644038771871,0.03687315781780277,0.03072143327843259,-0.02550813358683172,11.3174702395767,10.610973354744836,10.043342572651698,9.275676679311964,8.107637822857212,6.570369747986215,4.765744564748883,3.0734509752991874,1.7534847798262148,0.8660787824566892,0.3985451630804058,0.17226138501660904,0.06380895592090202,0.030744330121175653,0.021911385727256497
0.0,73.0,73.0,0.0,120.0,0.0,0.0,0.0,0.0,-107.0,0.0,-45.0,0.0,0.0,0.0,34.27253218749016,17.55503396713325,10.421999354223153,9.173406041861433,8.224578612415414,7.030045519610415,5.468582315235718,3.6815437506876125,2.240739697928113,1.1283514339143879,0.4704211106702547,0.14046036458649208,0.08622410327774063,-0.00013853837348415735,0.030152940439216375,-0.07233187319588558,-0.006680952111472907,11.264262656857621,10.521664821241998,9.940138697507635,9.038199648203525,7.743490641107033,6.180158933006236,4.311243115582032,2.661973894056914,1.504744752122001,0.7447740864379866,0.33239194042608816,0.13456779057477006,0.09138373971064825,0.05187987575821526,-0.01386514112940353
0.0,74.0,74.0,0.0,120.0,0.0,0.0,0.0,0.0,-107.0,0.0,-45.0,0.0,0.0,0.0,34.27253218749016,17.55503396713325,10.377070078707751,9.064835373252079,8.015059795787,6.6760309807835805,4.955325792871554,3.1826091160229084,1.844517270833796,0.8520701491055741,0.35020590024094256,0.11263777626831552,0.051602070407137296,-0.022251167490426296,0.100954990950662,-0.04049482383988708,0.013020797226241191,11.274511039319918,10.506407895890506,9.789697037945388,8.74293324184556,7.377287492042338,5.627268946143541,3.7963119269244516,2.240179703138361,1.1949316285552876,0.5940103627347274,0.2624472132171231,0.12712892217451477,0.05562190873526246,0.02948532105395693,0.06398023299881636
0.0,75.0,75.0,0.0,120.0,0.0,0.0,0.0,0.0,-107.0,0.0,-45.0,0.0,0.0,0.0,34.27253218749016,17.55503396713325,10.271622712262106,8.812109967609505,7.5479531106471685,6.096445468016366,4.42424684346605,2.701513177874177,1.4187444770111763,0.6238635987901522,0.26426508310293706,0.015537450850300671,0.04790711228674633,0.09266390945831698,0.03510797064088592,-0.013078022034957457,0.04959129057812024,11.149498011635869,10.246501681688047,9.454185532820551,8.293709810495269,6.757627499800558,4.978501150788697,3.197298228143566,1.7802095435494167,0.9807031801874422,0.44479207413589267,0.2325923854774558,0.09418925317114378,0.04671811984302013,-0.00897473035652913,-0.017408097767298635
0.0,76.0,76.0,0.0,120.0,0.0,0.0,0.0,0.0,-107.0,0.0,-45.0,0.0,0.0,0.0,34.27253218749016,17.55503396713325,10.146502691965159,8.340147980165332,6.906760039057316,5.373743681634748,3.6027238041057643,2.1507946515419682,0.9918851049886366,0.43788124758636077,0.16838725716854674,0.07581548920785576,-0.026567174423959394,-0.026219971611435418,-0.026594721113551576,-0.008037958700743501,-0.0022289805212877675,11.118818296900944,9.97859252318466,8.998419853943547,7.664721766910216,6.00903891154316,4.205260798858152,2.5825888828702013,1.3965684327398735,0.7349155400137277,0.34820624677392603,0.1646976483571307,0.113187882325838,0.04169800548784748,0.01986559473761426,-0.05563082733367616
0.0,77.0,77.0,0.0,120.0,0.0,0.0,0.0,0.0,-107.0,0.0,-45.0,0.0,0.0,0.0,34.27253218749016,17.55503396713325,9.801043341810223,7.661289754703895,5.970916631190624,4.371297566479044,2.743710940315631,1.4882746171804957,0.6650404975785699,0.22622281586988363,0.08363277268059074,0.04246259119601994,0.028046906411529106,0.011393329578806123,-0.04780943203486804,0.03510648181889749,-0.009102362179958754,10.873623502877319,9.45750393780769,8.245271677532628,6.82966362897595,5.070937894084349,3.34133792146004,1.886995416529607,1.0343871085262912,0.5468439785982172,0.26211883306774847,0.11407810519717451,0.05924340119074514,0.03241641941471628,0.010383049227697746,0.012813323234134798
0.0,78.0,78.0,0.0,120.0,0.0,0.0,0.0,0.0,-107.0,0.0,-45.0,0.0,0.0,0.0,34.27253218749016,17.55503396713325,9.231953246516245,6.387253413792178,4.635134459837994,3.0234330453650538,1.6996620044755912,0.8327528997479774,0.40433181860609985,0.19643773254705416,0.03438738663348504,0.03802752766712711,0.012403040470661012,-0.010182453566543579,0.003997530681025925,-0.004187671111189861,-0.008463868894659908,10.509570770752632,8.587337121784623,7.053738979130668,5.456286774163315,3.7243303805135493,2.334926628546082,1.3219317631547463,0.7499851302372461,0.3344480935932114,0.20045090732512347,0.1179493121746495,0.08229282920124509,0.055749144193432715,0.007610973901336825,0.023566795080416876
