Line_number,Fiducial,Easting,Northing,Height,Elevation,tx_pitch,tx_roll,tx_yaw,txrx_dx,txrx_dy,txrx_dz,rx_pitch,rx_roll,rx_yaw,PX,PZ,S0X_time_1.086e-05,S0X_time_3.256e-05,S0X_time_5.426e-05,S0X_time_8.680e-05,S0X_time_1.411e-04,S0X_time_2.279e-04,S0X_time_3.689e-04,S0X_time_5.860e-04,S0X_time_9.115e-04,S0X_time_1.411e-03,S0X_time_2.192e-03,S0X_time_3.418e-03,S0X_time_5.339e-03,S0X_time_8.301e-03,S0X_time_1.338e-02,S0Z_time_1.086e-05,S0Z_time_3.256e-05,S0Z_time_5.426e-05,S0Z_time_8.680e-05,S0Z_time_1.411e-04,S0Z_time_2.279e-04,S0Z_time_3.689e-04,S0Z_time_5.860e-04,S0Z_time_9.115e-04,S0Z_time_1.411e-03,S0Z_time_2.192e-03,S0Z_time_3.418e-03,S0Z_time_5.339e-03,S0Z_time_8.301e-03,S0Z_time_1.338e-02
0.0,0.0,0.0,0.0,120.0,0.0,0.0,0.0,0.0,-107.0,0.0,-45.0,0.0,0.0,0.0,34.27253218749016,17.55503396713325,10.439453681770209,9.666844777816694,9.187912201391057,8.700583531084538,8.00614755577321,7.229326386233583,6.396121504294661,5.487871638088756,4.619954678238925,3.6470380131194604,2.5640599533607364,1.6189404235896798,0.7663775619446523,0.35580699164493496,0.23090472214539098,10.974339820141472,10.459670660597101,10.132075532096737,9.870001165508821,9.464977504934527,8.920591690774637,8.277729378003219,7.579351592590597,6.744140964395577,5.796071171262576,4.608605006287599,3.33149349192792,2.1480731111875477,1.2098205114721796,0.576393671711414
0.0,1.0,1.0,0.0,120.0,0.0,0.0,0.0,0.0,-107.0,0.0,-45.0,0.0,0.0,0.0,34.27253218749016,17.55503396713325,10.421616889558026,9.630098089644333,9.19742356143799,8.684810926166156,7.903147127497778,7.278775959262752,6.381511654407117,5.4625287865777175,4.504988717834734,3.552478389026021,2.5015852421507234,1.5647908856168193,0.8238480571584774,0.39563325024019647,0.11091873943683225,10.863836248659299,10.455366487092915,10.230969913965845,9.885630508089772,9.478619007296519,8.985764245921901,8.300733827012689,7.577975048049939,6.739948854234197,5.825156787576596,4.611930914291273,3.3344254066318,2.133254245069917,1.2236611702294482,0.5655780572163472
0.0,2.0,2.0,0.0,120.0,0.0,0.0,0.0,0.0,-107.0,0.0,-45.0,0.0,0.0,0.0,34.27253218749016,17.55503396713325,10.367667871845946,9.501788442594144,9.151425346741451,8.642180687474436,7.9939635408402125,7.216440628379952,6.392327478934886,5.422661302693752,4.56658727231322,3.5242830213006617,2.4905976427836354,1.50083812366652,0.6937584745086252,0.3712154205243422,0.12117784107753442,10.979146076857072,10.537212837037057,10.239378742948354,9.957143223137344,9.471430227375004,8.99646823843117,8.306703636443405,7.539515867597574,6.754251211969328,5.787525184519438,4.5941349255069674,3.311090478248088,2.1286800392137155,1.1723360984984728,0.5225592242225403
0.0,3.0,3.0,0.0,120.0,0.0,0.0,0.0,0.0,-107.0,0.0,-45.0,0.0,0.0,0.0,34.27253218749016,17.55503396713325,10.459976494699673,9.635382315210174,9.136264632365894,8.64245381481882,8.052311706303074,7.3069496794337025,6.387260492195065,5.483059369099859,4.5294737948743435,3.544643900568197,2.4355602910968774,1.5910174520969083,0.8010483339336361,0.3529693429722568,0.09288053676751801,10.92681940050931,10.540493473987901,10.262868445794272,9.91840873172331,9.503663626040563,8.927560261610452,8.278437284942306,7.5593377728194895,6.770399799282211,5.758956284136434,4.582896682440079,3.3098633376027933,2.0608784162187392,1.2121858019876808,0.5204475704041438
0.0,4.0,4.0,0.0,120.0,0.0,0.0,0.0,0.0,-107.0,0.0,-45.0,0.0,0.0,0.0,34.27253218749016,17.55503396713325,10.416890255592854,9.611020305551365,9.17229499087226,8.68804543039428,7.974319290686607,7.254180762543276,6.328856678788934,5.530467134374123,4.505317489195245,3.474404859902043,2.4961737202591423,1.5369124312399223,0.7548657657751872,0.40626387515492196,0.12374969703450253,10.969349428890018,10.541738183449546,10.236329857391967,9.915251441659878,9.47292838240107,8.94867992442747,8.313330099681766,7.594700611045771,6.77794275423051,5.763611931770173,4.562188710848811,3.28394333898866,2.0753842496286485,1.1201636358815596,0.5478589095475588
0.0,5.0,5.0,0.0,120.0,0.0,0.0,0.0,0.0,-107.0,0.0,-45.0,0.0,0.0,0.0,34.27253218749016,17.55503396713325,10.362494695693659,9.598553059770518,9.145822146999311,8.65747472060034,7.965694996908347,7.2846228337850345,6.451027338263121,5.447584486869112,4.528988055761673,3.5598377568723354,2.4643991612603613,1.5315582666430443,0.8476589900140017,0.3427982357044275,0.1574839241656752,10.967391233834078,10.552576929873927,10.232596154267673,9.876166635964939,9.459928876954,8.92401437722052,8.337228702438933,7.606515044995435,6.700778973026209,5.77451657515387,4.54483744801045,3.25735943981119,2.0741404695357653,1.1452723491627135,0.535804442864093
0.0,6.0,6.0,0.0,120.0,0.0,0.0,0.0,0.0,-107.0,0.0,-45.0,0.0,0.0,0.0,34.27253218749016,17.55503396713325,10.393641750841764,9.681965299789901,9.13558882110171,8.642358340945302,8.041083402991987,7.180538972797777,6.458201187776817,5.541419255786161,4.608177255998533,3.4977644637047756,2.5031626574331773,1.5217153906223906,0.776073450348263,0.3810466827738208,0.08943990820235317,10.999283166351987,10.529937147657035,10.220947201873845,9.903001814075914,9.524942091792214,8.952463643591456,8.272211740043598,7.618447397553313,6.785571881343408,5.757910626621343,4.561902140520151,3.2010603757384235,2.0233979261303565,1.0867815345064256,0.5354616409098646
0.0,7.0,7.0,0.0,120.0,0.0,0.0,0.0,0.0,-107.0,0.0,-45.0,0.0,0.0,0.0,34.27253218749016,17.55503396713325,10.426333269396892,9.58420583904466,9.147273450672358,8.634660027347653,8.075419375166918,7.266592743297213,6.446249466446751,5.449233586105244,4.638598377611694,3.469770546902887,2.358939569331168,1.5092135448793078,0.764764369230704,0.3233901206081339,0.14648019231435805,10.999987100030458,10.567196203551973,10.213849249215805,9.87491737747864,9.531812331471166,8.986169397809245,8.313313482694397,7.629185264353943,6.7955225206301275,5.776457665207168,4.525962641076782,3.21159741336161,1.9931066659446472,1.0489697628351875,0.4828553704161034
0.0,8.0,8.0,0.0,120.0,0.0,0.0,0.0,0.0,-107.0,0.0,-45.0,0.0,0.0,0.0,34.27253218749016,17.55503396713325,10.413982016836316,9.708575449219843,9.172712753137043,8.705565688061705,7.939315747716853,7.254626577354879,6.386264853741767,5.536460422640663,4.605093884335795,3.4744897813620432,2.4065437135532166,1.4292388721056748,0.7330402949291133,0.35494769186552516,0.24073372355418587,11.053822500120843,10.538953801338879,10.253621534318468,9.92362108262429,9.533789460070105,9.013716552773413,8.35329629337838,7.598719294705122,6.779173941510916,5.7117814901498445,4.493598740980002,3.164972392109278,2.000883769242406,1.030944249205306,0.5092908462141403
0.0,9.0,9.0,0.0,120.0,0.0,0.0,0.0,0.0,-107.0,0.0,-45.0,0.0,0.0,0.0,34.27253218749016,17.55503396713325,10.428494732116214,9.688734585480494,9.20364040182755,8.652254271644681,7.971580662953692,7.229253664543714,6.4470077437758055,5.525457702789003,4.48187493953465,3.427476230584609,2.341326101189303,1.527796746404025,0.7872201924966608,0.3148894870917757,0.12483202154950293,11.002332919040718,10.500667252700762,10.271431812618708,9.87891713340666,9.488272139964396,8.978472076005405,8.348840056650392,7.606432627779981,6.752800472034296,5.751110714318202,4.496801066769993,3.139219666658387,1.949420436286682,1.0356453962620717,0.4566641399828778
0.0,10.0,10.0,0.0,120.0,0.0,0.0,0.0,0.0,-107.0,0.0,-45.0,0.0,0.0,0.0,34.27253218749016,17.55503396713325,10.428623390350975,9.589192483161446,9.18963551322517,8.657914339796807,7.989784436511667,7.202795294767893,6.428285736952338,5.523053835721142,4.536760417387159,3.4595213310436237,2.406763711680775,1.365094483664191,0.7294556177047088,0.368673619460719,0.09170935259831234,10.998965694353533,10.580272438626157,10.315623241106797,9.948699053083425,9.566706681128224,8.979647373124523,8.306677723348807,7.6123452409708126,6.779654592284684,5.7609175562269535,4.468492442534425,3.144941591907831,1.9166389667778836,1.0531881464186872,0.4513291700252713
0.0,11.0,11.0,0.0,120.0,0.0,0.0,0.0,0.0,-107.0,0.0,-45.0,0.0,0.0,0.0,34.27253218749016,17.55503396713325,10.4854532218462,9.642370711459726,9.129461376493017,8.692614548344674,8.01740483233536,7.2902636755520955,6.450777823940342,5.496392857690292,4.4580455214922825,3.5176892071248327,2.3772179991342672,1.4334425178701855,0.6868334271977683,0.3028835582507135,0.05048900254466654,11.005579080889941,10.564756790220661,10.296697135056661,10.020916964516871,9.55104164500402,8.998100224399938,8.312187921841476,7.608617441093753,6.7341433409266855,5.697553029672034,4.46825645270388,3.1322473407739384,1.8608036948394242,1.006258875393933,0.45864650846107846
0.0,12.0,12.0,0.0,120.0,0.0,0.0,0.0,0.0,-107.0,0.0,-45.0,0.0,0.0,0.0,34.27253218749016,17.55503396713325,10.428341611135977,9.733607074047177,9.188179996155473,8.672119912207307,8.10896604805277,7.281008408224054,6.442279717456344,5.529961279170187,4.514793991946591,3.48983988090225,2.340697806828234,1.2799732375542539,0.688020958186859,0.29569978911315986,0.09393375006726384,10.974807239577213,10.613075042581452,10.252439132381767,9.993832924026476,9.519576430790353,9.013167865103785,8.377416726783888,7.648687987290582,6.746443868133857,5.696220069008459,4.447281218793331,3.045611011552396,1.8518140027668277,0.9978654789808296,0.43725488460461476
0.0,13.0,13.0,0.0,120.0,0.0,0.0,0.0,0.0,-107.0,0.0,-45.0,0.0,0.0,0.0,34.27253218749016,17.55503396713325,10.388101066189193,9.614121015083768,9.22383037378219,8.629596776892491,7.988504272767859,7.284349454612106,6.374023156805423,5.458638777470247,4.4986457998192995,3.4138156890257902,2.3266340558587775,1.3019917754228196,0.7516255733287537,0.18656070874857109,0.11273085450413724,11.031052199520223,10.585107094247464,10.290755699844738,9.976500833081131,9.531383059878138,9.042354137782798,8.371741983363055,7.640882874460366,6.788508849184952,5.692190656180156,4.432725107796635,3.047146780773278,1.8329574149667234,1.0228365365818646,0.43214192621736747
0.0,14.0,14.0,0.0,120.0,0.0,0.0,0.0,0.0,-107.0,0.0,-45.0,0.0,0.0,0.0,34.27253218749016,17.55503396713325,10.336512426188571,9.671038250292487,9.18521864335804,8.704821038402903,8.082512475698993,7.315731299906766,6.451210877011113,5.5046284352877155,4.5166366939521225,3.3952563733594365,2.352352842565847,1.4082486359254296,0.7021684714374278,0.30731518623405985,0.08925751394550666,10.988461841414887,10.634711578596937,10.332337118395094,9.97035854176886,9.585609825173758,8.973186071730884,8.387462341559166,7.664406078388455,6.787941285567105,5.7095759780983695,4.4079116611970095,3.0177809574079717,1.8669873209507644,0.9583818396674643,0.4151769866251017
0.0,15.0,15.0,0.0,120.0,0.0,0.0,0.0,0.0,-107.0,0.0,-45.0,0.0,0.0,0.0,34.27253218749016,17.55503396713325,10.377958142675714,9.74401090621246,9.204327699078442,8.684836211499817,8.04999798538252,7.3464612713045,6.296743951245088,5.51527715787147,4.498165328631899,3.424540443760695,2.3263551932853015,1.345453954702979,0.6459182868847245,0.28565968837141165,0.13886172479678474,10.986104974639332,10.662610341618823,10.32391691879296,9.993848474953486,9.509763322938845,9.008629231147214,8.339617320397235,7.6313634420415974,6.742824278596736,5.6518504615658784,4.3918639745235355,3.0162611387683143,1.771012627882166,0.9310806119635555,0.3919048714486061
0.0,16.0,16.0,0.0,120.0,0.0,0.0,0.0,0.0,-107.0,0.0,-45.0,0.0,0.0,0.0,34.27253218749016,17.55503396713325,10.387773030223949,9.63179994790858,9.268683026133116,8.64425167784268,8.004099488954012,7.292473572174626,6.446065266979923,5.596860757076238,4.505771833734308,3.4085583773600248,2.237908499782893,1.309599814066676,0.6834254181204438,0.3098672180747748,0.09352076478732113,11.053576019110613,10.68026360575262,10.318271278149576,9.980016708522069,9.557570462404206,9.106104189482119,8.353094965371481,7.592275590126751,6.737711114966551,5.666906875905807,4.323215570186561,2.9290943879491778,1.734884807115815,0.9290642939753946,0.4154114440354808
0.0,17.0,17.0,0.0,120.0,0.0,0.0,0.0,0.0,-107.0,0.0,-45.0,0.0,0.0,0.0,34.27253218749016,17.55503396713325,10.39279475129918,9.672339013446146,9.114835050033571,8.71859125297324,7.9634244428645165,7.3583077384753155,6.402137402980015,5.5833778335971,4.492864418488416,3.27897035276536,2.3214153064369003,1.2776650759377965,0.6292918007526878,0.23240464354065238,0.12254857627577594,11.076668419903156,10.620337518966695,10.308335180860437,10.050735917186685,9.641545989647277,9.069397590758216,8.444862266074237,7.632026352631227,6.773959503454616,5.619275785669838,4.299332116131648,2.9383741899364986,1.7385884112768641,0.895885485527336,0.4178693847869588
0.0,18.0,18.0,0.0,120.0,0.0,0.0,0.0,0.0,-107.0,0.0,-45.0,0.0,0.0,0.0,34.27253218749016,17.55503396713325,10.448025807403308,9.744081930942093,9.277789724108949,8.668028210782113,8.142671888950492,7.261824064258859,6.431924517881374,5.472206595547563,4.4843417223215765,3.317060771017731,2.171729119039123,1.3040259876501197,0.5770854246134545,0.31437960054651864,0.09501666532148006,11.064155648343997,10.600906760316175,10.314606966352859,9.986783962785928,9.599996099313888,9.042840715862429,8.414141034418728,7.626667163865323,6.770959896016762,5.646861787470201,4.255531324225419,2.892199739607722,1.7197337281574523,0.8906343023922004,0.3569799722031014
0.0,19.0,19.0,0.0,120.0,0.0,0.0,0.0,0.0,-107.0,0.0,-45.0,0.0,0.0,0.0,34.27253218749016,17.55503396713325,10.398924727964943,9.610116217069129,9.201841097390519,8.691935475629997,8.018247652230414,7.121171821413954,6.489979913259267,5.4721476931657085,4.40513254604528,3.3919001621723526,2.220319726455904,1.251098874158706,0.5666076195964961,0.23297473240115335,0.07810578578128899,11.081988343850457,10.660003092177385,10.26556755741618,9.999268971831995,9.60064469718602,9.033169327231223,8.397400100665823,7.609327644923652,6.747321781316042,5.59683416649807,4.280203197793995,2.8612641739114153,1.709144561752228,0.8600306676761805,0.37070989701718077
0.0,20.0,20.0,0.0,120.0,0.0,0.0,0.0,0.0,-107.0,0.0,-45.0,0.0,0.0,0.0,34.27253218749016,17.55503396713325,10.457734437455985,9.69471173387263,9.222791410982179,8.732046966523484,7.976916529257749,7.3013746944264035,6.344263653725343,5.470048271142653,4.440311229892202,3.362131775182113,2.1665227564452527,1.248300698472093,0.5664777248128162,0.24378580032280212,0.14009854324274823,11.081119025397465,10.616795805979176,10.333541977400927,10.023208824128234,9.569707743689055,9.015350743710927,8.416464762366033,7.639677979468002,6.7466074901703745,5.5575183052755746,4.18708671988401,2.843841398727753,1.6793668786110019,0.8741381996871017,0.3435979461098853
0.0,21.0,21.0,0.0,120.0,0.0,0.0,0.0,0.0,-107.0,0.0,-45.0,0.0,0.0,0.0,34.27253218749016,17.55503396713325,10.440893975507771,9.682810791197063,9.167468751011505,8.64878608585922,8.001179082886305,7.317763348996857,6.505653051510218,5.463427913318039,4.394196665970868,3.254945970904826,2.1444089945948934,1.1789903789209226,0.5878842190201699,0.242150712235034,0.05811813699293799,10.992628141173471,10.656291702795622,10.345435288132776,9.99772739647096,9.551829586514534,9.076688167252403,8.391037972030619,7.620086591855198,6.691961165106071,5.582201148609294,4.213019972495522,2.80790018944136,1.6165250057311522,0.834340626513335,0.32941586273932766
0.0,22.0,22.0,0.0,120.0,0.0,0.0,0.0,0.0,-107.0,0.0,-45.0,0.0,0.0,0.0,34.27253218749016,17.55503396713325,10.43143895862083,9.614045059315652,9.222476133239244,8.679488232853048,8.078473174386085,7.237264617979366,6.397692915616647,5.39827509332293,4.36465508254535,3.273690288208233,2.10166609519666,1.2237828318566053,0.5424523977405599,0.19995600539711547,0.06986688831291664,11.080002165262815,10.666591383082551,10.366442889568765,10.061600043751437,9.593941482694564,9.042476538234693,8.403219468981519,7.68678412491782,6.710312381061438,5.544718861790601,4.144117068190396,2.7426778027367593,1.6422779051439962,0.7932063271283671,0.31866727874956086
0.0,23.0,23.0,0.0,120.0,0.0,0.0,0.0,0.0,-107.0,0.0,-45.0,0.0,0.0,0.0,34.27253218749016,17.55503396713325,10.42240755701783,9.694806961271956,9.24359538477967,8.743914080328507,8.034615060798922,7.236993048394488,6.451472037385669,5.508571030849536,4.412203583531379,3.259358748004049,2.0840473596575495,1.1341668545737529,0.6000527661771778,0.23734529986974945,0.0870246461798775,11.071440210102871,10.656810857440286,10.366938491833407,10.041158604096186,9.565029669869539,9.074928899518863,8.406583249217864,7.677026196392504,6.698471511752245,5.490479444010027,4.124892315707331,2.734675326593808,1.5451318997205974,0.8247641720155245,0.3558553875998598
0.0,24.0,24.0,0.0,120.0,0.0,0.0,0.0,0.0,-107.0,0.0,-45.0,0.0,0.0,0.0,34.27253218749016,17.55503396713325,10.446273723413123,9.623538131193717,9.284400641123389,8.702628404795858,8.005149420174554,7.299675205069074,6.468392102289158,5.42934138152428,4.371449643554954,3.215367306733987,2.1057392244156943,1.124786738573812,0.5218589360776187,0.23082463442542617,0.07129484240126444,11.119450179563595,10.643479516667135,10.366587685770957,10.053703316911488,9.653268765543338,9.04573840204212,8.455758994460002,7.640232511786151,6.701135184251925,5.485626654207005,4.056388012554715,2.7052099115638675,1.533675701831527,0.7697667098400135,0.3068509665944503
0.0,25.0,25.0,0.0,120.0,0.0,0.0,0.0,0.0,-107.0,0.0,-45.0,0.0,0.0,0.0,34.27253218749016,17.55503396713325,10.429719672180225,9.683154286835443,9.19981632342865,8.684139284881985,8.036717474510818,7.264262335007416,6.481095412553489,5.482168210755046,4.344618382271407,3.1775132984855063,1.9899910200867656,1.0700625402490542,0.5747651629250369,0.14610029523247114,0.12513546885397395,11.148498196908157,10.654529320580847,10.43419705823073,9.983823895955386,9.605083678985537,9.075060580555034,8.451851312636979,7.707706174781949,6.63746749858115,5.453310270032103,4.039574491046578,2.671077019377627,1.510929680486912,0.7532628591182785,0.3072119026157541
0.0,26.0,26.0,0.0,120.0,0.0,0.0,0.0,0.0,-107.0,0.0,-45.0,0.0,0.0,0.0,34.27253218749016,17.55503396713325,10.37806739883908,9.625429742234223,9.199977399020607,8.608110471990939,8.132840729488569,7.360973173247799,6.407779918656505,5.479039689748323,4.318819605582897,3.1699117309057083,2.002408059352912,1.094596458672752,0.4963625971738017,0.21930698842529286,0.02693583055914061,11.15479076627693,10.62154344012244,10.384876143618067,10.024245299752364,9.653761761061709,9.175360358928987,8.407380961224154,7.6575163162797075,6.705410423155586,5.451674697052741,3.996838577663846,2.6309971441103364,1.46381943334576,0.7311221590215721,0.2631339898356596
0.0,27.0,27.0,0.0,120.0,0.0,0.0,0.0,0.0,-107.0,0.0,-45.0,0.0,0.0,0.0,34.27253218749016,17.55503396713325,10.460785782282159,9.600524033704774,9.273623541387945,8.689036584151044,8.140794219804055,7.312452781029225,6.474200053160004,5.396567833777375,4.2808916484881525,3.144932394784114,1.9628453446939467,1.081533004076962,0.48756156611720664,0.17633451523933946,0.004305569053595311,11.124717376035415,10.6821174427602,10.448266397757285,10.037727177504713,9.621780549070461,9.051525619796852,8.480277447924168,7.571459426389982,6.635825071967568,5.418466748328274,3.9833325747766968,2.583557527112875,1.4904828593256962,0.6992710087803002,0.2792787040813534
0.0,28.0,28.0,0.0,120.0,0.0,0.0,0.0,0.0,-107.0,0.0,-45.0,0.0,0.0,0.0,34.27253218749016,17.55503396713325,10.419405707583834,9.768254279165946,9.272279352129631,8.69892045563575,8.054178221642921,7.309713983954652,6.3931339482682255,5.493699553313165,4.2388384113094215,3.13956101057206,2.008582853183998,1.0117328410228592,0.4316928467631501,0.11742506433018468,-0.007495696506065831,11.161031498468581,10.686746218542226,10.35028656759037,10.045489792806787,9.634209854086253,9.145273611348587,8.44943318773576,7.659785141039339,6.648011597192238,5.376838359158502,3.9193028187718646,2.614803636861963,1.4581504339389681,0.7117552975342755,0.28318831222276836
0.0,29.0,29.0,0.0,120.0,0.0,0.0,0.0,0.0,-107.0,0.0,-45.0,0.0,0.0,0.0,34.27253218749016,17.55503396713325,10.404676729399437,9.73331650860287,9.188799650747375,8.66395987513367,8.125490866877525,7.219168525192206,6.39669130363662,5.409321911784802,4.265326314637265,3.0709331275633622,1.9335301850835445,1.019920462223075,0.4821856943310302,0.20758088846682393,0.06640010513366577,11.182036935585622,10.636937745670574,10.45296910235261,10.130636343096318,9.617593726722504,9.057914412780361,8.454148954922267,7.686359152061448,6.613332415151707,5.322706008712609,3.880660247050781,2.485753964841117,1.430812491319478,0.6142080283435072,0.2707939649675323
0.0,30.0,30.0,0.0,120.0,0.0,0.0,0.0,0.0,-107.0,0.0,-45.0,0.0,0.0,0.0,34.27253218749016,17.55503396713325,10.437511398929754,9.679699461923455,9.286973063341954,8.711116988133766,8.119744185750477,7.374404980698907,6.2749438628860785,5.333565175258155,4.236803677439205,3.07929380362613,1.8476565548781207,0.9944722118808433,0.520424153655057,0.18462762234868585,0.0855111235563964,11.145048100625734,10.729080668210676,10.433692658219163,10.09095019674807,9.639638801616515,9.114431805477702,8.417085547785161,7.611952785635955,6.569550247365991,5.318518936056164,3.8085011344319106,2.4018507606480863,1.3586375487308886,0.6518231431669372,0.26270847356699584
0.0,31.0,31.0,0.0,120.0,0.0,0.0,0.0,0.0,-107.0,0.0,-45.0,0.0,0.0,0.0,34.27253218749016,17.55503396713325,10.457693147107552,9.707954750202418,9.193608985295258,8.750747788111143,8.000465138309295,7.288967202031693,6.423209281033628,5.401763982992314,4.2250839989152436,2.9593951872916797,1.8178128404398384,0.9873971156720993,0.4149821524722931,0.11531180600176796,0.09314365376592132,11.180496630132065,10.710864184564391,10.37846495375664,10.126213281482043,9.64836966574888,9.142619106875362,8.473125137825765,7.614794335619242,6.5747350826658835,5.282107678495636,3.8025805099365613,2.4224677057894772,1.331104991495097,0.666856360035303,0.24812350409080966
0.0,32.0,32.0,0.0,120.0,0.0,0.0,0.0,0.0,-107.0,0.0,-45.0,0.0,0.0,0.0,34.27253218749016,17.55503396713325,10.426887814336293,9.66271020822632,9.156055982678058,8.625249353934894,8.076414254503982,7.334301730589478,6.426944748236727,5.412093909803017,4.226676860267783,2.956154334553475,1.8130333136505736,1.0097096153989669,0.3693798064283852,0.1054075059456914,0.009779851412842794,11.194085141745967,10.71532797217945,10.443512901954927,10.083417663377858,9.646348534016854,9.15411399617017,8.432124105546158,7.6097529492812965,6.5217283395937065,5.199875765797802,3.7891069937849293,2.3942074043747628,1.313951073404962,0.6195200104968092,0.2548307856519054
0.0,33.0,33.0,0.0,120.0,0.0,0.0,0.0,0.0,-107.0,0.0,-45.0,0.0,0.0,0.0,34.27253218749016,17.55503396713325,10.45411374313837,9.703165069955569,9.194403705799045,8.669305326552958,8.10956656480025,7.3625857586671835,6.4394854391825636,5.340333387564877,4.172723064263869,2.977342239805995,1.8390917624579466,0.9217023442299185,0.3936868814240707,0.10366213727164425,0.05225354168356435,11.119612369959283,10.67738775181635,10.388144075847102,10.102603060549345,9.712695994239763,9.157708240330999,8.45739068093925,7.638099975900078,6.514451255406064,5.1994001116936985,3.718176527852392,2.2989249580081736,1.241981223551376,0.5832862179969456,0.24992901562616263
0.0,34.0,34.0,0.0,120.0,0.0,0.0,0.0,0.0,-107.0,0.0,-45.0,0.0,0.0,0.0,34.27253218749016,17.55503396713325,10.280768262309289,9.668113276166183,9.22118058908773,8.710680916714205,8.114088776914738,7.321318103526603,6.418305085106769,5.387543133498391,4.083866930627643,2.9138167099226964,1.7569022168264548,0.8949515470656884,0.34882757717431156,0.07805440940603539,0.08201399674279555,11.153694772467718,10.66400374775379,10.443149127634356,10.076703644320201,9.639676122789615,9.130827666383112,8.477467562852484,7.553451548251047,6.503742945604954,5.122154474597481,3.658632702637864,2.2366024614714415,1.252002990718822,0.5643211110553081,0.25070059502342223
0.0,35.0,35.0,0.0,120.0,0.0,0.0,0.0,0.0,-107.0,0.0,-45.0,0.0,0.0,0.0,34.27253218749016,17.55503396713325,10.42065957163541,9.675389648167602,9.190329854201066,8.657377121323282,8.099223810547313,7.331418406392304,6.439485233998428,5.3382662529283875,4.136296029586629,2.8863739094311835,1.7166195944607423,0.9107885073088712,0.35613908288381824,0.1395805575206698,0.03890982989707148,11.188212174438744,10.720162929428266,10.462076434224995,10.093322236787772,9.701089773737426,9.098500640681095,8.393934047211618,7.58642043453467,6.463432628625086,5.100455120221426,3.576100474959428,2.242723294465986,1.1713943962117888,0.5619132380379476,0.20086882249539198
0.0,36.0,36.0,0.0,120.0,0.0,0.0,0.0,0.0,-107.0,0.0,-45.0,0.0,0.0,0.0,34.27253218749016,17.55503396713325,10.455819527771535,9.671734416527428,9.23644520639733,8.636802204403734,7.973285292956646,7.335919264406825,6.39859097708748,5.3406651117030375,4.120483858884761,2.801517562935832,1.6918881853973802,0.857799159387177,0.30687178900226886,0.0903780825356842,0.027815330872178884,11.177325543532183,10.732151168246912,10.421493488760715,10.10320098237341,9.683491967495126,9.161026387929137,8.46918783451186,7.572489876746898,6.429261829965909,5.022121355617872,3.528341988950657,2.2010449572745223,1.1599505739765423,0.5364958794510504,0.20473682367344456
0.0,37.0,37.0,0.0,120.0,0.0,0.0,0.0,0.0,-107.0,0.0,-45.0,0.0,0.0,0.0,34.27253218749016,17.55503396713325,10.444929464912184,9.79328491554594,9.243491162581538,8.750188424704769,8.059901369294515,7.230403298410757,6.352349026965395,5.2640794085308285,4.0172898801079775,2.7969578099150807,1.6496986699198333,0.8101763538544289,0.3248380272500433,0.10883887688033049,0.01907479848838553,11.183760229309598,10.818765895956423,10.463799299464949,10.108585313551483,9.700636333688761,9.143969723638621,8.462287215659456,7.484353219826586,6.420766990551555,5.024115979858421,3.4877643968885104,2.1314639323864157,1.1355838911093505,0.5128388862653428,0.17820387562718693
0.0,38.0,38.0,0.0,120.0,0.0,0.0,0.0,0.0,-107.0,0.0,-45.0,0.0,0.0,0.0,34.27253218749016,17.55503396713325,10.353828271549038,9.674941914241893,9.22382446237214,8.744317656563705,8.065406830912297,7.282285706010806,6.298785898859606,5.240336807514922,3.9957145806494907,2.749391198775536,1.6970918545323348,0.7858887286861249,0.37528667289453016,0.09626112163937493,0.06547495618359671,11.18053083534311,10.72316255343371,10.54092502023585,10.06157381487964,9.638237777583077,9.178781028777273,8.439978540527708,7.52724400529242,6.3680124203365125,4.926109839125724,3.409517282023649,2.0740600648942022,1.0947614990081878,0.47448153588038655,0.20416763738762175
0.0,39.0,39.0,0.0,120.0,0.0,0.0,0.0,0.0,-107.0,0.0,-45.0,0.0,0.0,0.0,34.27253218749016,17.55503396713325,10.446946388334773,9.682643208563777,9.161462008002808,8.784027038123169,7.977198134598982,7.268746120694692,6.35548072414257,5.187280486307896,4.0027055070459445,2.7527331082885578,1.5618613366178367,0.7777056322303779,0.3094956791311785,0.1537604561363153,-0.013883064028724593,11.21479957778231,10.712665882561424,10.443085185428531,10.096180928228456,9.73026579276105,9.15721370502348,8.47897450227922,7.472437465865554,6.350809196937824,4.805995431210513,3.356758653551191,2.0654061694685595,1.0470710192528858,0.4555560080040803,0.1930215334734864
0.0,40.0,40.0,0.0,120.0,0.0,0.0,0.0,0.0,-107.0,0.0,-45.0,0.0,0.0,0.0,34.27253218749016,17.55503396713325,10.400054633332024,9.635344640032411,9.224337174648182,8.75331081839054,8.063940057836392,7.306624312786075,6.325389549038036,5.121994395328669,3.912082185496921,2.6043212395632116,1.5283465735717283,0.7588208353014941,0.2956096905065294,0.08053092091031955,0.07244865177579514,11.152826802326468,10.739261359510076,10.432800489952006,10.08705679255185,9.716521127954106,9.157571121737893,8.470745167513364,7.475203962316144,6.247330356164362,4.806843356212486,3.363037763719402,2.0026048534742102,1.0242820219477469,0.4935398243958102,0.16693821346992013
0.0,41.0,41.0,0.0,120.0,0.0,0.0,0.0,0.0,-107.0,0.0,-45.0,0.0,0.0,0.0,34.27253218749016,17.55503396713325,10.461520038963936,9.62716013824775,9.226331287965197,8.729846266804252,8.19806706338553,7.273215368625052,6.344640713085926,5.1578208711168845,3.886119507665468,2.5382877889584115,1.4975415256602231,0.7288144241502426,0.23530613547081244,0.08524931798396379,0.07884475762800447,11.166042197840989,10.711297093878732,10.502484032531246,10.142333947742275,9.751129317538872,9.168001698258552,8.435154082759466,7.491446821424114,6.224199279054478,4.767938053876754,3.2520507993693735,1.9700455212479182,0.9862927808460141,0.4345077356500465,0.1907028264222308
0.0,42.0,42.0,0.0,120.0,0.0,0.0,0.0,0.0,-107.0,0.0,-45.0,0.0,0.0,0.0,34.27253218749016,17.55503396713325,10.423188490689924,9.776948066678676,9.223521630949325,8.7031461985071,8.090420834732347,7.295838906850371,6.211764793877058,5.13713375247877,3.87807080158436,2.5096746370634144,1.423090156027219,0.6688314808896987,0.24066941094845462,0.07166762020413173,0.10826291796776974,11.177215338240357,10.754193387901436,10.513520061895365,10.153069885161626,9.745350498984742,9.136887399324912,8.464284678658007,7.387653815172607,6.163771926573978,4.657983772166073,3.1710973734619854,1.853471596721413,0.9496390347362968,0.4275844422703778,0.1821475836871843
0.0,43.0,43.0,0.0,120.0,0.0,0.0,0.0,0.0,-107.0,0.0,-45.0,0.0,0.0,0.0,34.27253218749016,17.55503396713325,10.416896458656975,9.801089557534208,9.190718062051669,8.720966007909283,8.07556249832066,7.340333598078002,6.34959617291808,5.087112014036468,3.7588436572469464,2.4789593940886805,1.3679637690497561,0.6925316047276463,0.18716261947984064,0.04921823976837505,0.018632272652243022,11.187746166086448,10.768571453922359,10.431213277996154,10.139176079930632,9.765982440536819,9.158199083158745,8.393058277883801,7.406323908546579,6.107184984646222,4.585703180727777,3.1363118925092195,1.8089261392667269,0.925835867626719,0.39958703126151557,0.14701738224725935
0.0,44.0,44.0,0.0,120.0,0.0,0.0,0.0,0.0,-107.0,0.0,-45.0,0.0,0.0,0.0,34.27253218749016,17.55503396713325,10.372797901490262,9.689547792403573,9.25666224447315,8.720517113887606,8.124823730467105,7.22225671218332,6.256562723346592,5.0556107710171725,3.663814661469632,2.349397081121144,1.304976282150841,0.6419251698226557,0.2550752696059012,0.08596050307629731,-0.003931271096037709,11.211420350293292,10.71678675253882,10.472914229986943,10.150980347500731,9.654244218435789,9.171001690695109,8.372665320436727,7.32242891980739,5.996680461177475,4.587725019752383,3.0576181475622235,1.7593755930007595,0.8917202735742779,0.42498382991662464,0.16170547948471525
0.0,45.0,45.0,0.0,120.0,0.0,0.0,0.0,0.0,-107.0,0.0,-45.0,0.0,0.0,0.0,34.27253218749016,17.55503396713325,10.44885759002488,9.689469965077258,9.24471375774811,8.681105747651356,8.069370606646237,7.289520409420801,6.2780620159437115,4.97803002402595,3.5598314382487137,2.349403105403122,1.2854576202141712,0.5616466538048956,0.24665288771085755,0.10447185083537755,0.050208502694978244,11.178609921863634,10.7166386077679,10.516969874250554,10.186903673516362,9.7582362951223,9.15997176862989,8.406142959934161,7.277110564808157,5.982730092025588,4.495924377733838,2.9549425549899015,1.7070343760916804,0.8104014696310086,0.36519142434052104,0.15951383434176875
0.0,46.0,46.0,0.0,120.0,0.0,0.0,0.0,0.0,-107.0,0.0,-45.0,0.0,0.0,0.0,34.27253218749016,17.55503396713325,10.425404137170291,9.70022884068544,9.20250059428839,8.668335307236404,8.061397435353532,7.287655702814569,6.220988760772834,4.97993967332909,3.5989910462575474,2.318032245783426,1.2207166954624076,0.5881549010325551,0.24321738084254632,0.09070635511391359,0.030762785156270518,11.217212743487616,10.753453285436313,10.441224541618618,10.192012828410853,9.731759009096528,9.100355340280935,8.410936836690379,7.253762408842322,5.949557444169376,4.425326542947294,2.9044654930730247,1.6557765812953162,0.7895770687986355,0.3728701263162379,0.09479406834701168
0.0,47.0,47.0,0.0,120.0,0.0,0.0,0.0,0.0,-107.0,0.0,-45.0,0.0,0.0,0.0,34.27253218749016,17.55503396713325,10.415409412955004,9.706463239485133,9.273722848041272,8.697502539297725,8.062522725462715,7.362583403145625,6.155321984128744,4.863412572554389,3.473888149120042,2.191748313954117,1.1573368455214617,0.5490499816999025,0.22702608784932582,0.09835459439161368,-0.03267058443430651,11.211303545300373,10.735852946354232,10.458876562031476,10.172032956968208,9.741211675832496,9.090340081045213,8.241610230955763,7.151232673797958,5.877489734654083,4.290584543812634,2.821050457480856,1.583404054961961,0.7912193465329572,0.3050320943641083,0.1456428451927051
0.0,48.0,48.0,0.0,120.0,0.0,0.0,0.0,0.0,-107.0,0.0,-45.0,0.0,0.0,0.0,34.27253218749016,17.55503396713325,10.43270796685895,9.786634466312742,9.280054453815572,8.709974526773673,8.040590305606148,7.249040806734384,6.096495697193517,4.824870459391169,3.42606792795273,2.1607338914748575,1.1856361518917293,0.5213241923808106,0.19308696319177343,0.0547945017730181,0.02983801456247454,11.241281576253801,10.76958103366036,10.45682258114706,10.195070333367601,9.717836886119036,9.114831699828008,8.339111146766905,7.17236205220488,5.727107389469446,4.2717505501583934,2.7460291763152953,1.5348708574487193,0.7336001563388931,0.32655778948114017,0.10645802971031766
0.0,49.0,49.0,0.0,120.0,0.0,0.0,0.0,0.0,-107.0,0.0,-45.0,0.0,0.0,0.0,34.27253218749016,17.55503396713325,10.386795540636426,9.754109650547724,9.261463465788843,8.812453633212119,8.044144023822009,7.123219251125228,6.084450596885746,4.617299152044959,3.347363821612461,2.1166611152506074,1.1262034553701943,0.46207708983179924,0.2071770581886675,0.06829864342010089,-0.013417661788202364,11.2616181058344,10.814929800518673,10.448642620082591,10.204645324119227,9.72171127158419,9.121591021969023,8.264365929107223,7.10297880636243,5.691461602645415,4.094954223852795,2.6596073176900825,1.4851685539757982,0.6690627392020636,0.2767110017729989,0.09974999702599736
0.0,50.0,50.0,0.0,120.0,0.0,0.0,0.0,0.0,-107.0,0.0,-45.0,0.0,0.0,0.0,34.27253218749016,17.55503396713325,10.443012150010754,9.726957447882006,9.23357908843709,8.780509079035884,8.01695942553367,7.221242204834349,6.0371187652039335,4.607852567807073,3.314733728719045,1.9573772683565582,1.1205160431970016,0.4426575502133488,0.19445316605676824,0.058787468311332546,0.06251228868626316,11.26357544984516,10.802145125635,10.55343758802609,10.158396371164619,9.739359055912542,9.105512552618865,8.241554389534205,7.069435373587688,5.6018405949841865,4.056558232538199,2.569092612020805,1.3924708243166395,0.6445750165813106,0.29859726128138603,0.06970076794028535
0.0,51.0,51.0,0.0,120.0,0.0,0.0,0.0,0.0,-107.0,0.0,-45.0,0.0,0.0,0.0,34.27253218749016,17.55503396713325,10.476571730764151,9.724790015708958,9.211346883883058,8.613522564657549,8.120959566323256,7.132169465597553,5.977451224565242,4.6615474596704525,3.2908104338850337,1.9617940270399807,1.0088230595165344,0.383563751338318,0.10556566667034514,0.040335513605447106,0.03176439167404774,11.251315580564407,10.803515501873392,10.482997921270739,10.13107710964801,9.746476617605888,9.14445776225096,8.177107789808112,7.053907507930622,5.532555933684078,3.9491024873641787,2.483462892881556,1.3319332365262866,0.6198559821569526,0.2562887380068131,0.09877407959814233
0.0,52.0,52.0,0.0,120.0,0.0,0.0,0.0,0.0,-107.0,0.0,-45.0,0.0,0.0,0.0,34.27253218749016,17.55503396713325,10.428526286637886,9.700258993520105,9.247939926808305,8.715641259260536,8.03806407310066,7.189540727477082,5.9662803456408025,4.46918583066097,3.099171967425169,1.875574082136009,0.9618356373444681,0.39148319379879515,0.18146342306024735,0.03962083483746796,0.01830108870425273,11.232403539166558,10.787000243465933,10.483051919376916,10.189236408578418,9.68391860653305,9.02090461700884,8.148541471530187,6.904117576098248,5.389029075713451,3.8200776601954343,2.3936357596853046,1.3172171915573776,0.639242452836533,0.2776404585799808,0.06260219188707858
0.0,53.0,53.0,0.0,120.0,0.0,0.0,0.0,0.0,-107.0,0.0,-45.0,0.0,0.0,0.0,34.27253218749016,17.55503396713325,10.46424327046688,9.711012270511914,9.260835232370237,8.768508478345167,7.952834459502595,7.128681028647351,5.862936945307406,4.421122181150862,3.0336839961586235,1.7395746724702106,0.8768880152006548,0.4061570197559061,0.05610459436760444,0.05676822636167926,-0.017488058990362553,11.256226306281784,10.77609593205028,10.48153724940105,10.148157151855616,9.722981646612562,9.070654467175233,8.127362107106023,6.877452895085499,5.361340020682575,3.7104119901750154,2.2386172999416574,1.2344613926014953,0.6048507161395896,0.24818428525783742,0.045254286061059704
0.0,54.0,54.0,0.0,120.0,0.0,0.0,0.0,0.0,-107.0,0.0,-45.0,0.0,0.0,0.0,34.27253218749016,17.55503396713325,10.486060999898992,9.730056438551085,9.267953612054416,8.689073232232296,7.990792108461156,7.083732749984112,5.79736193813363,4.320752440168804,3.001198868869274,1.705438561519075,0.8632417837747518,0.32650300812448907,0.09620703961199753,-0.010468633818300287,-0.02676137665195826,11.271279083974541,10.810336553443012,10.488423317916745,10.213324540122562,9.746840699873932,9.019590087073563,8.03849699594263,6.6974899408908275,5.218335268586481,3.6201983844874905,2.1869007273282417,1.1828842316773802,0.5283027303426,0.25091580819771336,0.07857337212623863
0.0,55.0,55.0,0.0,120.0,0.0,0.0,0.0,0.0,-107.0,0.0,-45.0,0.0,0.0,0.0,34.27253218749016,17.55503396713325,10.513333689090643,9.754789860734402,9.223736520242918,8.629940708039431,7.93892571009796,7.013866286974599,5.717847529290774,4.27070139863718,2.81873029991963,1.6406127742018115,0.7816608942363306,0.35297094192260114,0.11243648664103292,-0.04041348884381162,-0.009146923249331725,11.27839740542744,10.829321739949085,10.516987189990807,10.150488611772467,9.687968312730826,8.978249886914265,7.9339144366512615,6.624019302132732,5.111484337839773,3.495192039134248,2.0927346642687934,1.0932700971026594,0.4658369914902815,0.18886350655770756,0.02653089424748418
0.0,56.0,56.0,0.0,120.0,0.0,0.0,0.0,0.0,-107.0,0.0,-45.0,0.0,0.0,0.0,34.27253218749016,17.55503396713325,10.504550272732857,9.766180280765012,9.295892966753001,8.738834654165052,7.982907535072681,6.9282814298396005,5.6214795115473715,4.181443336558015,2.7942144579215955,1.60475715558745,0.8118375768794382,0.38354238528136064,0.20397169111537564,0.03900683623393694,0.06029587909844548,11.282308354371953,10.835064409950586,10.517549221233507,10.193089722326016,9.709928841103213,8.92195606915047,7.8293477810801315,6.534067376892302,4.972326813481714,3.4109682016452902,2.011230127056232,1.0508929697332314,0.4580116980168696,0.1946574867858918,0.04074168336889854
0.0,57.0,57.0,0.0,120.0,0.0,0.0,0.0,0.0,-107.0,0.0,-45.0,0.0,0.0,0.0,34.27253218749016,17.55503396713325,10.46030550043892,9.763718720029868,9.262580583037838,8.675982107276626,7.955156164102114,6.857891093921198,5.547633650187921,4.0738528952316795,2.590276655327486,1.5249920150475382,0.7425285584105623,0.20732781419962631,0.06689503639970978,0.08210695858500339,0.0564600281876217,11.250817450200273,10.774584506051944,10.55345041405221,10.169790052080318,9.675505633117389,8.925892264391022,7.83942981404034,6.4385107930413765,4.858359168341452,3.281682763895038,1.8831960300093002,0.9480063236460404,0.40092281589486195,0.19262571272919274,0.02392910332050989
0.0,58.0,58.0,0.0,120.0,0.0,0.0,0.0,0.0,-107.0,0.0,-45.0,0.0,0.0,0.0,34.27253218749016,17.55503396713325,10.469598911221704,9.762051135571673,9.224764510733861,8.642362005338496,7.8387509741185575,6.828634640667289,5.4806211500637305,3.9760351656477844,2.53922116586565,1.4086439161475952,0.6215032104887646,0.22417125418018688,0.0753631983926791,0.05043075907415999,0.024895540988796372,11.275621899106735,10.801896089290677,10.589614204737073,10.157514837600404,9.669003717871973,8.900219686972166,7.72148720394941,6.262521730934737,4.738936284173349,3.135258506799957,1.803117250562437,0.8604819910288942,0.3430397403677191,0.16873741290665714,0.05356861917858273
0.0,59.0,59.0,0.0,120.0,0.0,0.0,0.0,0.0,-107.0,0.0,-45.0,0.0,0.0,0.0,34.27253218749016,17.55503396713325,10.466676909407747,9.708807217236417,9.18602247447217,8.70845644079474,7.824947538292982,6.7658662120737345,5.410353661148805,3.7654630366875765,2.4598036179804286,1.327470430758907,0.6693771965281464,0.22684731531339394,0.08240829801660111,-0.06417389128301534,0.01183040661210026,11.26985339516943,10.797745099794792,10.488068425260499,10.190940857043522,9.593168263777065,8.829743158559953,7.671137854329663,6.210681251648435,4.573726024554461,2.982741561844037,1.718010118737936,0.839864133978776,0.39433652781216183,0.14890779886342725,0.07727727757875946
0.0,60.0,60.0,0.0,120.0,0.0,0.0,0.0,0.0,-107.0,0.0,-45.0,0.0,0.0,0.0,34.27253218749016,17.55503396713325,10.403466676250614,9.702660203349934,9.25583360797829,8.601560315324392,7.768484494735342,6.666415583975943,5.251770141210501,3.6760508272530306,2.291391572932895,1.2142331958287842,0.5822562329455641,0.19795010225940443,0.07121123753555014,0.0439052974282885,-0.010959079929781835,11.286364301165612,10.858760320285004,10.492697875631388,10.158628543828721,9.623330713688686,8.754631751807777,7.560839714420363,6.0512647502214945,4.413515715808681,2.8211729394178877,1.5666172659710964,0.7485478813304596,0.3388718188032691,0.10724340583521062,0.053635583916098
0.0,61.0,61.0,0.0,120.0,0.0,0.0,0.0,0.0,-107.0,0.0,-45.0,0.0,0.0,0.0,34.27253218749016,17.55503396713325,10.385842126762189,9.747887443407375,9.144970758565416,8.664928037902499,7.695148074012411,6.558295389802986,5.1832579802683005,3.471771309113834,2.1074334147316156,1.1528656006411222,0.4669546631085231,0.20859532007019826,0.07424901661491025,-0.026234741470458654,0.004915718605652831,11.29130261528423,10.817583298188636,10.496210231193723,10.121944873152758,9.526517799803552,8.661431286261303,7.413576625549152,5.911121349847982,4.269170841160318,2.7250969795025983,1.48598460771994,0.7161939153806841,0.30254419675591065,0.12456482082204137,0.06999223912277176
0.0,62.0,62.0,0.0,120.0,0.0,0.0,0.0,0.0,-107.0,0.0,-45.0,0.0,0.0,0.0,34.27253218749016,17.55503396713325,10.462234655309476,9.692800998739227,9.224055838166063,8.559000498636378,7.631011046006744,6.456953912501754,4.9145267025828225,3.360326148459356,2.0400560340079257,1.1116591785259724,0.4376406699970883,0.1611727613198222,0.03708267633079212,0.007175455013271709,0.008205378494009227,11.230422450047088,10.862020774887027,10.521304209164144,10.099586855217701,9.500290115686768,8.575987176272196,7.334545734255946,5.78137208296205,4.0839692294708225,2.5383751860580177,1.413895205171988,0.6623256971523506,0.26726833354583684,0.11422302244441522,0.05279461930254879
0.0,63.0,63.0,0.0,120.0,0.0,0.0,0.0,0.0,-107.0,0.0,-45.0,0.0,0.0,0.0,34.27253218749016,17.55503396713325,10.534203061414168,9.683328626090317,9.244730424929383,8.587682728605603,7.615588756060379,6.3545250074466475,4.775151430182958,3.293378788123649,1.9079906767488704,0.9698086375327029,0.3813354362417363,0.15813039838825507,0.013445643184723022,0.05553615333881435,0.07397896081435981,11.314056548824565,10.80986788522356,10.444454243003921,10.133150560298159,9.485320142682918,8.52748105397367,7.180999646148991,5.5778883086915325,3.8976740419147498,2.4530683933265927,1.301066646644446,0.6080421376314079,0.2344093775302617,0.13908887847181875,0.06384462865702267
0.0,64.0,64.0,0.0,120.0,0.0,0.0,0.0,0.0,-107.0,0.0,-45.0,0.0,0.0,0.0,34.27253218749016,17.55503396713325,10.52244161413451,9.740835842188782,9.197170744609732,8.458348253190042,7.571603404127318,6.2050748805811144,4.629676916953181,3.094789994612185,1.7683097911955967,0.832384674626135,0.35366200259942077,0.14675341985593504,0.03987190665577101,-0.03628806717435965,0.03240571045537841,11.245437675546995,10.86116748536436,10.492715280937437,10.067162540998716,9.398953596493925,8.429466868635762,6.957332846516267,5.4173429588988204,3.7107104248382945,2.1949106835621626,1.1446427299540134,0.5356937949368098,0.22052981319112647,0.11521167698190184,0.03309961292318269
0.0,65.0,65.0,0.0,120.0,0.0,0.0,0.0,0.0,-107.0,0.0,-45.0,0.0,0.0,0.0,34.27253218749016,17.55503396713325,10.39998660166933,9.758379110057344,9.21219710370205,8.417503350733314,7.455746220308992,6.075586944603433,4.445968427189706,2.8810005645670254,1.5900149278774938,0.7104889376941336,0.33694771305275706,0.08437495631399089,0.0020784146939168482,-0.06012526227793809,-0.05870379364995914,11.30763345228248,10.833206526535056,10.44351464585795,10.035369936996867,9.291618215181883,8.246582981117697,6.799493656007235,5.161436995760475,3.470203884454085,2.0649751060723944,1.0633677886011903,0.49168129375749087,0.23374625716374467,0.10438774543156931,0.05224948551331634
0.0,66.0,66.0,0.0,120.0,0.0,0.0,0.0,0.0,-107.0,0.0,-45.0,0.0,0.0,0.0,34.27253218749016,17.55503396713325,10.423380302297064,9.67303171380212,9.16229022990578,8.383662156981151,7.3509001898744195,5.943061298752535,4.2424204565593,2.680584612011772,1.4442868807794231,0.6844114549238536,0.23068927044471493,0.0686486187138317,0.05452858762369887,0.0013025532169630132,0.008812356836452952,11.321393071224872,10.833376773571468,10.516770932643723,9.977999280367975,9.25191209356085,8.102417505263121,6.631327080542191,4.919185056298964,3.241665905990237,1.9400597952851828,0.962329553926194,0.46119881288295456,0.17656128127658632,0.11543109062390208,-0.004584992958040504
0.0,67.0,67.0,0.0,120.0,0.0,0.0,0.0,0.0,-107.0,0.0,-45.0,0.0,0.0,0.0,34.27253218749016,17.55503396713325,10.508828956628058,9.649217037227784,9.087642913012601,8.272438085650501,7.144891581131016,5.628357595279054,3.929757744468297,2.538764878170771,1.3605610277336875,0.6132653348066045,0.2368851810059611,0.06242598228580512,-0.008576205361447986,0.016577400027379903,0.03984887613833957,11.248622259905698,10.801364027460624,10.43407848736737,9.86621737257421,9.105278501977383,7.940250641139959,6.397038873630718,4.732765714237958,3.0060593366317883,1.7533213512808559,0.8224844030835159,0.40137253588478944,0.15582161892358914,0.1011860621341012,0.03471410045305376
0.0,68.0,68.0,0.0,120.0,0.0,0.0,0.0,0.0,-107.0,0.0,-45.0,0.0,0.0,0.0,34.27253218749016,17.55503396713325,10.494428481713092,9.650106069703499,9.101704528955823,8.131379083323845,6.98855154980307,5.520769227588432,3.7282578717932267,2.255342350720776,1.1832169367410772,0.5641359282565622,0.20058247923893485,0.06650852872660327,0.06123158528150301,-0.005354715125716035,0.010167425993743463,11.257120476702248,10.81100538692539,10.37246542156098,9.828059282437435,8.973401904863332,7.773339675849575,6.229543102170306,4.3610019144271845,2.8017856151251936,1.5713706441489297,0.7423623371054008,0.3552287797008147,0.15748132147120728,0.05727238827667399,-0.009957338786577074
0.0,69.0,69.0,0.0,120.0,0.0,0.0,0.0,0.0,-107.0,0.0,-45.0,0.0,0.0,0.0,34.27253218749016,17.55503396713325,10.479901089401578,9.57868281459392,8.955918784030295,8.07899669378034,6.82293063537588,5.189615477871894,3.4552661627828956,1.9864632558330169,1.070427712795077,0.36372209137956313,0.12232705071528555,0.0881968258002039,0.00972084879849777,0.02398484011793506,-0.04376369231863094,11.29090605413455,10.81197445686128,10.339891415245102,9.830221362018465,8.838100991238719,7.5387787741099945,5.85511002772361,4.105797245101343,2.5748221749124203,1.3848309055796195,0.635640979060918,0.2963377853676383,0.13853866351207483,0.027572601001374538,0.012160620656156211
0.0,70.0,70.0,0.0,120.0,0.0,0.0,0.0,0.0,-107.0,0.0,-45.0,0.0,0.0,0.0,34.27253218749016,17.55503396713325,10.43363886863813,9.57571721971902,8.906541199962836,7.862934955390768,6.506745442820006,4.860932553773515,3.2145290319483433,1.8112252079532074,0.8889855640990423,0.23259316204834327,0.1041777572962614,0.09756399379912806,0.013199393151551341,-0.0003758672389463126,0.015775319839368574,11.251980052041414,10.790625317528042,10.27952884017802,9.652941517979336,8.646798972523209,7.243198436081341,5.51374550224048,3.7709253694841145,2.269761755262273,1.2062707367421261,0.5651657798882042,0.2409280159378319,0.1301279561626846,0.04118454136992408,-0.003391102332994226
0.0,71.0,71.0,0.0,120.0,0.0,0.0,0.0,0.0,-107.0,0.0,-45.0,0.0,0.0,0.0,34.27253218749016,17.55503396713325,10.488834204158696,9.539720738626984,8.693644661558773,7.614754415296493,6.256735852113137,4.609142337921391,2.90118425856396,1.5938923979568491,0.6571871877003748,0.2589465037568463,0.11640219378055837,0.049028619215684625,-0.019660356975077276,0.025226871524257934,-0.029383079580098902,11.272195656899665,10.726048162954028,10.193500057075154,9.509728103470831,8.438046346383768,6.964306920149616,5.184974764213073,3.433295571321764,2.0200842459634507,1.0640868916212942,0.4798418306564594,0.21924775648630088,0.08413702460595662,0.04255430765676076,0.007736220083182841
0.0,72.0,72.0,0.0,120.0,0.0,0.0,0.0,0.0,-107.0,0.0,-45.0,0.0,0.0,0.0,34.27253218749016,17.55503396713325,10.479881699497685,9.380762723017,8.522361497125079,7.394734797660657,5.894057564582737,4.195707395955614,2.5752737657292215,1.2978843630552188,0.5684997446974521,0.17342024944686224,0.060176016800986026,0.03851612763295725,0.029448260489180506,0.04344697278967027,-0.029253162929909447,11.294284860395935,10.632245570935813,10.088925471594015,9.335214342436169,8.20800954929965,6.598393596474405,4.8132839933922025,3.0591373933196473,1.7455795005426478,0.9123971597057043,0.42159742864591504,0.17900613785457728,0.10505723617126153,0.04594661951660632,0.018777933329004147
0.0,73.0,73.0,0.0,120.0,0.0,0.0,0.0,0.0,-107.0,0.0,-45.0,0.0,0.0,0.0,34.27253218749016,17.55503396713325,10.40928854040009,9.294318293901362,8.279137474391499,7.103097922493402,5.4277548073233195,3.736194199253734,2.1813257815370775,1.038313894843829,0.47530491996306456,0.14928267153252406,0.0552894384111043,0.013413411411304468,0.0061978788602526265,0.007027545039384356,0.008283180861032855,11.254548814779024,10.558019442186357,9.93027825125145,9.07686091015845,7.840323297071631,6.114222259790933,4.293915498283765,2.628871088615002,1.4439217304818404,0.7491328117409434,0.3387491050752613,0.14048019717224192,0.03754806586630444,0.028342179214993157,-0.010091821105414827
0.0,74.0,74.0,0.0,120.0,0.0,0.0,0.0,0.0,-107.0,0.0,-45.0,0.0,0.0,0.0,34.27253218749016,17.55503396713325,10.35992941115925,9.014337902703598,7.980210304243877,6.662095679726377,4.911497972404976,3.2358551609816613,1.822687158880424,0.7683901588910805,0.2881037248192071,0.0914393464103814,0.03210106177149094,0.04818584248872647,-0.055743562077022316,0.007207565653428677,-0.0010747113861182356,11.172030319861644,10.441987740607543,9.741756344586943,8.790931601973842,7.36690564464943,5.624897173888091,3.8045932534879716,2.2371102856569713,1.1916655087840227,0.5843462322467241,0.2940513262901686,0.13580712754166704,0.08452362160364019,-0.005082347984663352,0.029016143937242826
0.0,75.0,75.0,0.0,120.0,0.0,0.0,0.0,0.0,-107.0,0.0,-45.0,0.0,0.0,0.0,34.27253218749016,17.55503396713325,10.248797636193899,8.736264491483912,7.538415754066458,6.066529030885231,4.453962605750558,2.7291305041686904,1.4138960527407252,0.6167351467054821,0.27356835234995486,0.10184759922619355,0.10585772551083555,-0.014979139942371504,0.059384268444176665,0.051002933733068925,-0.0044854899509335815,11.134597329406185,10.311598303442985,9.475164907576163,8.334694076138172,6.73969350571933,4.947581196748782,3.2032941161810182,1.8586317962561434,0.9727951713288794,0.473203027582082,0.22847419956690618,0.1151363278155531,0.0810855535017605,0.01980793327215933,-0.014867743595317045
0.0,76.0,76.0,0.0,120.0,0.0,0.0,0.0,0.0,-107.0,0.0,-45.0,0.0,0.0,0.0,34.27253218749016,17.55503396713325,10.225113716888684,8.325981334124483,6.866412954390433,5.378461832282111,3.5663112605110827,2.111476500323429,0.999859976704948,0.3326290033999912,0.1782366954186962,0.09450228897703516,-0.009655500203605644,-0.013432788416873443,0.03448713117991255,0.01666999815362925,0.044301689559227045,11.100365657694843,9.95803318092956,8.97325502476348,7.711446573035083,6.018504163581978,4.2447007843197895,2.5645120852277508,1.4397687847593887,0.7280058126477904,0.3539082766214343,0.16734101835952947,0.08169644079701592,0.07029273819790376,0.05408732571588906,-0.027131783559447252
0.0,77.0,77.0,0.0,120.0,0.0,0.0,0.0,0.0,-107.0,0.0,-45.0,0.0,0.0,0.0,34.27253218749016,17.55503396713325,9.871559805597535,7.533921678442722,6.01064677332585,4.338851150421708,2.661029254605122,1.4107660693370354,0.6748919217491236,0.3461315747509311,0.08521191550506804,0.06295903649456075,0.06459534740562538,0.030512389187762928,0.08016579651048986,-0.02186022405007956,-0.040989318305406544,10.880559272040779,9.497332466211994,8.278400296901012,6.827085786277681,5.02805193262192,3.2899651427718526,1.9169276217204125,1.0450224600549582,0.5284752386888095,0.24833083667571246,0.16112438381399713,0.06262651589510987,0.05916487485432058,0.0008475269752830812,0.0342863609617733
0.0,78.0,78.0,0.0,120.0,0.0,0.0,0.0,0.0,-107.0,0.0,-45.0,0.0,0.0,0.0,34.27253218749016,17.55503396713325,9.263122775752727,6.454518183148614,4.607293776202667,3.072983451916379,1.7464247814192078,0.887908686070804,0.3987139298831934,0.09562727463313032,0.0424674288085032,0.05837364333639032,0.05322706623510997,-0.020015071793491237,0.03667572902186978,0.025306130207276154,0.05562752837900863,10.506791421153679,8.59469890908766,7.055329581212032,5.462361963925531,3.7345535948978354,2.349779357290506,1.2796266472041657,0.7240227748873284,0.38287019109229636,0.2025111362929549,0.0917310171770263,0.051555949233434054,0.023683431442331204,0.025241156087730088,0.05115667383372942
