Line_number,Fiducial,Easting,Northing,Height,Elevation,tx_pitch,tx_roll,tx_yaw,txrx_dx,txrx_dy,txrx_dz,rx_pitch,rx_roll,rx_yaw,PX,PZ,S0X_time_1.086e-05,S0X_time_3.256e-05,S0X_time_5.426e-05,S0X_time_8.680e-05,S0X_time_1.411e-04,S0X_time_2.279e-04,S0X_time_3.689e-04,S0X_time_5.860e-04,S0X_time_9.115e-04,S0X_time_1.411e-03,S0X_time_2.192e-03,S0X_time_3.418e-03,S0X_time_5.339e-03,S0X_time_8.301e-03,S0X_time_1.338e-02,S0Z_time_1.086e-05,S0Z_time_3.256e-05,S0Z_time_5.426e-05,S0Z_time_8.680e-05,S0Z_time_1.411e-04,S0Z_time_2.279e-04,S0Z_time_3.689e-04,S0Z_time_5.860e-04,S0Z_time_9.115e-04,S0Z_time_1.411e-03,S0Z_time_2.192e-03,S0Z_time_3.418e-03,S0Z_time_5.339e-03,S0Z_time_8.301e-03,S0Z_time_1.338e-02
0.0,0.0,0.0,0.0,120.0,0.0,0.0,0.0,0.0,-107.0,0.0,-45.0,0.0,0.0,0.0,34.27253218749016,17.55503396713325,10.387003509558093,9.642417864820933,9.170752989479853,8.648909670152362,8.004114137686393,7.257403815372284,6.40432699861749,5.493376796688015,4.557009256363695,3.5658653892972887,2.5393628978778366,1.5898807026931014,0.8530304158851284,0.3894385834245485,0.13977571942162736,10.929504456682592,10.49192636524286,10.202443887399863,9.871547953351051,9.44503152592118,8.924445595409017,8.290481347929223,7.559780155613164,6.7390835498140715,5.770936921729592,4.618786391629193,3.3538039668803097,2.1558999719173215,1.2158956977520121,0.5660690019626508
0.0,1.0,1.0,0.0,120.0,0.0,0.0,0.0,0.0,-107.0,0.0,-45.0,0.0,0.0,0.0,34.27253218749016,17.55503396713325,10.389242905641085,9.644650797967236,9.172979481293922,8.651126548022345,8.006315116634058,7.259579093773506,6.406433441468212,5.494899650659305,4.555835763201802,3.5589917225661796,2.52653130675445,1.574876227908649,0.8404572590351889,0.3814479912169314,0.1360561750937534,10.937304611589818,10.499710738803516,10.210212519544143,9.879293055432735,9.452737610048924,8.932089206571504,8.298004722649992,7.566724805954746,6.74330354570969,5.768253663673561,4.606347562360652,3.3337124134587834,2.1341297703510445,1.198121323662715,0.5551266582094505
0.0,2.0,2.0,0.0,120.0,0.0,0.0,0.0,0.0,-107.0,0.0,-45.0,0.0,0.0,0.0,34.27253218749016,17.55503396713325,10.391436128902916,9.64683765046251,9.175159984696519,8.653297574488994,8.008470480143416,7.261709008443087,6.408488811693534,5.496305371931088,4.554370353103737,3.5516908840153705,2.51334660847247,1.5597193310207929,0.827895934021858,0.37353255176101496,0.13239908786986032,10.945019350661365,10.507409749854384,10.217895842725458,9.886952928678124,9.460358604781797,8.939647866498726,8.305438880133117,7.573523824109726,6.747193214962541,5.765018979372167,4.593318839564006,3.313203511686442,2.1121858644621474,1.180356951778426,0.544267408509636
0.0,3.0,3.0,0.0,120.0,0.0,0.0,0.0,0.0,-107.0,0.0,-45.0,0.0,0.0,0.0,34.27253218749016,17.55503396713325,10.393585412615865,9.648980648217865,9.177296718343024,8.655424957043603,8.010582417730454,7.263795691161079,6.410493815915383,5.497585749086275,4.552589576074145,3.543929242332681,2.499772516155423,1.544378063701022,0.8153251749676516,0.36568149357243795,0.12880037978983014,10.952653061720328,10.515027774053129,10.225498220512359,9.894531918349763,9.467898825706868,8.947125822214423,8.312786974235918,7.5801727272088675,6.750732881369542,5.761201314135804,4.5796637288028785,3.292240986745143,2.090039932212047,1.1625858089748389,0.5334838881656407
0.0,4.0,4.0,0.0,120.0,0.0,0.0,0.0,0.0,-107.0,0.0,-45.0,0.0,0.0,0.0,34.27253218749016,17.55503396713325,10.395692697516145,9.651081725770291,9.179391610683425,8.657510614716074,8.01265283294873,7.2658409833909525,6.412448616709177,5.4987313169685725,4.550469105983275,3.5356744283695987,2.4857761073149742,1.5288244584465598,0.8027267651226508,0.3578856709501661,0.12525655542954003,10.960209556175858,10.522568612481708,10.233023443728086,9.902033799666398,9.475362022610417,8.954526755942952,8.320051408320195,7.586665602865093,6.753901282206326,5.756768664267473,4.565346810523882,3.270790866449451,2.0676662797402354,1.1447930722728341,0.5227696944488333
0.0,5.0,5.0,0.0,120.0,0.0,0.0,0.0,0.0,-107.0,0.0,-45.0,0.0,0.0,0.0,34.27253218749016,17.55503396713325,10.397759665223218,9.65314255959986,9.181446333170031,8.65955621113246,8.014683376056988,7.267846465322344,6.414352814124443,5.499731250309428,4.54798354885593,3.5268949517433335,2.471327232436818,1.5130339404054711,0.7900851366322347,0.3501373670100183,0.12176463581379346,10.967692121162267,10.530035545078421,10.240474785175616,9.909461834484045,9.482751439345053,8.961853848147962,8.327233870909364,7.592995081454753,6.756675527186437,5.751688538413301,4.5503336527226255,3.2488213247706685,2.0450416057908396,1.1269656088365543,0.5121193664765955
0.0,6.0,6.0,0.0,120.0,0.0,0.0,0.0,0.0,-107.0,0.0,-45.0,0.0,0.0,0.0,34.27253218749016,17.55503396713325,10.399787765060081,9.655164594810554,9.183462326792448,8.661563180854868,8.016675469889766,7.269813477022158,6.416205413420781,5.500573254121435,4.545106287938958,3.517559894360055,2.4563980259259277,1.4969848363067988,0.7773870350825239,0.3424301278799454,0.11832209922667637,10.975103558013254,10.537431364339053,10.247855028568468,9.91681879309979,9.490069823690613,8.969109765671977,8.334335252883122,7.599152136394975,6.759030822742619,5.745927577076475,4.5345902695987546,3.226302098983645,2.022144707241899,1.109092080553995,0.5015281137156018
0.0,7.0,7.0,0.0,120.0,0.0,0.0,0.0,0.0,-107.0,0.0,-45.0,0.0,0.0,0.0,34.27253218749016,17.55503396713325,10.401778241129945,9.65714907213936,9.185440829012201,8.663532756234858,8.018630336420914,7.271743139276983,6.418004786265858,5.501243456122093,4.541809363640825,3.5076386733421403,2.4409625105676827,1.4806579704244576,0.7646212355204969,0.33475861750773045,0.11492683240749174,10.982446227869957,10.544758425440005,10.255166523168336,9.924107015684143,9.49731949999406,8.976296748851263,8.341355717489156,7.605126130011944,6.760940584521151,5.739451729619393,4.5180833056537315,3.2032046196499318,1.9989563489436872,1.0911625468622537,0.49099194983956057
0.0,8.0,8.0,0.0,120.0,0.0,0.0,0.0,0.0,-107.0,0.0,-45.0,0.0,0.0,0.0,34.27253218749016,17.55503396713325,10.403732153918908,9.659097049460321,9.187382895161134,8.665465988690615,8.0205490176788,7.273636367022486,6.41974861686858,5.501726290561135,4.538063370832241,3.497100848827558,2.42499626938372,1.4640363275618142,0.7517783045414291,0.32711849535768295,0.11157708612196687,10.989722085022631,10.552018677918912,10.262411213805382,9.931328439843393,9.504502392526526,8.983416623543816,8.34829464957919,7.610904681845854,6.7623763033698765,5.732226078506125,4.500779759689164,3.1795017056925747,1.9754590680744881,1.07316843324586,0.48050756851011106
0.0,9.0,9.0,0.0,120.0,0.0,0.0,0.0,0.0,-107.0,0.0,-45.0,0.0,0.0,0.0,34.27253218749016,17.55503396713325,10.405650399938976,9.661009421351174,9.189289417923694,8.667363768103865,8.022432394833272,7.27549387892604,6.421433836158444,5.502004376698945,4.53383737298718,3.485915971140742,2.4084761772435286,1.4471047749196009,0.738850399884924,0.3195063108236422,0.10827143662767928,10.996932708617225,10.559213697283317,10.269590672387915,9.938484632014301,9.51162005655628,8.990470825663968,8.355150620481753,7.616473570295961,6.76330747901396,5.724214763112824,4.482646842062326,3.1551673976386687,1.9516370244376031,1.0551024278807253,0.47007229190982097
0.0,10.0,10.0,0.0,120.0,0.0,0.0,0.0,0.0,-107.0,0.0,-45.0,0.0,0.0,0.0,34.27253218749016,17.55503396713325,10.40753372917244,9.662886936472331,9.191161144641445,8.66922684005566,8.02428120514086,7.2773162022208115,6.423056542344481,5.502058390569005,4.529098828527385,3.474053457908269,2.3913801807850414,1.429849832803262,0.7258311019514392,0.31191941234681886,0.10500875176036942,11.004079331202377,10.566344713472471,10.276706126276897,9.945576815742502,9.51867370632224,8.997460420846231,8.361921340588605,7.621816625148188,6.763701556772149,5.7153809101613415,4.463651845618195,3.1301768127314,1.9274758717216731,1.036958391685639,0.45968402497080746
0.0,11.0,11.0,0.0,120.0,0.0,0.0,0.0,0.0,-107.0,0.0,-45.0,0.0,0.0,0.0,34.27253218749016,17.55503396713325,10.409382760631663,9.664730213070857,9.192998692751331,8.671055821207629,8.026096057043008,7.279103672424968,6.424611906844121,5.501866929876902,4.523813526802186,3.461482494582726,2.3736871182388435,1.4122594864009124,0.7127152723290571,0.3043558690395863,0.10178816098159853,11.011162864523504,10.57341263657605,10.283758483925974,9.95260589723931,9.525664240291464,9.004386119156296,8.368603598934003,7.62691561095341,6.763523866287844,5.705686568845441,4.44376202914665,3.1045060202679946,1.9029626476745967,1.0187312802598736,0.44934121460256193
0.0,12.0,12.0,0.0,120.0,0.0,0.0,0.0,0.0,-107.0,0.0,-45.0,0.0,0.0,0.0,34.27253218749016,17.55503396713325,10.411197996300862,9.666539752874668,9.194802563621849,8.672851213087188,8.027877443656305,7.280856427393132,6.426094064465168,5.50140637214626,4.517945531878038,3.448171953245415,2.3553765723951106,1.3943230322202536,0.6994989352261506,0.2968144029622519,0.09860902882916192,11.018183922909857,10.580418080153134,10.290748358128209,9.959572488552665,9.532592264022252,9.011248284611769,8.375193188924655,7.6317501013693665,6.762737561530911,5.69509264891786,4.422944512183233,3.0781319355578534,1.8780856813420863,1.000417076367554,0.43904281331170986
0.0,13.0,13.0,0.0,120.0,0.0,0.0,0.0,0.0,-107.0,0.0,-45.0,0.0,0.0,0.0,34.27253218749016,17.55503396713325,10.412979833686595,9.668315953601946,9.19657315501134,8.674613414494702,8.029625754841895,7.282574394943943,6.427495986628474,5.500650726417721,4.511457132802573,3.4340903256418476,2.3364287512968676,1.3760309538980875,0.6861791783730088,0.28929433048496384,0.09547093129483601,11.025142844550489,10.587361382445607,10.297676087162078,9.966476928639173,9.539458110899767,9.018046939111867,8.381684819266367,7.636297344692829,6.7613035614901404,5.683558860186349,4.401166180033921,3.0510322309946556,1.8528345157196326,0.9820127317895756,0.4287882466818836
0.0,14.0,14.0,0.0,120.0,0.0,0.0,0.0,0.0,-107.0,0.0,-45.0,0.0,0.0,0.0,34.27253218749016,17.55503396713325,10.414728577169837,9.67005912027724,9.198310772339536,8.67634273271701,8.031341287989523,7.2842572730838135,6.428809336338893,5.499571478967435,4.504308799323414,3.419205667245871,2.3168243923404144,1.3573748230275575,0.6727540705097851,0.28179551140350295,0.09237363472315903,11.032039710914317,10.594242625739652,10.30454175408959,9.973319302584693,9.546261860961215,9.024781760198614,8.388072009034437,7.640532120904001,6.7591804910501025,5.671043652022314,4.3783935980208675,3.0231852628741875,1.8271998443555955,0.9635161175042845,0.41857738424648183
0.0,15.0,15.0,0.0,120.0,0.0,0.0,0.0,0.0,-107.0,0.0,-45.0,0.0,0.0,0.0,34.27253218749016,17.55503396713325,10.416444448323913,9.67176947551703,9.200015638935202,8.678039393702877,8.03302425759619,7.285904501597213,6.430024303550867,5.498137433649034,4.496459142231848,3.403485549809015,2.2965446863592627,1.3383472214174117,0.6592225930374936,0.2743183046740791,0.08931707688264064,11.038874364534463,10.60106165409459,10.311345204425109,9.98009945918635,9.553003357976944,9.031452071878348,8.394346965747786,7.644426590629299,6.756324621551766,5.657504151621864,4.354592934091239,2.9945700127441697,1.801173460618558,0.9449259812804525,0.40841051334219797
0.0,16.0,16.0,0.0,120.0,0.0,0.0,0.0,0.0,-107.0,0.0,-45.0,0.0,0.0,0.0,34.27253218749016,17.55503396713325,10.418127595338682,9.673447168923756,9.201687905399519,8.679703551332576,8.034674803657534,7.287515223495971,6.431129419537152,5.4963145475861825,4.4878648776014245,3.3868970203800863,2.275571219000281,1.3189416818336854,0.645584583790487,0.2668635297962495,0.08630134990906702,11.04564642534798,10.607818089629234,10.318086062365284,9.986817027080239,9.559682224902119,9.038056827518286,8.400500445237801,7.647950136505753,6.752689810488131,5.6428960998793,4.329729889089818,2.9651660422358557,1.7747482185045615,0.9262419118730041,0.398288315578142
0.0,17.0,17.0,0.0,120.0,0.0,0.0,0.0,0.0,-107.0,0.0,-45.0,0.0,0.0,0.0,34.27253218749016,17.55503396713325,10.419778101670918,9.675092285706858,9.203327658204564,8.681335295893367,8.036292998814954,7.289088234509086,6.432111348859083,5.494065763051932,4.478480794222544,3.369406565209721,2.253885927299714,1.2991526447996797,0.6318406912054345,0.25943243300979696,0.08332668486138606,11.052355305756084,10.614511347530426,10.324763745744924,9.993471429573564,9.566297877753955,9.044594583594582,8.406521592051305,7.65106919749717,6.748227439690934,5.62717378384166,4.30376963415756,2.9349534604901306,1.7479180040058306,0.907464309104415,0.38821184559590527
0.0,18.0,18.0,0.0,120.0,0.0,0.0,0.0,0.0,-107.0,0.0,-45.0,0.0,0.0,0.0,34.27253218749016,17.55503396713325,10.421395994023777,9.676704854632261,9.204934927629647,8.682934661856471,8.037878854109604,7.290621918449215,6.432954657559847,5.491350836467499,4.468259723515186,3.350980077314777,2.2314710698597597,1.2789754294649331,0.6179923374248545,0.25202665758606857,0.08039343766503185,11.05900022454783,10.621140649926167,10.331377479862116,10.000061898318432,9.572849537901009,9.051063462803834,8.412397759099406,7.653747096769282,6.742886351232753,5.610289964816106,4.276676754878586,2.9039129034497324,1.720677716195424,0.8885943591950618,0.37818251183033696
0.0,19.0,19.0,0.0,120.0,0.0,0.0,0.0,0.0,-107.0,0.0,-45.0,0.0,0.0,0.0,34.27253218749016,17.55503396713325,10.422981249743804,9.67828485538733,9.206509695123527,8.684501635037186,8.03943232307763,7.292114165909767,6.433641556263303,5.488126165531077,4.457152511143446,3.331582826786633,2.2083092094320382,1.2584062169145034,0.60404168909136,0.24464821759009092,0.07750207624684362,11.065580219810125,10.627705038746068,10.33792631029605,10.006587485945179,9.579336242667077,9.057461104756642,8.418114305262392,7.655943863772623,6.7366127801002476,5.592195801302482,4.248415201951901,2.872025524442854,1.6930232573002424,0.869634014774717,0.3682020590106809
0.0,20.0,20.0,0.0,120.0,0.0,0.0,0.0,0.0,-107.0,0.0,-45.0,0.0,0.0,0.0,34.27253218749016,17.55503396713325,10.424533803711801,9.679832225435936,9.208051900168313,8.686036159208912,8.0409533037717,7.293562273326566,6.434151616966082,5.484344615544339,4.445107989468451,3.3111794332033866,2.1843832070513427,1.2374420445890286,0.5899916347696214,0.23729947457031786,0.07465316869059709,11.072094160929758,10.634203387674537,10.344409114824195,10.013047077757204,9.585756854048613,9.063784602148441,8.423654369689931,7.657616051201161,6.729350282498207,5.57284076602705,4.218948248313571,2.8392729956293072,1.6649515311400462,0.850585979066624,0.35827255216701936
0.0,21.0,21.0,0.0,120.0,0.0,0.0,0.0,0.0,-107.0,0.0,-45.0,0.0,0.0,0.0,34.27253218749016,17.55503396713325,10.426053554793947,9.681346866428388,9.209561446709792,8.687538142232684,8.04244163810175,7.294962818981619,6.434461462465523,5.479955346030545,4.432072949869034,3.2897338397594567,2.1596762271433283,1.2160808107351502,0.5758457680824292,0.22998311670028362,0.07184737226352446,11.078540759778212,10.640634413287477,10.350824614530413,10.019439402575598,9.59211006521424,9.070030419949447,8.428998621601426,7.65871654748556,6.721039658419308,5.5521725564623345,4.18823845277617,2.805637520020375,1.6364604494035968,0.8314536937855925,0.34839636192900647
0.0,22.0,22.0,0.0,120.0,0.0,0.0,0.0,0.0,-107.0,0.0,-45.0,0.0,0.0,0.0,34.27253218749016,17.55503396713325,10.427540371910789,9.682828650222087,9.211038209209208,8.689007461755892,8.04389710764146,7.296311512035808,6.434544427575569,5.474903638728233,4.417992113840139,3.267209288967372,2.1341717532663407,1.1943212880137524,0.5616083757701115,0.22270213995311672,0.06908542318251591,11.084918581158199,10.64699668545153,10.357171384183774,10.025763042811864,9.598394404291442,9.076194294772396,8.43412498449553,7.659194385431451,6.711618866868515,5.53013699833565,4.1562476303896485,2.771101853915993,1.6075489453158092,0.8122413303339706,0.3385761509224591
0.0,23.0,23.0,0.0,120.0,0.0,0.0,0.0,0.0,-107.0,0.0,-45.0,0.0,0.0,0.0,34.27253218749016,17.55503396713325,10.428994099774153,9.684277424561197,9.212482038361692,8.690443970525246,8.04531942472998,7.297603010156605,6.434370191551132,5.46913072798553,4.402808101656135,3.2435683000217463,2.1078536143487874,1.1721631455676518,0.547284429982409,0.21545983093752713,0.06636812700452038,11.091226052582398,10.65328863705645,10.363447861958617,10.032016443839403,9.604608234738246,9.08227111116758,8.439008333827,7.6589945475150865,6.70102293186744,5.506677941757692,4.122936829859622,2.735649339730615,1.5782169943221525,0.7929537839140546,0.32881486108538655
0.0,24.0,24.0,0.0,120.0,0.0,0.0,0.0,0.0,-107.0,0.0,-45.0,0.0,0.0,0.0,34.27253218749016,17.55503396713325,10.430414564334068,9.68569301845587,9.213892766516285,8.691847501347706,8.04670821729551,7.298830700764497,6.433904381471892,5.462573634463042,4.386461397268126,3.2187726481511554,2.080706021458418,1.1496069789969663,0.5328795841920306,0.20825975106396655,0.06369634953956392,11.097461473450412,10.659508573147125,10.369652358561327,10.038197922730042,9.610749751337256,9.088254751162435,8.443620167404204,7.6580577681875495,6.689183837088066,5.481737149743962,4.08826631848932,2.699263949302464,1.5484656414800995,0.7735966702042535,0.31911570173858766
0.0,25.0,25.0,0.0,120.0,0.0,0.0,0.0,0.0,-107.0,0.0,-45.0,0.0,0.0,0.0,34.27253218749016,17.55503396713325,10.431801577968566,9.687075247292704,9.215270212820103,8.693217871714216,8.048063005315706,7.299986440367263,6.433108146728458,5.455165002863737,4.36889030800188,3.1927833465227002,2.0527136152959695,1.1266543478147728,0.5184001721810448,0.20110572174350702,0.0610710081969632,11.103623023689773,10.665654679521634,10.375783065827727,10.044305676418643,9.616816970521718,9.094137912915206,8.447928248003537,7.656320333301024,6.676030406685534,5.455254179056828,4.052195575241924,2.6619303379017456,1.5182970353018042,0.7541763242687884,0.3094821382573834
0.0,26.0,26.0,0.0,120.0,0.0,0.0,0.0,0.0,-107.0,0.0,-45.0,0.0,0.0,0.0,34.27253218749016,17.55503396713325,10.433154944518616,9.688423917776493,9.216614188171254,8.694554888144749,8.049383166257522,7.301060245962263,6.431937705253221,5.446832944158265,4.350030917530575,3.165560631440848,2.0238615246288516,1.1033078199988067,0.5038532097226766,0.1940018102819102,0.05849306369178643,11.109708767396352,10.6717250263305,10.38183806032264,10.05033778482462,9.622807708822963,9.09991188944887,8.451896213710148,7.653713872600691,6.661488166783334,5.427166252749322,4.014683295484777,2.623633914342667,1.487714465102333,0.7346998011339653,0.299917881389249
0.0,27.0,27.0,0.0,120.0,0.0,0.0,0.0,0.0,-107.0,0.0,-45.0,0.0,0.0,0.0,34.27253218749016,17.55503396713325,10.434474471776285,9.689738840295027,9.21792450753344,8.695858357713517,8.050667893415179,7.3020399391637385,6.430343869451709,5.437500888326457,4.32981703463344,3.1370639522290586,1.994135430654865,1.0795710152128857,0.4892464038838073,0.18695231586974884,0.05596351182103203,11.115716629851228,10.677717545040956,10.387815280294229,10.056292187272188,9.628719525595095,9.105566281057042,8.455483135502034,7.650165126048477,6.6454791707498275,5.397408120884926,3.975687421519933,2.584360952045173,1.4567223889380578,0.7151748761781033,0.2904268780245208
0.0,28.0,28.0,0.0,120.0,0.0,0.0,0.0,0.0,-107.0,0.0,-45.0,0.0,0.0,0.0,34.27253218749016,17.55503396713325,10.43575997022021,9.691019827613392,9.219200988615748,8.697128085842941,8.051916122262714,7.302910716355369,6.428271535435311,5.4270874323397615,4.308180127480324,3.1072519698492025,1.9635216570604672,1.055448670239795,0.4745881506413706,0.17996175769040032,0.053483376283455474,11.121644518873179,10.683630151629135,10.393712650656596,10.062166809393586,9.634549808195546,9.11108882204117,8.45864321405624,7.645595875728982,6.627921965988661,5.365912044966174,3.935165236335489,2.5440986927790483,1.4253265696001731,0.6956099236154609,0.2810133718045906
0.0,29.0,29.0,0.0,120.0,0.0,0.0,0.0,0.0,-107.0,0.0,-45.0,0.0,0.0,0.0,34.27253218749016,17.55503396713325,10.437011254329704,9.692266696036189,9.220443452822726,8.698363875727587,8.05312643417286,7.303654651408942,6.425659149867955,5.4155061909643765,4.285049244458731,3.0760825581896896,1.9320072664258137,1.030946708471171,0.45988754004098853,0.1730348599510944,0.051053701607415014,11.127490221186875,10.689460643436291,10.39952798035434,10.067959460493917,9.640295609792718,9.11646492213425,8.46132521674014,7.639922646674434,6.6087313419950675,5.3326076647109115,3.89307350847238,2.502835612810972,1.3935340696863283,0.6760138776148874,0.2716819191646405
0.0,30.0,30.0,0.0,120.0,0.0,0.0,0.0,0.0,-107.0,0.0,-45.0,0.0,0.0,0.0,34.27253218749016,17.55503396713325,10.43822814244491,9.69347926508653,9.22165172456666,8.699565525198215,8.054296926814658,7.304250119937631,6.422438154310671,5.4026656461793054,4.2603509180184655,3.0435128070766377,1.8995801582236576,1.006072303643759,0.4451543730635682,0.16617654458797976,0.04867554108551099,11.133251433504718,10.69520671744881,10.405258967738195,10.073667818275862,9.645953520519777,9.121677148525304,8.46347179677015,7.633056162278166,6.587817598822821,5.297421098823427,3.8493675275962693,2.4605605139083995,1.3613532216956157,0.656397162182418,0.2624368477309057
0.0,31.0,31.0,0.0,120.0,0.0,0.0,0.0,0.0,-107.0,0.0,-45.0,0.0,0.0,0.0,34.27253218749016,17.55503396713325,10.439410470518922,9.694657371252877,9.222825644660336,8.700732836384843,8.055425059004671,7.304671154689046,6.4185324292414405,5.388469013736264,4.2340090750455905,3.009499058786039,1.8662292030969774,0.9808339616499588,0.4303991609426868,0.15939191047858361,0.04634995505641847,11.138925786707878,10.700866011237133,10.410903258092617,10.079289509200827,9.651519682591584,9.126704932223962,8.46501926776307,7.624901553929705,6.56508696041079,5.260275771449367,3.8040024580251375,2.417263935799652,1.3287938473011391,0.6367704939827651,0.25328293707151367
0.0,32.0,32.0,0.0,120.0,0.0,0.0,0.0,0.0,-107.0,0.0,-45.0,0.0,0.0,0.0,34.27253218749016,17.55503396713325,10.440558092006501,9.695800867760164,9.223965069424585,8.701865608301956,8.05650742975167,7.304886693811964,6.413857709294479,5.3728140887774325,4.205944915887875,2.973996941362501,1.8319443780652729,0.9552416025878028,0.4156331362027461,0.15268622220825387,0.04407800146941483,11.144510848046972,10.706436098970798,10.416458433208101,10.084822084998276,9.656989612138485,9.131523951709655,8.465896957384986,7.61535793123752,6.540441017336034,5.221091886013423,3.7569329343982587,2.37293782024303,1.2958672758361025,0.6171453393171135,0.2442251490827083
0.0,33.0,33.0,0.0,120.0,0.0,0.0,0.0,0.0,-107.0,0.0,-45.0,0.0,0.0,0.0,34.27253218749016,17.55503396713325,10.441670880589308,9.696909627250285,9.225069872552227,8.702963627961834,8.057539496148204,7.30485973306606,6.408320993078973,5.3555930863320285,4.176076783474508,2.9369614236839547,1.7967169230285818,0.9293066506885084,0.40086826029153644,0.1460648954018184,0.04186072861324067,11.15000413017706,10.71191450058218,10.421922020306436,10.090263025466102,9.662358023011226,9.136105508087237,8.466026649823641,7.604318096543742,6.513776384046606,5.179786266202425,3.7081131595668673,2.3275756722284133,1.2625864242551683,0.5975339204790174,0.2352686168041079
0.0,34.0,34.0,0.0,120.0,0.0,0.0,0.0,0.0,-107.0,0.0,-45.0,0.0,0.0,0.0,34.27253218749016,17.55503396713325,10.442748731945025,9.69798354355603,9.226139945882577,8.704026653537674,8.058515210451342,7.304546371324455,6.40181994745711,5.336692466427911,4.144320018338795,2.8983468909864993,1.7605395160894262,0.9030421302571495,0.3861172303930819,0.1395334812139027,0.03969916787641287,11.155403101048138,10.7172986918561,10.427291501847298,10.095609738167319,9.667618598403916,9.140415816798694,8.46532201003668,7.59166822654385,6.4849843129798055,5.136272198437753,3.65749702381978,2.281172739115527,1.2289658822923144,0.5779492216880932,0.22641863275825486
0.0,35.0,35.0,0.0,120.0,0.0,0.0,0.0,0.0,-107.0,0.0,-45.0,0.0,0.0,0.0,34.27253218749016,17.55503396713325,10.443791564220842,9.699022532240694,9.22717519879149,8.705054385430069,8.05942655744042,7.303894743610165,6.394242309847593,5.315992736558553,4.110586800622338,2.858107244631261,1.7234064694746907,0.876462767438996,0.37139348493493285,0.13309764981883243,0.0375943265206,11.16070519472035,10.722586115530524,10.432564326325329,10.100859552803582,9.672763697603454,9.144415209971065,8.46368799091818,7.577287511241334,6.453950262769894,5.090459278411859,3.6050382484250423,2.2337262090809253,1.195022002637487,0.5584049942506817,0.21768063672242638
0.0,36.0,36.0,0.0,120.0,0.0,0.0,0.0,0.0,-107.0,0.0,-45.0,0.0,0.0,0.0,34.27253218749016,17.55503396713325,10.444799316872546,9.700026529571574,9.228175555923613,8.706046419338673,8.060262969939606,7.302843837400552,6.385465291324454,5.293368222964621,4.074785980992062,2.81619603033275,1.6853139480312043,0.8495850975712445,0.35671120726478783,0.12676317275194712,0.03554718044502106,11.165907822990334,10.72777419330839,10.437737919992138,10.106009706762746,9.677783982642085,9.148057244013112,8.461020223469506,7.56104773854275,6.42055341818839,5.042253264761317,3.5506905570409875,2.1852354303399095,1.160772995898284,0.5389157605740894,0.20906020284200943
0.0,37.0,37.0,0.0,120.0,0.0,0.0,0.0,0.0,-107.0,0.0,-45.0,0.0,0.0,0.0,34.27253218749016,17.55503396713325,10.445771947641743,9.700995489698645,9.229140953107484,8.707002173134418,8.061010597094556,7.301322189959314,6.3753549819616655,5.268686801029328,4.036822903398719,2.772566599511703,1.6462602124183876,0.8224275778172185,0.3420853269306078,0.12053590396514054,0.033558666912973524,11.171008387464324,10.732860338420824,10.442809699177037,10.111057316551422,9.682667946810222,9.151287707811944,8.457204388381973,7.542812810762321,6.384666159971573,4.991555943535813,3.4944078792236337,2.135702152699289,1.1262390300386682,0.5194968166388888,0.2005630259900663
0.0,38.0,38.0,0.0,120.0,0.0,0.0,0.0,0.0,-107.0,0.0,-45.0,0.0,0.0,0.0,34.27253218749016,17.55503396713325,10.446709427727026,9.701929380081525,9.230071331530322,8.70792077633218,8.061651396767873,7.299246467064166,6.363765757944387,5.2418095741851785,3.996599223755041,2.72717230887439,1.606245889206902,0.7950107047067068,0.32753151796209284,0.11442175946791491,0.03162967720398957,11.176004291439074,10.737841968091425,10.447777082556563,10.115999327443287,9.687401323975573,9.15404352786218,8.452115565023696,7.522438177233637,6.346153483248113,4.938265007811442,3.436144591006684,2.0851307930828287,1.0914423338948456,0.5001642325127972,0.19219490726403937
0.0,39.0,39.0,0.0,120.0,0.0,0.0,0.0,0.0,-107.0,0.0,-45.0,0.0,0.0,0.0,34.27253218749016,17.55503396713325,10.447611735702138,9.70282817569315,9.230966630595962,8.708800907091772,8.062162020481713,7.296519926686762,6.350539687330374,5.212590490244061,3.9540127299143486,2.67996676375227,1.5652742701077442,0.7673571361172823,0.31306619352053666,0.10842669542761564,0.029761049151575635,11.180892950745285,10.742716515018559,10.452637502389546,10.120832430631564,9.691966354629916,9.156251567936637,8.44561755059016,7.499770165235078,6.304872363852666,4.882273957588853,3.375855798313931,2.0335287267585618,1.056407304266362,0.48093485046807266,0.18396173848611685
0.0,40.0,40.0,0.0,120.0,0.0,0.0,0.0,0.0,-107.0,0.0,-45.0,0.0,0.0,0.0,34.27253218749016,17.55503396713325,10.44847885143922,9.703691853223141,9.231826780243017,8.709640556656868,8.062512456920636,7.2930307748395675,6.335505927887769,5.180875884148379,3.908957169783155,2.630904111177627,1.5233516425368416,0.739491817120044,0.29870649625540263,0.10255668459604898,0.02795355953401188,11.185671802715554,10.747481436962891,10.45738841347715,10.125552933431047,9.696340881825138,9.15782732253898,8.437562138091357,7.474645189677244,6.260671072367373,4.823472026011953,3.313497669726569,1.980906606087861,1.021160615976745,0.46182628023828387,0.17586948553963752
0.0,41.0,41.0,0.0,120.0,0.0,0.0,0.0,0.0,-107.0,0.0,-45.0,0.0,0.0,0.0,34.27253218749016,17.55503396713325,10.449310752095341,9.70452038730229,9.23265169359315,8.710436694581073,8.062664398323317,7.28865042464322,6.318480106004752,5.1465039369223575,3.86132209598564,2.579939389171777,1.4804876537524594,0.7114421089679909,0.2844702836617829,0.09681769091394173,0.026207916312181848,11.190338312823497,10.752134223864642,10.46202729849428,10.130156563598039,9.700497248020742,9.158673505391384,8.427788336909725,7.446888820635609,6.213388436229628,4.761744138933812,3.249027825840236,1.9272787087128136,0.9857313341975358,0.4428568909104354,0.1679241703377162
0.0,42.0,42.0,0.0,120.0,0.0,0.0,0.0,0.0,-107.0,0.0,-45.0,0.0,0.0,0.0,34.27253218749016,17.55503396713325,10.450107412867256,9.705313751427706,9.233441260130254,8.711184799445512,8.0625692932931,7.283231673157953,6.29926366006503,5.109304042139047,3.8109927372001717,2.527028939383808,1.4366957110207978,0.6832379203119436,0.27037610764681913,0.09121564212681098,0.024524750758167117,11.194889979421491,10.756672402743353,10.466551668344662,10.1346381835456,9.70440096273028,9.158678536512573,8.416121513876353,7.416314686967466,6.162853050627887,4.696970915952748,3.1824057931634253,1.872663317200086,0.950151028222618,0.42404579888736693,0.16013185119526036
0.0,43.0,43.0,0.0,120.0,0.0,0.0,0.0,0.0,-107.0,0.0,-45.0,0.0,0.0,0.0,34.27253218749016,17.55503396713325,10.45086881532316,9.706071926401398,9.234195337404568,8.711878208382204,8.062166049737082,7.276606812853142,6.277643124696617,5.069096073504365,3.757849908129063,2.47213089120148,1.3919934207930078,0.6549118394666334,0.2564431873553049,0.08575640023968731,0.02290460958769042,11.199324338333701,10.761093541913263,10.470959056054301,10.138991383905365,9.708009111024758,9.157714933693628,8.402372426114647,7.382723193938917,6.108882439097496,4.629028722289434,3.113593531424807,1.8170831322653638,0.9144538857245234,0.4054128512685225,0.15249860138168406
0.0,44.0,44.0,0.0,120.0,0.0,0.0,0.0,0.0,-107.0,0.0,-45.0,0.0,0.0,0.0,34.27253218749016,17.55503396713325,10.451594976680692,9.706794929572109,9.234913745675772,8.71250723489932,8.06137836346621,7.268585704540013,6.25338933217224,5.0256895558249886,3.7017699731942075,2.4152057214657856,1.3464030615200335,0.6264992666754705,0.24269137432807178,0.08044573157049181,0.0213479460908374,11.203638902759128,10.765395193762213,10.4752469422004,10.143207864754661,9.711268431915869,9.155637590878209,8.386336114414192,7.3459000862182755,6.051282287935358,4.557789986955153,3.0425562593079944,1.7605656512329897,0.8786766465556589,0.3869787702854891,0.14503046629699343
0.0,45.0,45.0,0.0,120.0,0.0,0.0,0.0,0.0,-107.0,0.0,-45.0,0.0,0.0,0.0,34.27253218749016,17.55503396713325,10.452286042464074,9.707482907849382,9.235596293834687,8.7130580190963,8.060111684865012,7.258953871086114,6.226256534140164,4.978882780903734,3.6426249090501566,2.3562169012359067,1.2999520563382247,0.5980385432353981,0.22914112040620943,0.07528926863696955,0.01985511385202506,11.207831259555737,10.769574984518444,10.479412798654225,10.147276728998095,9.714113181076385,9.152282035467836,8.367790603944183,7.30561467879169,5.989845383123002,4.483123176453442,2.969262935890756,1.7031437316609235,0.8428588904678566,0.368764962299886,0.1377334553666136
0.0,46.0,46.0,0.0,120.0,0.0,0.0,0.0,0.0,-107.0,0.0,-45.0,0.0,0.0,0.0,34.27253218749016,17.55503396713325,10.452942209406068,9.708136061099042,9.236242578304754,8.713510778531761,8.058249567537539,7.247470395075284,6.195981182688701,4.928461702104864,3.5802823961212606,2.29513169835818,1.25267364715762,0.5695710724962519,0.21581341008531812,0.07029246880469141,0.01842636452052537,11.21189926137448,10.773630790128669,10.483454174911255,10.151183562487292,9.71646269220813,9.14746260470391,8.346495296629685,7.261617684251283,5.924350219478748,4.404892439559106,2.8936864345095423,1.6448563349121132,0.8070437215675431,0.35079294230369706,0.13061358045960406
0.0,47.0,47.0,0.0,120.0,0.0,0.0,0.0,0.0,-107.0,0.0,-45.0,0.0,0.0,0.0,34.27253218749016,17.55503396713325,10.453563799384485,9.708754715283177,9.236851833425108,8.713837656241259,8.055649695851685,7.233865919312138,6.1622805849894435,4.874198834757438,3.5146060608173952,2.2319220511389832,1.2046074990368043,0.5411414335368064,0.20272969315037406,0.0654605850867951,0.017061836342582296,11.215840817593545,10.777560544151722,10.48736839318919,10.154908878641713,9.718218386890666,9.140970486627106,8.322189243531444,7.213639348470608,5.85456068626608,4.322959082195474,2.8158055593928015,1.585748714790645,0.7712769075262946,0.333085192835327,0.12367672091136166
0.0,48.0,48.0,0.0,120.0,0.0,0.0,0.0,0.0,-107.0,0.0,-45.0,0.0,0.0,0.0,34.27253218749016,17.55503396713325,10.45415129927133,9.709339360370796,9.237422589211882,8.713999845343679,8.052139417771974,7.217840571141227,6.124851226075732,4.815852086273969,3.4454558775420114,2.166565610366378,1.155800371392449,0.512797486011152,0.1899118087816686,0.06079862129623019,0.015761549825902704,11.219654048524758,10.781362375395643,10.491152447324287,10.15842636489355,9.719260581781791,9.132571681902135,8.294588824627665,7.161386757511256,5.780224699993872,4.2371816514622,2.735605716092641,1.5258731866067579,0.7356073562827226,0.31566474485943247,0.11692863574344672
0.0,49.0,49.0,0.0,120.0,0.0,0.0,0.0,0.0,-107.0,0.0,-45.0,0.0,0.0,0.0,34.27253218749016,17.55503396713325,10.454705366168428,9.709890648058227,9.237952040374083,8.713943824078862,8.047510794059558,7.199061762484144,6.083366679537616,4.753163534535752,3.3726887633260487,2.099046964867004,1.1063068491845305,0.4845904512963451,0.17738189415946135,0.05631128857545613,0.014525402201606582,11.223337365559871,10.785034676867243,10.494802694288133,10.161700529366287,9.719444904726478,9.12200482944884,8.263385009896059,7.104541005587091,5.701073114787714,4.147416631319814,2.6530801703451483,1.4652897835023249,0.7000871914145895,0.29855511551007324,0.11037493160772578
0.0,50.0,50.0,0.0,120.0,0.0,0.0,0.0,0.0,-107.0,0.0,-45.0,0.0,0.0,0.0,34.27253218749016,17.55503396713325,10.455226785569982,9.710409328748304,9.23843497634164,8.713596507971543,8.041515184920012,7.177161779191402,6.037475022673269,4.685858186709284,3.2961594230267166,2.029359085146097,1.0561901241334744,0.45657496604382797,0.16516227946567635,0.05200295945064421,0.013353161651780934,11.226889544659679,10.788576160723496,10.498314306504678,10.164683662775074,9.718598344242913,9.108978802442712,8.228240013545308,7.042754039196118,5.6168186412561205,4.053519360025301,2.5682314942297317,1.4040669524533786,0.6647718113689368,0.2817802348247156,0.10402102932720583
0.0,51.0,51.0,0.0,120.0,0.0,0.0,0.0,0.0,-107.0,0.0,-45.0,0.0,0.0,0.0,34.27253218749016,17.55503396713325,10.45571637294185,9.710896101357104,9.238862066061353,8.71285911670638,8.03385741140464,7.151735027390333,5.986795666541192,4.613642745859407,3.215721503803179,1.9575050189853258,1.0055228224289434,0.42880910270953265,0.15327536741557,0.04787761938632754,0.012244460642476316,11.23030975486992,10.791985852642803,10.501680329979962,10.167311946333966,9.71651491434166,9.093169927315843,8.188783193494396,6.9756451533287995,5.527154822770804,3.9553452358492507,2.48107322297195,1.3422822840753792,0.6297199296020587,0.2653643600217671,0.09787212870315246
0.0,52.0,52.0,0.0,120.0,0.0,0.0,0.0,0.0,-107.0,0.0,-45.0,0.0,0.0,0.0,34.27253218749016,17.55503396713325,10.456174835540983,9.711351360185438,9.239217242773293,8.711599580311036,8.02418956287766,7.122334771363852,5.930915527878302,4.536204417242664,3.1312291197759428,1.8834998672421228,0.9543878732617057,0.4013543537332526,0.14174349412351916,0.0439388160456971,0.011198787820631403,11.233597494604545,10.795262961007962,10.50489013697131,10.169500521241192,9.712950906191576,9.074218608574778,8.144606018756456,6.902797107966303,5.431755138964184,3.8527512905743735,2.3916317461790553,1.2800232703617545,0.5949935913686325,0.24933197566261378,0.09193317068409383
0.0,53.0,53.0,0.0,120.0,0.0,0.0,0.0,0.0,-107.0,0.0,-45.0,0.0,0.0,0.0,34.27253218749016,17.55503396713325,10.456602650464792,9.711774834946981,9.239473882183123,8.709643368118911,8.012104556937656,7.08846916992609,5.8693845017215915,4.453209793086553,3.042538805614911,1.807373062809346,0.9028794118831573,0.3742755760539315,0.1305887674209245,0.04018960679686157,0.010215478530782,11.236752403427719,10.798406554920602,10.507927017146995,10.171137351412634,9.707619695773758,9.051725074459648,8.095255904469996,6.82375182231537,5.330272324120707,3.7455982166975246,2.2999484571166287,1.2173880873325484,0.5606581601604627,0.23370767801456407,0.0862087954587291
0.0,54.0,54.0,0.0,120.0,0.0,0.0,0.0,0.0,-107.0,0.0,-45.0,0.0,0.0,0.0,34.27253218749016,17.55503396713325,10.457000049854686,9.712165108494908,9.23958939799142,8.706762704388051,7.997129569189031,7.049596388100762,5.801710235664068,4.364303866384213,2.9495119560461998,1.7291709798543276,0.8511037126499101,0.3476408870728801,0.1198328800586137,0.036632505255270155,0.00929370512069834,11.239773970384144,10.801415010612818,10.510764633743221,10.17207577733697,9.700186089570929,9.025243908185844,8.040228705895482,6.738005588086338,5.222337996120777,3.6337529364388166,2.206082185554612,1.1544864024834423,0.5267822634721223,0.218516042166267,0.08070329496254268
0.0,55.0,55.0,0.0,120.0,0.0,0.0,0.0,0.0,-107.0,0.0,-45.0,0.0,0.0,0.0,34.27253218749016,17.55503396713325,10.45736720827055,9.712518923235415,9.239497770675095,8.70266421281912,7.978719396771818,7.00511851226488,5.727352250409167,4.26910924975674,2.8520178176057067,1.6489599166123479,0.7991801488718815,0.3215214921894833,0.10949689903381392,0.03326942728133313,0.008432469528151697,11.242661224686003,10.804285207925425,10.51336206426536,10.172125762968827,9.690260201612338,8.994277007450314,7.978959692386538,6.6450037683303105,5.107562774207103,3.517091917088918,2.110111962978769,1.0914401349424374,0.493437720344676,0.20378145111708026,0.07542057464366735
0.0,56.0,56.0,0.0,120.0,0.0,0.0,0.0,0.0,-107.0,0.0,-45.0,0.0,0.0,0.0,34.27253218749016,17.55503396713325,10.457704869512266,9.712830202874473,9.239099557034656,8.696975270475665,7.956249843254409,6.954374091225147,5.645715640974311,4.167225819539142,2.7499370932743177,1.5668293254938332,0.7472421331669131,0.29599149031655725,0.09960101040804914,0.030101636860461658,0.007630604423015945,11.245412406162348,10.807011306564183,10.515656999414471,10.171043830709953,9.67739071811178,8.958264521352632,7.910812833453014,6.544135041667919,4.98553737431811,3.395505940681093,2.0121402724728443,1.0283837903040167,0.46069961537543413,0.18952779191950983,0.0703641953450263
0.0,57.0,57.0,0.0,120.0,0.0,0.0,0.0,0.0,-107.0,0.0,-45.0,0.0,0.0,0.0,34.27253218749016,17.55503396713325,10.458014490932356,9.713087361620893,9.238247686061502,8.689228317068252,7.929009910284699,6.89662809036527,5.556143911620696,4.058230813002979,2.6431666159008937,1.4828960611908852,0.6954380707799429,0.271127411418165,0.09016428736894626,0.02712970165698204,0.006886779279171881,11.248026337793812,10.809584439433399,10.517558125173803,10.168523089605161,9.661058307126583,8.916573781664185,7.835067828465183,6.434723324527659,4.855831286763814,3.2689019549003104,1.91229609573383,0.9654672189566833,0.42864508973065246,0.1757788010562874,0.06553690288932905
0.0,58.0,58.0,0.0,120.0,0.0,0.0,0.0,0.0,-107.0,0.0,-45.0,0.0,0.0,0.0,34.27253218749016,17.55503396713325,10.458298505690276,9.713268673192344,9.236728769379235,8.67884386125523,7.8961926068713115,6.831059213792758,5.457911529307137,3.941679988143968,2.531625026738474,1.3973088675661736,0.6439322648560347,0.24700766834155902,0.08120444179426854,0.024353427704515825,0.006199509547588324,11.25050237755532,10.811989962699812,10.518933483759756,10.16418114139312,9.64066695050744,8.868485020735747,7.750905906705677,6.316021513658886,4.717997369157597,3.137212692632271,1.8107393819741022,0.9028541812059883,0.3973540959979861,0.16255725448342165,0.06094104264390115
0.0,59.0,59.0,0.0,120.0,0.0,0.0,0.0,0.0,-107.0,0.0,-45.0,0.0,0.0,0.0,34.27253218749016,17.55503396713325,10.458559862224671,9.713333630104486,9.234238286614337,8.66511153797578,7.8568824430550706,6.756743370628033,5.35021611008864,3.817110656857956,2.4152602363560276,1.3102533307748867,0.5929055454462044,0.22371198334528986,0.07273750088908856,0.021771812937779765,0.005567171315787446,11.252841884182214,10.81420422376203,10.51959669868898,10.157547978989092,9.615533698782652,8.813173490195307,7.657392627826778,6.1872024538653365,4.571573904947445,3.0004033197446454,1.7076653498529462,0.8407236590335265,0.3669086309485483,0.1498849373815809,0.056578350724528444
0.0,60.0,60.0,0.0,120.0,0.0,0.0,0.0,0.0,-107.0,0.0,-45.0,0.0,0.0,0.0,34.27253218749016,17.55503396713325,10.45880049720798,9.71320814318181,9.230348603699971,8.647168749264006,7.810037364306595,6.672632020578585,5.23216992407984,3.684047244913517,2.2940591181430054,1.2219573628723985,0.5425556533487353,0.20132064188278492,0.06477746964918903,0.019383001771228963,0.004987999869624739,11.255048810825443,10.816187501276332,10.519288433610546,10.148051876317057,9.584873992230452,8.749686467294058,7.553458343386589,6.047350402457853,4.416089533010719,2.8584810307015744,1.6033093052142882,0.7792703177942265,0.3373922168174448,0.13778237582667807,0.05244992200425795
0.0,61.0,61.0,0.0,120.0,0.0,0.0,0.0,0.0,-107.0,0.0,-45.0,0.0,0.0,0.0,34.27253218749016,17.55503396713325,10.459019406123303,9.71276182869168,9.224470188703405,8.623977015409837,7.754463272351087,6.577524746723243,5.10279051003466,3.5420100368352787,2.16805981606449,1.1326970975009625,0.49309735094023754,0.17991354448447583,0.05733597732838755,0.0171842455267511,0.0044600646074762,11.257128454862848,10.817870557023829,10.517651621111172,10.135001628912862,9.547779313880334,8.676912792774626,7.43787534867068,5.895453491717363,4.25107106910181,2.7115067186858792,1.4979517908270716,0.7187047896710894,0.3088892418686784,0.12626854183242384,0.04855616506292935
0.0,62.0,62.0,0.0,120.0,0.0,0.0,0.0,0.0,-107.0,0.0,-45.0,0.0,0.0,0.0,34.27253218749016,17.55503396713325,10.459212085567895,9.711776200259822,9.215808217256933,8.594296665976941,7.68878012167857,6.470036345096108,4.9609901838819415,3.3905272921379948,2.0373669645619645,1.0428032164482424,0.444762198122556,0.15956900177867137,0.05042192152779609,0.015171868842495556,0.003981234196583845,11.259083971905413,10.819132398752194,10.514199867608564,10.117563419122844,9.503183681873642,8.59354216948392,7.309230430674464,5.730398380780542,4.076055262094612,2.5596089922908964,1.3919241108371325,0.6592536527231602,0.28148415243608677,0.11536053063208665,0.044896715243074696
0.0,63.0,63.0,0.0,120.0,0.0,0.0,0.0,0.0,-107.0,0.0,-45.0,0.0,0.0,0.0,34.27253218749016,17.55503396713325,10.459373035191067,9.709902247322857,9.203317659991043,8.556659628291078,7.611379098004768,6.348559771808068,4.805564742394684,3.2291507140365976,1.9021703221484585,0.9526677964370208,0.39779777426726076,0.14036227035115653,0.044041110712513286,0.013341243552323566,0.0035491749364292675,11.260912450240987,10.819768868180532,10.50828119290129,10.094731920873475,9.449816855172955,8.498011762872107,7.1658905128831805,5.550967690513549,3.8906057660377082,2.4030010902544388,1.2856141479538559,0.6011589814431408,0.25526048246667543,0.10507320847386498,0.041470300307014644
0.0,64.0,64.0,0.0,120.0,0.0,0.0,0.0,0.0,-107.0,0.0,-45.0,0.0,0.0,0.0,34.27253218749016,17.55503396713325,10.459499711414162,9.706602871351581,9.18565739183825,8.50933548442745,7.520368553118388,6.211226541998345,4.635183740485553,3.05747546076895,1.762767564738367,0.8627513196699766,0.35246615637895845,0.12236382695014074,0.038195907189285276,0.011686771756320848,0.003161430418379946,11.262605056638709,10.819454871452102,10.499043005528396,10.065297536160987,9.386145401678819,8.388440022962039,7.005959316193473,5.355840893893891,3.6943378129251663,2.242001590120328,1.1794714954813186,0.5446775644286473,0.2302996248973341,0.09541890244204905,0.03827467532113492
0.0,65.0,65.0,0.0,120.0,0.0,0.0,0.0,0.0,-107.0,0.0,-45.0,0.0,0.0,0.0,34.27253218749016,17.55503396713325,10.459586999203854,9.701067438951748,9.161133870124097,8.450273930974996,7.413497751311635,6.055861822753843,4.44838705287247,2.8751686905070732,1.619593593419021,0.7735899390897492,0.3090406427206618,0.10563764283451516,0.03288481209834258,0.010201884321576947,0.002815533666319981,11.264152672473669,10.817700821537573,10.485401026731253,10.027806842145276,9.310299953957134,8.262545725821603,6.82721938353396,5.143593619206925,3.4869477027677735,2.077058055371285,1.0740165147955387,0.49007807927103336,0.20667981309708694,0.0864067510616888,0.035306425829217364
0.0,66.0,66.0,0.0,120.0,0.0,0.0,0.0,0.0,-107.0,0.0,-45.0,0.0,0.0,0.0,34.27253218749016,17.55503396713325,10.459602765184455,9.692090082406157,9.127623533306304,8.377003841592884,7.288045458821117,5.879931173099274,4.24359875130686,2.6820130661484693,1.473253496857227,0.6858009583451888,0.2678018585366273,0.09023895657849151,0.028102122077823487,0.008879061679144673,0.0025090092474153777,11.26554325812362,10.813790778579145,10.465998933307468,9.980497832380848,9.219977706523764,8.117552843974595,6.627069110924232,4.912710562295347,3.2682649035366484,1.9087777085262767,0.9698413558468714,0.43763980224546356,0.18447412484677192,0.07804251176491046,0.03256125202316682
0.0,67.0,67.0,0.0,120.0,0.0,0.0,0.0,0.0,-107.0,0.0,-45.0,0.0,0.0,0.0,34.27253218749016,17.55503396713325,10.459440283396994,9.677915151979768,9.082464602951848,8.28647208352271,7.1406593343201035,5.680467119118599,4.019164336673332,2.477972655258643,1.3245603229602616,0.6000862641744987,0.22903223057729966,0.0762117788174794,0.023837640222644854,0.00770986418825598,0.0022391909035370553,11.266733910540761,10.806686704359254,10.439132847272964,9.921176311100995,9.11229156787932,7.95007034077735,6.402461346275533,4.661609883981012,3.038314212490654,1.7379605263488795,0.8676148391106566,0.38764845156591243,0.1637487606123333,0.07032801729588985,0.030033907223208207
0.0,68.0,68.0,0.0,120.0,0.0,0.0,0.0,0.0,-107.0,0.0,-45.0,0.0,0.0,0.0,34.27253218749016,17.55503396713325,10.458862816893852,9.65608319920128,9.022326423645428,8.174832430746456,6.967155609053731,5.453966666809857,3.773407083513319,2.263286599162536,1.1745783225049335,0.5172328380935974,0.19300814706942837,0.06358630277720845,0.020076415072571043,0.006684987254512089,0.0020030735871927738,11.267590511012042,10.794896904752362,10.402617391561554,9.847002679860992,8.983528202060569,7.7559218034416935,6.14985839887001,4.388698269230559,2.7973997693234858,1.5656370850202876,0.7680837434131836,0.34039105807124675,0.14456093075750642,0.06326069709744146,0.027717899223675402
0.0,69.0,69.0,0.0,120.0,0.0,0.0,0.0,0.0,-107.0,0.0,-45.0,0.0,0.0,0.0,34.27253218749016,17.55503396713325,10.457427071838628,9.623286734241459,8.94302990871938,8.037184460324275,6.762304201371478,5.196274660197835,3.5047003717047853,2.038598013594719,1.0246722895889528,0.43810787222312153,0.15998956394360656,0.052376240884050705,0.01679854724192953,0.005794343210698221,0.0017976159257683448,11.26783234892176,10.776357583296251,10.353614578520391,9.754209425022951,8.828805610687219,7.529879801494039,5.86519548382644,4.092473435589651,2.5462172771280516,1.3931097356834548,0.6720701753649859,0.29614922176477254,0.12695645199592115,0.056833092638048775,0.02560520433762925
0.0,70.0,70.0,0.0,120.0,0.0,0.0,0.0,0.0,-107.0,0.0,-45.0,0.0,0.0,0.0,34.27253218749016,17.55503396713325,10.454272459911326,9.575119284136992,8.839160127155992,7.867147626212376,6.519575165930697,4.902521766635443,3.211592698347953,1.8051281984893734,0.8765595395618598,0.3636441003026109,0.13020738666790185,0.04257601294213389,0.013979142509221547,0.005027170654759825,0.0016201493711968601,11.266983784537906,10.748336844436565,10.288415116707883,9.637767002846369,8.64166243416872,7.265283161735237,5.543838323866416,3.7717006320391313,2.286002547493374,1.2219951528765194,0.580462707380486,0.2551905861742974,0.11096702551732616,0.05103237997078645,0.023686733438775233
0.0,71.0,71.0,0.0,120.0,0.0,0.0,0.0,0.0,-107.0,0.0,-45.0,0.0,0.0,0.0,34.27253218749016,17.55503396713325,10.447686943585554,9.505569750058052,8.703290204696833,7.656079863912695,6.230705451069843,4.567199386226998,2.8930726736031356,1.5648984609602217,0.7323555250354987,0.2948124919721287,0.10384801712064799,0.03415813330046377,0.011588415392086947,0.004372168841279426,0.00146787341933328,11.264150114419104,10.707134140334029,10.201922563396383,9.490779610951659,8.413532072966165,6.953607444193714,5.180568532985598,3.4257009248026136,2.0187252572211807,1.054262549093417,0.4941994239688958,0.21775776477818906,0.09660727463428218,0.04584000727751232,0.02195257278186198
0.0,72.0,72.0,0.0,120.0,0.0,0.0,0.0,0.0,-107.0,0.0,-45.0,0.0,0.0,0.0,34.27253218749016,17.55503396713325,10.43459139449274,9.406310427981623,8.52492538256751,7.392011349446866,5.884935759438742,4.1843229007990645,2.5490725256503035,1.3210083304713307,0.5945972402922258,0.23257841521913789,0.08103503509969677,0.0270711309199038,0.009591958488892662,0.003817664246172624,0.0013375727165257944,11.257549258204035,10.647403943483491,10.086615881974593,9.303235055082736,8.132797126922986,6.5841057341152585,4.769740070264463,3.054803250967615,1.7473309075057282,0.8922521756925285,0.41424036715337476,0.1840548441538798,0.08387168466948064,0.04123126378495212,0.02039134255506751
0.0,73.0,73.0,0.0,120.0,0.0,0.0,0.0,0.0,-107.0,0.0,-45.0,0.0,0.0,0.0,34.27253218749016,17.55503396713325,10.409715935918989,9.26532174177162,8.28888622513371,7.05844905154769,5.46821120750261,3.747657822166565,2.1812910706374233,1.0779848710141189,0.46622167511594176,0.17783354652842764,0.06180945310433661,0.02123816518122271,0.007951271158385077,0.0033518051270589183,0.0012267919205557574,11.244082322952197,10.561276913520134,9.931222622198211,9.060199531472076,7.782926061196176,6.143348297903116,4.305814087766352,2.661035785336318,1.4760197046080454,0.738666839727303,0.34152344773797383,0.15423135826341802,0.0727313848889788,0.03717508671286495,0.018990269247910373
0.0,74.0,74.0,0.0,120.0,0.0,0.0,0.0,0.0,-107.0,0.0,-45.0,0.0,0.0,0.0,34.27253218749016,17.55503396713325,10.363783580252893,9.063622032636145,7.971652806054235,6.631916444503574,4.963030342435825,3.251644823323309,1.794436480464133,0.8421628069225916,0.3504532165523392,0.13130093513344793,0.046109718577329824,0.016556993251325255,0.0066245474544733346,0.002962781707517522,0.001132986120616085,11.218362109503053,10.436188382688373,9.717994113181255,8.739430329440424,7.340019588317195,5.614576535902116,3.784590881058864,2.249188275167692,1.2105288307765925,0.5965026163690246,0.27690155313312925,0.12836372196727053,0.06313115064109787,0.033634047639635796,0.017736376424185296
0.0,75.0,75.0,0.0,120.0,0.0,0.0,0.0,0.0,-107.0,0.0,-45.0,0.0,0.0,0.0,34.27253218749016,17.55503396713325,10.28063839756479,8.769652921532044,7.535962018679283,6.077102236970096,4.348410688047338,2.694199954298395,1.398108116629908,0.6219468899796247,0.2505404213011777,0.0934119192033575,0.033754963749921256,0.012901804967324716,0.005567759080794126,0.0026390716339382996,0.0010536614180776864,11.170767899436731,10.250231801175492,9.416187679188642,8.305222816988431,6.7702022432017515,4.977952780173447,3.2056849149541806,1.828339792396477,0.95831958460033,0.46888271976609164,0.22105587285483713,0.10643539014174555,0.054986944203222074,0.03056461227273805,0.01661526367027324
0.0,76.0,76.0,0.0,120.0,0.0,0.0,0.0,0.0,-107.0,0.0,-45.0,0.0,0.0,0.0,34.27253218749016,17.55503396713325,10.129564352822669,8.325691247438368,6.919807592973091,5.3429230166318575,3.6014723115715466,2.0824980342396526,1.0095002009390674,0.4276220145973747,0.16926562764509306,0.064165050394438,0.024436702789726608,0.010127541740585206,0.00473604461755853,0.002369706335939323,0.0009867542691371523,11.08293418417141,9.961757888193222,8.97171234626365,7.6966192418429005,6.024879226502389,4.214181311420671,2.577473073265729,1.4137575337275678,0.7284470194746754,0.35874257383985836,0.17438709075117104,0.08831732137942447,0.048184572543700545,0.027917898220312876,0.015612808018203703
0.0,77.0,77.0,0.0,120.0,0.0,0.0,0.0,0.0,-107.0,0.0,-45.0,0.0,0.0,0.0,34.27253218749016,17.55503396713325,9.84286392848783,7.617585266515012,6.012134793405199,4.3579268206311506,2.710415876253918,1.444448615442525,0.6560525429058541,0.27004523289830606,0.10817810606358848,0.04299881793511059,0.01772647670835857,0.008077145699467637,0.004085381406923936,0.0021445595072238743,0.000930556481262719,10.913171943153506,9.481803174560604,8.274876951557012,6.809755034534483,5.038816485694786,3.3165028635396707,1.9262197976078592,1.0284286012696693,0.5307118980621399,0.2683192406992834,0.1368918879547225,0.07375298994251349,0.042580441330577756,0.025641019762141132,0.01471509613212976
0.0,78.0,78.0,0.0,120.0,0.0,0.0,0.0,0.0,-107.0,0.0,-45.0,0.0,0.0,0.0,34.27253218749016,17.55503396713325,9.231062825878485,6.385492776380978,4.621658052578367,3.050442212547224,1.7166371641387947,0.8486677707250512,0.3740565687051115,0.15722932553890434,0.06666303438327603,0.02874549526224332,0.013107891461877836,0.00659159535891987,0.003574496531523347,0.0019546660568806233,0.0008837092800106649,10.539166244917164,8.58144660514393,7.088275259140342,5.467321672748965,3.7568180201417447,2.325942068484693,1.308752116990553,0.7017234181218616,0.3734998160304625,0.19845555593253975,0.10805391802309994,0.06235423975035355,0.03800574499263559,0.023679270774934376,0.013909100162927082
