Line_number,Fiducial,Easting,Northing,Height,Elevation,tx_pitch,tx_roll,tx_yaw,txrx_dx,txrx_dy,txrx_dz,rx_pitch,rx_roll,rx_yaw,PX,PZ,S0X_time_1.086e-05,S0X_time_3.256e-05,S0X_time_5.426e-05,S0X_time_8.680e-05,S0X_time_1.411e-04,S0X_time_2.279e-04,S0X_time_3.689e-04,S0X_time_5.860e-04,S0X_time_9.115e-04,S0X_time_1.411e-03,S0X_time_2.192e-03,S0X_time_3.418e-03,S0X_time_5.339e-03,S0X_time_8.301e-03,S0X_time_1.338e-02,S0Z_time_1.086e-05,S0Z_time_3.256e-05,S0Z_time_5.426e-05,S0Z_time_8.680e-05,S0Z_time_1.411e-04,S0Z_time_2.279e-04,S0Z_time_3.689e-04,S0Z_time_5.860e-04,S0Z_time_9.115e-04,S0Z_time_1.411e-03,S0Z_time_2.192e-03,S0Z_time_3.418e-03,S0Z_time_5.339e-03,S0Z_time_8.301e-03,S0Z_time_1.338e-02
0.0,0.0,0.0,0.0,120.0,0.0,0.0,0.0,0.0,-107.0,0.0,-45.0,0.0,0.0,0.0,34.27253218749016,17.55503396713325,1.6862160532749328,1.5169545315556656,1.455862779359196,1.3905569713138,1.310480749233627,1.2170837198925386,1.108336987703966,0.9889103984612978,0.8635800170440232,0.7313917983190447,0.594756883061905,0.4604555561785427,0.33693911907348806,0.23258068396870898,0.145423913260582,3.2468508837943877,2.998572696029677,2.908718696843054,2.8119206201317484,2.691819255453209,2.549405961540049,2.3800135336930133,2.1889110133117105,1.9816495837058605,1.7540905919258176,1.506911103952408,1.2485937946225725,0.9925812203125974,0.7561572590850727,0.5358004154679611
0.0,1.0,1.0,0.0,120.0,0.0,0.0,0.0,0.0,-107.0,0.0,-45.0,0.0,0.0,0.0,34.27253218749016,17.55503396713325,1.5969569300137945,1.3681162392540678,1.3104413260131569,1.2512108883664008,1.1795006067488683,1.0963845110236654,0.9998630248902186,0.8939084178879299,0.7825946835625015,0.6649198464000079,0.5428661164064288,0.42233865027085826,0.31083983520002195,0.21597892586745554,0.13609453724546744,3.1356234329829515,2.788818661463159,2.699920487049626,2.6085829663174027,2.49690747734794,2.3654971493396855,2.209806777709537,2.0344869512905226,1.8444376604497172,1.6356761708477385,1.4086084196624897,1.170772049198188,0.9342903757470292,0.7149700923657752,0.5094160948585218
0.0,2.0,2.0,0.0,120.0,0.0,0.0,0.0,0.0,-107.0,0.0,-45.0,0.0,0.0,0.0,34.27253218749016,17.55503396713325,1.5489169292811746,1.2418803697647234,1.1836995753586648,1.1292040476698666,1.0645192772269527,0.9901831360982241,0.904173934242532,0.8098556227909728,0.7106973199346017,0.6056633897911974,0.49637481903477876,0.3879807595995095,0.28714712699301487,0.2007872853745624,0.1274773330683018,3.0810926270279193,2.607141767815336,2.512181697669498,2.4246543083674683,2.3201363263479235,2.1984068818685705,2.05491061616209,1.893710371049552,1.7191073802844867,1.5272573583291382,1.3183315765823642,1.0990308021887247,0.8802998222901002,0.6766074468738963,0.48467147522710824
0.0,3.0,3.0,0.0,120.0,0.0,0.0,0.0,0.0,-107.0,0.0,-45.0,0.0,0.0,0.0,34.27253218749016,17.55503396713325,1.530147528755674,1.1384527785360141,1.073506943248344,1.0221186190215792,0.9632856870966795,0.8964679322261007,0.819530010690434,0.7352971840686019,0.6467137739205122,0.5527217692454252,0.45463767244611897,0.35695658050541323,0.26560667701455126,0.18686862026163656,0.11951008469501788,3.0670114877161385,2.4572142417313523,2.3445904076913777,2.2582067691585928,2.1595830322670704,2.046355749431866,1.913723572678419,1.7651756119293047,1.6044571413744484,1.4278463970385753,1.2353114568185317,1.03281094413393,0.8302353082878797,0.6408403397737271,0.4614458455920775
0.0,4.0,4.0,0.0,120.0,0.0,0.0,0.0,0.0,-107.0,0.0,-45.0,0.0,0.0,0.0,34.27253218749016,17.55503396713325,1.5301644192383748,1.0576835634097617,0.9786556116154558,0.9280206232715479,0.8739177637485339,0.8135447305474515,0.7444592767651992,0.6689961487312632,0.5896405158247356,0.5053205513030862,0.41709581380259797,0.328894664295168,0.24599419664603517,0.1741006667109739,0.11213662961634807,3.078716121999644,2.3410972158333427,2.1975762328101998,2.1077935086836095,2.0135795187964236,1.9077792193058911,1.7848327880376926,1.647639417771154,1.4994218143257878,1.3365654308085944,1.1588621932784975,0.9716116131747365,0.7837595732577008,0.607460904934221,0.43962861389421665
0.0,5.0,5.0,0.0,120.0,0.0,0.0,0.0,0.0,-107.0,0.0,-45.0,0.0,0.0,0.0,34.27253218749016,17.55503396713325,1.5414173246721075,0.9980063708364686,0.89849621115167,0.8454468115918791,0.7948418366789685,0.739981227733459,0.6777116444753968,0.6098972094565632,0.5386171922806553,0.46279199503489726,0.38326407630591247,0.3034699226866244,0.22811153955946864,0.16237427497952084,0.10530621679132116,3.105598702118586,2.2575242386009338,2.072133128119643,1.9725641379874785,1.8806992011796335,1.7813012194736104,1.6669900485880857,1.5400005716236613,1.4030558640309287,1.2526331355097327,1.088371271502063,0.9149835029320973,0.7405683057827073,0.5762802379492978,0.4191183682551585
0.0,6.0,6.0,0.0,120.0,0.0,0.0,0.0,0.0,-107.0,0.0,-45.0,0.0,0.0,0.0,34.27253218749016,17.55503396713325,1.559044918346039,0.9566317671736055,0.8324071709570275,0.7733428756319454,0.724752125225345,0.6745628236084898,0.6182217004639965,0.5570971265156331,0.49290401155355473,0.4245588169472148,0.352720276472594,0.28039726257513964,0.21178335748295507,0.1515918694926603,0.09897293744540113,3.140846634335309,2.2025670656832643,1.9687485254380868,1.8521938395929591,1.759769704854575,1.665712749441731,1.5590910058777925,1.441282284420017,1.3145186764222165,1.175353086558286,1.0232908953763598,0.8625230002797343,0.7003865790955899,0.5471264788918495,0.3998220326660099
0.0,7.0,7.0,0.0,120.0,0.0,0.0,0.0,0.0,-107.0,0.0,-45.0,0.0,0.0,0.0,34.27253218749016,17.55503396713325,1.5801417562789726,0.9302226815825728,0.7794677161074466,0.7109270374698555,0.6625828924779514,0.6162574126114919,0.5650784513671409,0.5098204432081233,0.45186303983298004,0.39012065124762896,0.3250961953854526,0.2594261684387122,0.19685421808810039,0.14166610341123823,0.0930952197686455,3.1804094986742224,2.1710682993939114,1.8868432129070551,1.7466053631973628,1.6498895528920727,1.5599559630251951,1.4601574887299957,1.3506168857798284,1.23306181067746,1.1041036246311131,0.9631304472115106,0.8138670440596788,0.6629657045834206,0.5198431051561799,0.3816541065188025
0.0,8.0,8.0,0.0,120.0,0.0,0.0,0.0,0.0,-107.0,0.0,-45.0,0.0,0.0,0.0,34.27253218749016,17.55503396713325,1.6030696030847207,0.915480255909363,0.7384084641695964,0.6575364412131969,0.6074778797374155,0.5641880418383138,0.5175006246749424,0.4673994477185927,0.4149426779402585,0.35904272067021287,0.3000699658928758,0.24033608134524223,0.18318611711142962,0.1325186817692906,0.08763538012486213,3.222019677622368,2.157794373398034,1.8248064438976521,1.6556557549432072,1.5504093726967445,1.4631153748960959,1.3693224013481113,1.267232512915552,1.1580179194576148,1.0383290164432306,0.9074498961078056,0.7686886105518037,0.6280804511970073,0.4942874100027781,0.3645359793169047
0.0,9.0,9.0,0.0,120.0,0.0,0.0,0.0,0.0,-107.0,0.0,-45.0,0.0,0.0,0.0,34.27253218749016,17.55503396713325,1.6269522422629004,0.9094846402470973,0.707724495595817,0.6125152457490722,0.558749634800633,0.5176117337473217,0.47481639704510525,0.4292575878416949,0.38166472806243573,0.33094632840046206,0.27735962958155136,0.22293244898533104,0.17065632721223528,0.12407933081477344,0.08255922432434597,3.264476435415287,2.1580819120403256,1.780336410964373,1.5789329871849043,1.4608673156297687,1.3744131397388974,1.285816935834694,1.190441585482078,1.088791095976106,0.9775317405901723,0.8558540276409055,0.7266927445433162,0.5955265854255776,0.470329145322201,0.3483953128661644
0.0,10.0,10.0,0.0,120.0,0.0,0.0,0.0,0.0,-107.0,0.0,-45.0,0.0,0.0,0.0,34.27253218749016,17.55503396713325,1.6513461456098086,0.9098313003259335,0.6858290859848942,0.5751625855043991,0.5158333049729813,0.4759017513415094,0.4364467836995012,0.3948956993243799,0.3516135784682791,0.30550085561139384,0.2567176695502259,0.20704334215136205,0.15915553484763087,0.11628489425797164,0.07783569305624927,3.3071816553553646,2.168092639331745,1.7508240357271374,1.5156952776022576,1.3809010028356592,1.2932017871418875,1.2089602362337153,1.1196308175808316,1.0248484525530441,0.921265749830414,0.8079873856866664,0.6876130658316432,0.5651186923322034,0.4478493097200706,0.3331654838097393
0.0,11.0,11.0,0.0,120.0,0.0,0.0,0.0,0.0,-107.0,0.0,-45.0,0.0,0.0,0.0,34.27253218749016,17.55503396713325,1.676041565378764,0.9146410763809684,0.6711824026313816,0.5447279576310655,0.4782438698483544,0.43853099872987444,0.4018920896373935,0.36388052327262155,0.32442713134704526,0.282417006770899,0.23792635957710473,0.19251655034239676,0.1485862238697886,0.10907853978612436,0.07343654624286865,3.349860872638361,2.1848376494111523,1.7336546362606244,1.4649139053743625,1.3101657101200088,1.2189497895848767,1.138151372926129,1.0542525325969123,0.9657127758107538,0.8691305776791975,0.7635298332445902,0.6512086902420696,0.5366882432757816,0.42673906529552813,0.3187850801397619
0.0,12.0,12.0,0.0,120.0,0.0,0.0,0.0,0.0,-107.0,0.0,-45.0,0.0,0.0,0.0,34.27253218749016,17.55503396713325,1.7009492972236921,0.9225056454754991,0.662375999331273,0.5204325946383308,0.4455432461131539,0.4050556531749592,0.37072080698107013,0.335835099519066,0.299789171692074,0.26144109172484525,0.22079379828377269,0.17921708344489287,0.1388612708143106,0.10240906148526309,0.069336081749549,3.392405231027267,2.206088246627847,1.7264009046320912,1.4253649390019283,1.2482773863505556,1.1512200147865206,1.072862848870233,0.9938171389123875,0.9109561198278562,0.8207661754239494,0.7221926521488129,0.6172615123370543,0.5100818803961691,0.40689876846870016,0.3051974460768641
0.0,13.0,13.0,0.0,120.0,0.0,0.0,0.0,0.0,-107.0,0.0,-45.0,0.0,0.0,0.0,34.27253218749016,17.55503396713325,1.726039421744798,0.932407197969758,0.6581769520968173,0.5014991563682134,0.4173191518181449,0.37509935395178295,0.34256033078566905,0.3104307177555612,0.27742292959184106,0.24235017217298957,0.20515051949547217,0.1670250183024142,0.12990272211970877,0.09623026577210993,0.06551088446297829,3.4347864009722886,2.2302434545218484,1.7269243726821843,1.3957288243995842,1.1947847964994078,1.0896445319869006,1.0126345495612374,0.9378866901032171,0.8601942069900578,0.7758483838629905,0.683715112005341,0.5855738041638188,0.4851598917620398,0.38823710195516836,0.29235027035065886
0.0,14.0,14.0,0.0,120.0,0.0,0.0,0.0,0.0,-107.0,0.0,-45.0,0.0,0.0,0.0,34.27253218749016,17.55503396713325,1.7513096937677113,0.9436343514611845,0.6575424224802897,0.48717926367548453,0.3931742582801726,0.3483387855687983,0.3170889577297213,0.28738017132437543,0.25708563247843674,0.22494793141504546,0.19084658838475277,0.1558336388481621,0.12164072795414763,0.09050043012665471,0.06193960224172285,3.4770129078126817,2.2561922227242404,1.7334127621770712,1.3746757370401859,1.149165766370229,1.0339000767122077,0.9570672715266773,0.8860694371435252,0.81308152316608,0.7340849585397164,0.6478614477241528,0.5559660905955245,0.4617948543789316,0.37067029652400385,0.2801952134598346
0.0,15.0,15.0,0.0,120.0,0.0,0.0,0.0,0.0,-107.0,0.0,-45.0,0.0,0.0,0.0,34.27253218749016,17.55503396713325,1.7767699683670806,0.9557056954570541,0.6596151042640402,0.4767743734772029,0.37272270584942,0.3244913940469548,0.2940288004022834,0.2664320945933746,0.23856388163289693,0.20906115111804985,0.1777491081201482,0.14554782665193838,0.1140126110678861,0.0851818253678745,0.05860274566279631,3.5191087512356924,2.2831891447511596,1.7443771604420775,1.3609289018560216,1.110839116130042,0.983687453883894,0.9058154831903162,0.8380152162766019,0.7693070178994942,0.6952120775165501,0.6144181932366054,0.5282752670784345,0.4398704251276312,0.35412143253137945,0.268687569958161
0.0,16.0,16.0,0.0,120.0,0.0,0.0,0.0,0.0,-107.0,0.0,-45.0,0.0,0.0,0.0,34.27253218749016,17.55503396713325,1.802434889100476,0.9683058892810187,0.6637075576075278,0.4696491526512393,0.3555910076148113,0.30330559626571996,0.27313942208673964,0.24736618897636753,0.2216697187887848,0.1945366987138615,0.1657400742615755,0.13608266551425158,0.10696205225409014,0.08024029346305073,0.05548250885459537,3.561103450554405,2.310751366211028,1.758626374693284,1.3533061526847208,1.0791843318610321,0.9387164904346209,0.8585794704421343,0.7934114649749063,0.7285903414864161,0.6589912687818399,0.5831918263537721,0.5023529300405261,0.41928026221653414,0.33851981240980134,0.25778596222628586
0.0,17.0,17.0,0.0,120.0,0.0,0.0,0.0,0.0,-107.0,0.0,-45.0,0.0,0.0,0.0,34.27253218749016,17.55503396713325,1.828320636845492,0.9812354016552134,0.6692809892078345,0.46523825721978584,0.34142099090374056,0.2845534524235887,0.2542121220518454,0.2299891668293712,0.20623727360183466,0.1812389452020803,0.1547145244841571,0.12736222937994832,0.10043837667950119,0.07564487393315657,0.052562609032225045,3.6030276725608545,2.3385780514512735,1.7752300341468876,1.3507434351079366,1.0535631083971233,0.8986966790839628,0.8150973172313589,0.7519796539820441,0.6906785623486379,0.6252067020865386,0.5540066860126314,0.478063894031214,0.3999270619243613,0.32380039633053165,0.24745206256498814
0.0,18.0,18.0,0.0,120.0,0.0,0.0,0.0,0.0,-107.0,0.0,-45.0,0.0,0.0,0.0,34.27253218749016,17.55503396713325,1.854443580415022,0.9943728639110232,0.6759221573276227,0.46304799743677727,0.3298732106600573,0.26802550003763453,0.23706486575290325,0.21413127058475526,0.19211990160350936,0.1690475465496769,0.14457893972392907,0.119318527554485,0.09439592761537415,0.07136747283783383,0.049828142639744145,3.644911455446532,2.3664904327289538,1.7934778287418647,1.3523047373468364,1.0333391754128902,0.8633327170399477,0.7751372452738778,0.7134719643315264,0.6553433103532545,0.593662797911014,0.5267031283421367,0.45528487299157994,0.38172169731237027,0.30990329416327894,0.23765034078535832
0.0,19.0,19.0,0.0,120.0,0.0,0.0,0.0,0.0,-107.0,0.0,-45.0,0.0,0.0,0.0,34.27253218749016,17.55503396713325,1.8808197725968634,1.0076480263907297,0.6833207442889042,0.46265435983149705,0.3206299467069788,0.25352731760431135,0.22153786961107624,0.19964325468679248,0.17918773645530556,0.15785553308989042,0.13524985984292537,0.11189058515569857,0.08879351602177674,0.0673825691156813,0.04726545625598687,3.686783576315396,2.394388992380886,1.8128394394068321,1.3571825077041204,1.0178946487837595,0.8323237303444869,0.7384907511617222,0.6776681030529704,0.6223782894084414,0.5641821138522876,0.501135892246485,0.43390330597897836,0.36458244723064537,0.296773307652052,0.22834783477330212
0.0,20.0,20.0,0.0,120.0,0.0,0.0,0.0,0.0,-107.0,0.0,-45.0,0.0,0.0,0.0,34.27253218749016,17.55503396713325,1.9074647998942569,1.0210230439211774,0.6912485993117409,0.46369862472330264,0.31339738314102594,0.24087736719049754,0.2074898364298702,0.1863937463665151,0.16732559148750126,0.14756766064075535,0.12665268269625335,0.10502364005283947,0.08359393606926413,0.06366695373792058,0.0448620306393495,3.72867139115523,2.4222239985832084,1.832927807790353,1.3646918080790815,1.00664237945203,0.8053649374407589,0.7049668185035995,0.644372216557416,0.5915971008735975,0.5366034752315542,0.4771726488185647,0.41381631022475884,0.348434305367118,0.2843595174250284,0.21951394177177277
0.0,21.0,21.0,0.0,120.0,0.0,0.0,0.0,0.0,-107.0,0.0,-45.0,0.0,0.0,0.0,34.27253218749016,17.55503396713325,1.9343937691289763,1.0344799635439204,0.6995415896561019,0.4658815425381301,0.30790687134566486,0.22990571424003392,0.1947948131742384,0.17426692501607374,0.15643115490467277,0.13809898472068804,0.11872062029341862,0.09866844033607634,0.07876353806769514,0.06019949772209179,0.04260637647712115,3.7706008540573963,2.449975918985146,1.8534670978124914,1.374260645048813,0.9990344818603207,0.7821506785520725,0.674387314173556,0.6134099108563681,0.562831321107107,0.5107803217066781,0.4546927120854317,0.3949297466122939,0.3332083603253961,0.2726149100725572,0.21112022835938202
0.0,22.0,22.0,0.0,120.0,0.0,0.0,0.0,0.0,-107.0,0.0,-45.0,0.0,0.0,0.0,34.27253218749016,17.55503396713325,1.9616213410881764,1.0480126280064959,0.7080843316439034,0.468956786159972,0.30391534220266225,0.22045330214593914,0.18333961972519439,0.16316047758104346,0.14641343139738092,0.1293736254694004,0.11139378977163329,0.0927806287085771,0.07427185145188521,0.056960945560759424,0.04048794057119159,3.8125965956956582,2.4776428248133895,1.8742658239997947,1.3854182473745078,0.9945675623139978,0.7623779922674275,0.6465835398328927,0.5846254169871447,0.5359287824284849,0.4865792451662956,0.43358589147023746,0.37715738455438413,0.3188412387979451,0.26149604107062807,0.20314025731303512
0.0,23.0,23.0,0.0,120.0,0.0,0.0,0.0,0.0,-107.0,0.0,-45.0,0.0,0.0,0.0,34.27253218749016,17.55503396713325,1.9891617768148155,1.0616216014657078,0.7167977588167275,0.47272419752703493,0.30120500548882645,0.21237154314285878,0.17302178114240496,0.15298379918839175,0.13719139049098714,0.12132369593634686,0.10461842028408085,0.08732020217153104,0.0700912514805955,0.05393373105964333,0.03849702133790518,3.8546820158506945,2.505232551776917,1.8951950473289272,1.3977825396987877,0.9927852750484568,0.7457501771837833,0.6213938168206884,0.5578789497457701,0.5107520157843012,0.46387869655295666,0.41375146896233944,0.3604201548644823,0.3052746048482709,0.25096272980562234,0.1955494297284604
0.0,24.0,24.0,0.0,120.0,0.0,0.0,0.0,0.0,-107.0,0.0,-45.0,0.0,0.0,0.0,34.27253218749016,17.55503396713325,2.017028984733125,1.0753110905365046,0.7256292894475486,0.4770231914878815,0.2995824933907131,0.20552206173416734,0.1637478883406919,0.1436564152708024,0.12869278880011925,0.11388837051965811,0.09834615975889198,0.08225103704131888,0.06619666416607867,0.05110181295971462,0.036624692628052215,3.8968793748112898,2.532757983123577,1.9161711922934208,1.411047672989057,0.9932788159118552,0.7319799943078028,0.5986619329011442,0.5330443032484791,0.4871768236932665,0.44256784100032354,0.3950972863035121,0.34464548060104494,0.2924547091468375,0.24097778337703352,0.18832484093885452
0.0,25.0,25.0,0.0,120.0,0.0,0.0,0.0,0.0,-107.0,0.0,-45.0,0.0,0.0,0.0,34.27253218749016,17.55503396713325,2.045236565239311,1.0890871387619978,0.7345452523155008,0.48172655995229746,0.2988775967733255,0.1997764864422593,0.15543231186411663,0.1351066051396193,0.12085313935875183,0.1070130737406112,0.09253346788816945,0.07754047074945246,0.06256530468849926,0.0484505280470204,0.03486273498577831,3.939209879480453,2.5602343127199556,1.9371428608168482,1.424972182122412,0.9956858892157963,0.7207923316649794,0.578236264287116,0.5100067139806552,0.4650909619295009,0.4225455421988247,0.37753892950127804,0.3297666770619852,0.2803319827348767,0.2315067462250198,0.1814451489204821
0.0,26.0,26.0,0.0,120.0,0.0,0.0,0.0,0.0,-107.0,0.0,-45.0,0.0,0.0,0.0,34.27253218749016,17.55503396713325,2.073797852166551,1.1029566073012176,0.743525193210426,0.48673482672335655,0.29894172322991575,0.19501622953511644,0.1479961985681553,0.12727020860800742,0.11361480629369035,0.10064877239299919,0.08714108372875243,0.07315893307317117,0.059176445181583354,0.04596645973926728,0.03320357356445596,3.98169376353053,2.5876775219807895,1.9580809606326066,1.439368124303129,0.9996885921341284,0.7119262678265789,0.5599693948773138,0.48866100602374946,0.4443929167231875,0.40371945849792634,0.3609989996669651,0.3157224131531923,0.26886067052876733,0.22251767295510644,0.17489045400710204
0.0,27.0,27.0,0.0,120.0,0.0,0.0,0.0,0.0,-107.0,0.0,-45.0,0.0,0.0,0.0,34.27253218749016,17.55503396713325,2.1027259512686594,1.1169266250343455,0.7525576931585422,0.49197123233469164,0.29964618360305995,0.1911322245204239,0.14136668934020552,0.1200895978953343,0.10692620729685338,0.09475135653862601,0.08213355799553773,0.06907962046332689,0.056011208318443716,0.04363732038577568,0.03164022200494417,4.024350361839159,2.6151035755367578,1.9789714868479527,1.4540913905101631,1.0050105729988923,0.7051365443713093,0.5437180768103393,0.46891001773030544,0.4249907704554155,0.3860052350222467,0.34540646056774627,0.30245622727802096,0.2579985003360113,0.21398092201930896,0.16864218885408916
0.0,28.0,28.0,0.0,120.0,0.0,0.0,0.0,0.0,-107.0,0.0,-45.0,0.0,0.0,0.0,34.27253218749016,17.55503396713325,2.132033775973855,1.1310043092105142,0.7616373647714576,0.4973773747634601,0.30088039258251725,0.1880246105457828,0.135476305692851,0.1135127973457623,0.1007411096872776,0.08928109691572313,0.07747884155528346,0.0652782080055078,0.053052383592928215,0.041451845732561575,0.030166231658784168,4.067198179554381,2.6425280269394107,1.9998103627793933,1.469033263453107,1.0114137430547325,0.7001944990595343,0.5293434045708426,0.4506632963599431,0.40680115284208723,0.36932577800867833,0.3306960544204544,0.2899160917122015,0.2477063836412508,0.20586896816614408,0.16268301769970497
0.0,29.0,29.0,0.0,120.0,0.0,0.0,0.0,0.0,-107.0,0.0,-45.0,0.0,0.0,0.0,34.27253218749016,17.55503396713325,2.1617340806293637,1.1451966360468808,0.7707627416210368,0.5029094931187802,0.3025500505713776,0.1856023643441818,0.13026246284254245,0.10749273387106183,0.09501800844221978,0.08420216814320539,0.07314792282866373,0.06173259429376531,0.050284263593197986,0.0393997001914761,0.02877564560693423,4.110254956103277,2.6699658486766595,2.0205998352473333,1.4841132108143438,1.0186947574892387,0.6968885313776465,0.516711103738511,0.4338360379752206,0.38974827671392676,0.353610599575548,0.31680777839192115,0.2780540201526359,0.23794814484649968,0.19815623179613082,0.15699674406627048
0.0,30.0,30.0,0.0,120.0,0.0,0.0,0.0,0.0,-107.0,0.0,-45.0,0.0,0.0,0.0,34.27253218749016,17.55503396713325,2.191839491425584,1.1595103907162794,0.7799348274855451,0.5085353548914466,0.30457535844879713,0.18378288652497768,0.1256670759099964,0.10198660166409712,0.08971957654678181,0.07948222867829632,0.06911450782001438,0.058422675133130715,0.04769249791013699,0.03747139171550881,0.02746295698481243,4.153537724433521,2.697431378837208,2.041346013467693,1.4992728451780881,1.026681429817303,0.6950241779403622,0.5056918619053498,0.418348244261741,0.37376305814330507,0.3387952231010732,0.303686415057781,0.2668257137674493,0.22869027602207656,0.1908189235582135,0.15156822612931542
0.0,31.0,31.0,0.0,120.0,0.0,0.0,0.0,0.0,-107.0,0.0,-45.0,0.0,0.0,0.0,34.27253218749016,17.55503396713325,2.2223625351753804,1.173952156988234,0.7891561216214369,0.5142316908809458,0.3068893038456624,0.1824915517614507,0.12163623371123217,0.09695532566562404,0.08481217949485842,0.07509204984502549,0.06535473735073519,0.055330142533227086,0.04526396262176158,0.035658195224731445,0.026223071177640334,4.197062865776811,2.7249383245014336,2.062057229014847,1.5144709464239619,1.0352292020031335,0.6944238728075808,0.49616165174158944,0.4041240654293656,0.35878232031565305,0.3248206412143624,0.2912811107535503,0.2561902416352706,0.2199017145511998,0.18383490269900932,0.14638329905897352
0.0,32.0,32.0,0.0,120.0,0.0,0.0,0.0,0.0,-107.0,0.0,-45.0,0.0,0.0,0.0,34.27253218749016,17.55503396713325,2.253315666121355,1.18852832510079,0.7984299795931911,0.5199821134063904,0.3094360466887408,0.1816612331421745,0.11811992109670474,0.09236310946076964,0.08026544689154547,0.07100518741810423,0.06184693680124672,0.0524383059239516,0.04298664355291597,0.03395208365180951,0.025051271497210172,4.240846160232002,2.7524997900388017,2.0827429715064945,1.5296794236307043,1.0442177590957216,0.6949264610486491,0.4880020141850735,0.3910912983007371,0.34474807961951964,0.3116328200129477,0.2795449963620995,0.24610975195032211,0.21155364133850277,0.17718354783382445,0.14142870370610094
0.0,33.0,33.0,0.0,120.0,0.0,0.0,0.0,0.0,-107.0,0.0,-45.0,0.0,0.0,0.0,34.27253218749016,17.55503396713325,2.2847112909427167,1.2032451069060073,0.8077602053175579,0.5257754509255713,0.3121694227118673,0.18123181055277438,0.11507177597114034,0.08817705465302586,0.0760518949603635,0.06719769024025832,0.058571394290005165,0.049731932926668956,0.04084953173309147,0.03234566578487427,0.023943187992919612,4.284902833470692,2.780128314371271,2.103413218574671,1.544880087416332,1.0535478500191067,0.6963865254013223,0.4811002834425858,0.3791810103914377,0.33160691127440245,0.2991822444747597,0.26843484564291714,0.23654921079347785,0.2036192975062344,0.1708456389479134,0.1366920210665194
0.0,34.0,34.0,0.0,120.0,0.0,0.0,0.0,0.0,-107.0,0.0,-45.0,0.0,0.0,0.0,34.27253218749016,17.55503396713325,2.3165617921292925,1.2181085530599667,0.8171507987971626,0.5316044340055748,0.3150515761203164,0.18114967201122123,0.11244887112335315,0.08436684022459685,0.07214659442835474,0.0636478411902474,0.05551016375435466,0.04719710736023087,0.038842529669152755,0.030832130180921884,0.022894769086935267,4.329247599864642,2.8078359098258385,2.1240780294274373,1.5600621064476543,1.0631383542796158,0.6986735771134958,0.4753497454534873,0.3683272635913197,0.31930939067177505,0.2874235011187482,0.25791076673341956,0.2274761656353503,0.19607381772649143,0.164803249560623,0.13216161201139343
0.0,35.0,35.0,0.0,120.0,0.0,0.0,0.0,0.0,-107.0,0.0,-45.0,0.0,0.0,0.0,34.27253218749016,17.55503396713325,2.348879549882257,1.2331245700059066,0.8266058062038173,0.5374646722406892,0.31805172644115964,0.18136721572825482,0.11021151399549044,0.08090445186248289,0.06852687880838927,0.06033592652231927,0.05264688986106035,0.04482110245859106,0.036956367218275346,0.02940519450651347,0.021902255756163218,4.373894702322206,2.835634099561824,2.1447473101881616,1.5752200305157793,1.0729236168361873,0.7016711538078336,0.47064972834395424,0.3584669144421222,0.30780960562557735,0.27631489480039123,0.24793592294600575,0.21886053105297726,0.18889407853704454,0.15903964809540347,0.1278265618205909
0.0,36.0,36.0,0.0,120.0,0.0,0.0,0.0,0.0,-107.0,0.0,-45.0,0.0,0.0,0.0,34.27253218749016,17.55503396713325,2.38167696269046,1.2482989359476762,0.8361292355303321,0.5433538680113812,0.32114506965800627,0.18184235948426297,0.10832305971610828,0.07776395264624154,0.06517208856335358,0.05724403018408244,0.049966652075520084,0.04259226753297293,0.03518252599307744,0.028059059735918854,0.020962158012845865,4.41885794910311,2.863533952618132,2.1654306880862935,1.5903522746503649,1.0828510595608116,0.7052758598163817,0.46690562786938644,0.3495394715738319,0.29706473399387656,0.26581809713556986,0.23847627944706795,0.21067439441460625,0.18205856016539704,0.15353920759679557,0.12367662909979127
0.0,37.0,37.0,0.0,120.0,0.0,0.0,0.0,0.0,-107.0,0.0,-45.0,0.0,0.0,0.0,34.27253218749016,17.55503396713325,2.4149664667188455,1.263637315650907,0.8457250130480454,0.5492712200123818,0.32431180989293773,0.18253806279022233,0.10674973428957303,0.07492128781058262,0.06206334704947889,0.054355850206222404,0.04745582556687307,0.04049992653250351,0.03351317135876359,0.02678836870130765,0.02007123346151998,4.464150747859708,2.8915461164917073,2.186137452438022,1.6054599723778722,1.092879067067056,0.7093963779827462,0.46402887351375155,0.34148699433205354,0.2870346806692754,0.25589782446642695,0.22950037283340952,0.20289183952393955,0.17554722054320415,0.1482873230226583,0.11970219870152633
0.0,38.0,38.0,0.0,120.0,0.0,0.0,0.0,0.0,-107.0,0.0,-45.0,0.0,0.0,0.0,34.27253218749016,17.55503396713325,2.448760554132714,1.2791452741489537,0.8553969643061506,0.5552169765927574,0.3275363150458358,0.1834218662663189,0.105460465929674,0.07235411748598022,0.05918336451341965,0.051656534660250476,0.04510195692875329,0.03853428714815931,0.03194109119363437,0.025588168546221916,0.01922646773310018,4.509786137130811,2.919680847450486,2.206876535029893,1.6205461200876043,1.102975136758356,0.7139524763811262,0.4619368423006387,0.33425401982343994,0.27768176773115055,0.24652154355609818,0.2209791010146784,0.19548878642244066,0.16934138033311105,0.1432703354174917,0.11589423830583762
0.0,39.0,39.0,0.0,120.0,0.0,0.0,0.0,0.0,-107.0,0.0,-45.0,0.0,0.0,0.0,34.27253218749016,17.55503396713325,2.4830717904694843,1.2948282894893703,0.8651488092699243,0.561192105707093,0.33080638781236943,0.18446545173495377,0.104426723274262,0.07004167236986036,0.05651626676974054,0.04913253501407247,0.04289365295830694,0.03668635927025517,0.030459640681792886,0.024453876683442576,0.018425056617383348,4.555776815493193,2.94794803882949,2.227656512575521,1.635614947664934,1.1131142773403493,0.7188740286569085,0.4605527278797157,0.3277875084277443,0.2689704715753855,0.23765920336381313,0.21288553116499528,0.18844284573106107,0.16342361791449755,0.1384754623416725,0.11224425834823415
0.0,40.0,40.0,0.0,120.0,0.0,0.0,0.0,0.0,-107.0,0.0,-45.0,0.0,0.0,0.0,34.27253218749016,17.55503396713325,2.517912831158408,1.3106917646456526,0.874984165136824,0.5671980544096813,0.33411264225322906,0.185644225681682,0.10362235971908282,0.06796462818743464,0.054047445517029606,0.04677147499218006,0.04082048096429363,0.03494788175325909,0.02906269249211276,0.023381249902260856,0.01766438973355448,4.602135168556249,2.9763572475186773,2.2484856206295265,1.6506714625471308,1.1232776363771937,0.7241000626427758,0.4598053723938111,0.3220368002342643,0.26086720104348804,0.22928299134144156,0.2051947238216684,0.1817331860753083,0.15777767338495857,0.13389073399291143,0.10874427501149403
0.0,41.0,41.0,0.0,120.0,0.0,0.0,0.0,0.0,-107.0,0.0,-45.0,0.0,0.0,0.0,34.27253218749016,17.55503396713325,2.553296437278874,1.326741038689676,0.8849065529531533,0.5732365762002035,0.33744797545396915,0.18693692798228612,0.10302346343750698,0.06610499557065248,0.05176342756368906,0.04456203327854947,0.038872879273017844,0.033311256566639046,0.027744591772155224,0.02236635630890014,0.016942035594580598,4.648873293967953,3.0049177187967353,2.2693717727037064,1.6657211248826636,1.1334513353987234,0.7295778484461816,0.4596290682314283,0.31695357685865255,0.2533401109169548,0.22136711273497747,0.1978835714837416,0.17534041328346628,0.1523883607323132,0.12950493451112483,0.10538677602392459
0.0,42.0,42.0,0.0,120.0,0.0,0.0,0.0,0.0,-107.0,0.0,-45.0,0.0,0.0,0.0,34.27253218749016,17.55503396713325,2.589235490639311,1.3429813972934392,0.8949194058012077,0.5793096091121389,0.3408071236755742,0.18832526712140332,0.10260821286317119,0.06444602262682665,0.04965176052856574,0.042493838594760934,0.03704207677221932,0.031769489519435784,0.02650011545114187,0.021405549818018257,0.016255727935943678,4.69600302458478,3.0336384096224203,2.2903225810790846,1.68076962044944,1.1436254902582583,0.735262034253791,0.45996333618430174,0.3124918247104464,0.2463589455806925,0.21388759139134336,0.19093065029950654,0.16924646017942818,0.1472414874186713,0.12530754800689733,0.10216468903019682
0.0,43.0,43.0,0.0,120.0,0.0,0.0,0.0,0.0,-107.0,0.0,-45.0,0.0,0.0,0.0,34.27253218749016,17.55503396713325,2.6257430082512547,1.3594180826102304,0.905026077345065,0.5854191912492969,0.34418629263663614,0.1897935825341526,0.10235673754334215,0.06297210799900672,0.04770091285622737,0.04055737585084068,0.035320020481264626,0.03031613684151092,0.02532443540344851,0.02049544694343472,0.015603353192150055,4.743535949944476,3.062528010468976,2.3113453774814494,1.695822705456839,1.1537933946057213,0.7411138355882934,0.4607526858641248,0.3086077970540259,0.23989490815280204,0.20682209057823053,0.18431608363243465,0.16343448591116563,0.14232378069499618,0.12128870889766166,0.09907135232214306
0.0,44.0,44.0,0.0,120.0,0.0,0.0,0.0,0.0,-107.0,0.0,-45.0,0.0,0.0,0.0,34.27253218749016,17.55503396713325,2.662832156266595,1.3760563025748547,0.9152298501302043,0.5915674035855807,0.3475828520860909,0.19132853418475193,0.10225098434882143,0.06166872265286201,0.045900186241055276,0.038743902207704954,0.03369931026398939,0.0289452569879022,0.024213085074495332,0.01963290566298754,0.014982939016079415,4.7914834361684155,3.091594965774889,2.332447232765966,1.7108861034441647,1.163950845218275,0.7471002816296617,0.46194636355275165,0.30525997318414927,0.2339205508953418,0.20014975233331436,0.17802141646250724,0.15788878386457197,0.13762282003276388,0.11743915617511085,0.09610048773609513
0.0,45.0,45.0,0.0,120.0,0.0,0.0,0.0,0.0,-107.0,0.0,-45.0,0.0,0.0,0.0,34.27253218749016,17.55503396713325,2.7005162634402584,1.392901239657871,0.9255339433778671,0.5977563323320385,0.35099508553169345,0.1929188190531011,0.10227458906935892,0.06052233897443945,0.04423963878768677,0.037045372012543265,0.03217313991098097,0.02765136710596151,0.023161929215195522,0.01881500615610521,0.014392643746605064,4.839856644409114,3.120847493080716,2.353634975297633,1.7259654393576227,1.1740955892997387,0.7531935204335148,0.4634980920045298,0.30240901377065554,0.2284096832367993,0.19385105387594587,0.1720294997183608,0.15259469731149147,0.13312697511975646,0.11375019126274957,0.09324617554064416
0.0,46.0,46.0,0.0,120.0,0.0,0.0,0.0,0.0,-107.0,0.0,-45.0,0.0,0.0,0.0,34.27253218749016,17.55503396713325,2.7388088341754186,1.409958059107365,0.9359415202003538,0.6039880451342853,0.3544219868091681,0.19455491382983942,0.10241275344356329,0.05952036604339463,0.04271001744750137,0.035454369675632015,0.030735243913321872,0.026429403669342915,0.02216713641012341,0.018039033233721267,0.013830746739211704,4.8886665479483655,3.150293600922426,2.3749152079915237,1.7410661997167578,1.1842268755368393,0.7593701834084945,0.4653658061079695,0.3000177119614872,0.2233372942335039,0.18790767964277358,0.1663243837488671,0.14753854203083316,0.12882534892076955,0.11021363915436791,0.0905028311544185
0.0,47.0,47.0,0.0,120.0,0.0,0.0,0.0,0.0,-107.0,0.0,-45.0,0.0,0.0,0.0,34.27253218749016,17.55503396713325,2.77772356120368,1.4272319167119074,0.9464556942536946,0.6102645768814169,0.3578630960501813,0.19622884281955172,0.10265212767686231,0.05865109016966579,0.041302698461971314,0.03396404965173677,0.02937984933193677,0.025274686839574536,0.021225154118929453,0.017302460298834744,0.013295639482641494,4.93792394804237,3.17994110555385,2.396294324101213,1.7561937107442271,1.1943450925380223,0.7656108082210455,0.46751138775512285,0.2980509402103843,0.21867948676145285,0.18230240754994864,0.1608912202347372,0.14270753522350652,0.12470772535181811,0.10682181255295316,0.08786518354756095
0.0,48.0,48.0,0.0,120.0,0.0,0.0,0.0,0.0,-107.0,0.0,-45.0,0.0,0.0,0.0,34.27253218749016,17.55503396713325,2.8172743379485015,1.4447279661187438,0.9570795358810924,0.616587922066585,0.3613183684875729,0.19793396981693903,0.10298069849504762,0.0579036199587978,0.040009634714330986,0.032568082773572454,0.02810163223749992,0.024182888165866348,0.020332685980849058,0.01660293469263377,0.012785817432037558,4.987639488601686,3.2097976465723286,2.417778521885377,1.7713531285908601,1.204451480165293,0.7718993183511558,0.4699004027621889,0.29647559305098675,0.21441342115388615,0.1770190081380872,0.155716171915,0.1380897301158978,0.12076452115911694,0.10356747875545412,0.08532825519342192
0.0,49.0,49.0,0.0,120.0,0.0,0.0,0.0,0.0,-107.0,0.0,-45.0,0.0,0.0,0.0,34.27253218749016,17.55503396713325,2.8574752706162627,1.4624513657414213,0.9678160778094489,0.6229600315118655,0.36478807038941724,0.19966481254707955,0.10338768276751527,0.057267835311494396,0.03882330904222147,0.03126060826042521,0.0268956782570417,0.02315000127781554,0.019486671158946808,0.015938264295885164,0.012299872495729782,5.037823669786138,3.2398707015219115,2.4393738182829123,1.7865494374838018,1.21454790111747,0.7782225567988957,0.4725018422313289,0.29526052620249654,0.21051726637960255,0.17204215532051245,0.15078632956323815,0.1336739557133173,0.11698674163229658,0.10044382905220488,0.08288734344852719
0.0,50.0,50.0,0.0,120.0,0.0,0.0,0.0,0.0,-107.0,0.0,-45.0,0.0,0.0,0.0,34.27253218749016,17.55503396713325,2.8983406900560165,1.480407285290592,0.9786683204571509,0.6293828119176283,0.36827269721586964,0.20141687814282436,0.10386342671573524,0.056734339874100474,0.03773669269681681,0.030036190793183797,0.025757446816266804,0.02217231526448302,0.0186842655244369,0.015306405268495435,0.011836486118773904,5.088486860587864,3.2701675995472024,2.461086061710195,1.8017874528804485,1.2246366618754738,0.7845698709126188,0.47528787033760983,0.29437649248773845,0.20697015719098205,0.16735734752831014,0.14608963569710443,0.12944976122463428,0.1133659398156089,0.09744445043095744,0.08053800324933313
0.0,51.0,51.0,0.0,120.0,0.0,0.0,0.0,0.0,-107.0,0.0,-45.0,0.0,0.0,0.0,34.27253218749016,17.55503396713325,2.9398851634258167,1.4986009119608243,0.9896392369022435,0.6358581271706101,0.37177290982930816,0.20318651806356647,0.10439931070027232,0.056294416544825115,0.03674320824998648,0.028889782108715522,0.024682738712459223,0.021246390467570465,0.017922824502438567,0.014705450821894664,0.011394422911729991,5.139639310469204,3.3006955341683804,2.4829209440727613,1.817071827626025,1.2347203737385812,0.7909327449494903,0.4782335801615598,0.2937960750914903,0.2037521559603107,0.16295083812514838,0.14161481454452732,0.1254073647327379,0.10989417891175227,0.09456329939455836,0.07827603102379944
0.0,52.0,52.0,0.0,120.0,0.0,0.0,0.0,0.0,-107.0,0.0,-45.0,0.0,0.0,0.0,34.27253218749016,17.55503396713325,2.982123505700778,1.517037456304848,1.0007317775505224,0.6423878006868577,0.37528948525108,0.20497080083347177,0.10498765955516975,0.05593998571060398,0.03583669635167556,0.027816686622427707,0.02366766669267334,0.020369036446659806,0.01719988741913621,0.014133620929409892,0.010972524777978103,5.191291160116281,3.3314615752444383,2.504884012064176,1.8324070597698061,1.2448018461436987,0.7973044767627989,0.4813167588629057,0.2934936187001745,0.2008442181704481,0.15880957404814505,0.13735130782315927,0.12153760573286548,0.10656399760079037,0.0917946777185397,0.07609744972433365
0.0,53.0,53.0,0.0,120.0,0.0,0.0,0.0,0.0,-107.0,0.0,-45.0,0.0,0.0,0.0,34.27253218749016,17.55503396713325,3.0250707910554655,1.5357221578249103,1.0119488745346399,0.6489736183087904,0.3788232790443271,0.20676740098696597,0.10562165841271275,0.055663565945512264,0.03501138582653905,0.026812530638611675,0.022708628746646208,0.019537291901156415,0.01651316320688218,0.013589252889182404,0.010569705497195353,5.243452451363633,3.362472680187449,2.526980677809008,1.8477975011593162,1.254884005758388,0.8036798949146176,0.4845176632007465,0.2934451590544983,0.19822816073477692,0.154921141716221,0.13328921591783777,0.11783190120282092,0.10336837802189006,0.08913320999050352,0.0739984948965343
0.0,54.0,54.0,0.0,120.0,0.0,0.0,0.0,0.0,-107.0,0.0,-45.0,0.0,0.0,0.0,34.27253218749016,17.55503396713325,3.0687423641511105,1.5546602903090976,1.023293445868839,0.6556173314456579,0.3823751969130748,0.20857450264831331,0.10629527393549631,0.05545823694667756,0.03426186667343386,0.025873234754248447,0.021802283854237266,0.018748406357162132,0.015860517338506283,0.013070792662587817,0.010184945726525967,5.296133136340399,3.3937357044863563,2.549216228895575,1.8632473662543836,1.264969835973253,0.8100551125148977,0.4878188061467814,0.29362835142273985,0.1958866324955677,0.15127371933242126,0.129419244065398,0.11428220490602242,0.10030071618847893,0.08657382278725907,0.07197560170518039
0.0,55.0,55.0,0.0,120.0,0.0,0.0,0.0,0.0,-107.0,0.0,-45.0,0.0,0.0,0.0,34.27253218749016,17.55503396713325,3.1131538513560852,1.5738571669383166,1.0347683993792085,0.662320660263541,0.3859461735468358,0.2103907162340878,0.10700318084712139,0.05531760452002374,0.03358306559511005,0.024994989103719684,0.020945529953856797,0.017999823448291617,0.015239959875188676,0.012576786918622771,0.009817288384461857,5.3493430858835325,3.425257411594037,2.571595837836293,1.878760740822373,1.2750623323972543,0.8164273141685132,0.4912047551084317,0.2940223984697276,0.19380308639346483,0.1478560347898884,0.12573265317820811,0.11088096966074697,0.09735479462820305,0.08411172535838377,0.07002539284538734
0.0,56.0,56.0,0.0,120.0,0.0,0.0,0.0,0.0,-107.0,0.0,-45.0,0.0,0.0,0.0,34.27253218749016,17.55503396713325,3.1583211719265143,1.593318145187717,1.046376636426146,0.669085296809739,0.3895371571128553,0.2122150068466725,0.10774069362850466,0.05523576745779412,0.032970223739784185,0.024174231129734398,0.020135483921861257,0.017289165637855684,0.014649634523972574,0.012105875721477578,0.009465834385634841,5.403092097259443,3.4570444822271873,2.594124570988656,1.8943415903221286,1.2851644707915486,0.8227945725523528,0.49466194207601333,0.29460797795948906,0.19196175291790274,0.14465732847136448,0.12222121495805086,0.1076211123372508,0.09452475705802825,0.08174239169640289,0.06814466727272109
0.0,57.0,57.0,0.0,120.0,0.0,0.0,0.0,0.0,-107.0,0.0,-45.0,0.0,0.0,0.0,34.27253218749016,17.55503396713325,3.204260549172365,1.6130486315441512,1.0581210554336966,0.6759129080082709,0.39314909811133175,0.21404663301830523,0.10850370322427852,0.05520728617399552,0.03241887638244019,0.02340762559998652,0.01936946337365722,0.01661422024606778,0.01408780861140879,0.01165678580453635,0.009129738697555243,5.457389901230931,3.4891035231241174,2.61680739696694,1.9099937678788785,1.2952791845774658,0.8291556913289331,0.4981784858304402,0.2953671706905907,0.190347614542727,0.14166732030820264,0.11887717097100114,0.10449598136918486,0.09180508492202556,0.07946154388418251,0.06633038969138798
0.0,58.0,58.0,0.0,120.0,0.0,0.0,0.0,0.0,-107.0,0.0,-45.0,0.0,0.0,0.0,34.27253218749016,17.55503396713325,3.2509885216331496,1.6330540860593732,1.0700045552391202,0.6828051384962975,0.39678294156931065,0.21588509456428234,0.10928861858360671,0.05522715298372903,0.03192483431285845,0.022692046619923103,0.01864497011573274,0.01597292666029625,0.013552863889159281,0.011228324379475312,0.008808206692915209,5.5122461685026725,3.5214410753016954,2.6396491945730505,1.925721021811576,1.3054093496366428,0.8355100713176513,0.5017440261939442,0.29628338902415363,0.18894638092666563,0.13887618053619077,0.1156931953721789,0.10149932658720454,0.08919057563511167,0.07726513661952113,0.0645796807445315
0.0,59.0,59.0,0.0,120.0,0.0,0.0,0.0,0.0,-107.0,0.0,-45.0,0.0,0.0,0.0,34.27253218749016,17.55503396713325,3.298521954286139,1.6533400267567884,1.0820300382752546,0.689763613291707,0.40043962176328607,0.21773008840690122,0.11009231284228743,0.055290763928675,0.03148416673055951,0.02202456141979205,0.017959675094282805,0.01536336461909554,0.013043288095729293,0.010819373433986364,0.008500490773403526,5.567670515574697,3.5540636218489294,2.6626547602739348,1.9415270027095504,1.3155577746012124,0.841857597077997,0.5053495701744396,0.29734130632653594,0.18774446471784953,0.13627450365159516,0.11266236098689701,0.09862527120140047,0.08667632239032882,0.0751493428254618,0.06288980785510526
0.0,60.0,60.0,0.0,120.0,0.0,0.0,0.0,0.0,-107.0,0.0,-45.0,0.0,0.0,0.0,34.27253218749016,17.55503396713325,3.346878049808789,1.6739120339079632,1.0942004135976418,0.6967899402940894,0.4041200588353739,0.21958147133541542,0.11091207393850729,0.05539389206435755,0.031093185474936644,0.021402415719068053,0.01731140470080239,0.014783743471984055,0.012557667205948756,0.010428884476019343,0.008205887243076672,5.623672510030106,3.5869775952914256,2.6858288152522367,1.957415270075132,1.325727195223468,0.8481985413011115,0.5089873497429697,0.2985267876121798,0.18672895784806676,0.13385328513149736,0.10977810847192643,0.09586828577542239,0.08425769540026197,0.07311054026253239,0.06125817666987882
0.0,61.0,61.0,0.0,120.0,0.0,0.0,0.0,0.0,-107.0,0.0,-45.0,0.0,0.0,0.0,34.27253218749016,17.55503396713325,3.3960743539322498,1.6947757472418434,1.1065186016484174,0.7038857123418517,0.4078251567999959,0.22143922878011751,0.11174555943903225,0.05553266213654532,0.030748430442540504,0.020823020493709196,0.016698128308234868,0.014232392326915417,0.012094678306540273,0.010055873686381741,0.007923733409697318,5.680261740887086,3.6201894513311967,2.709175983235751,1.9733893047956812,1.3359202711164644,0.8545334846400298,0.5126506909303964,0.2998268216254705,0.18588760824081133,0.13160390053712545,0.10703421829755418,0.09322316404933045,0.0819303244550939,0.07114529906614646,0.05968232311602489
0.0,62.0,62.0,0.0,120.0,0.0,0.0,0.0,0.0,-107.0,0.0,-45.0,0.0,0.0,0.0,34.27253218749016,17.55503396713325,3.446128771587672,1.7159368653009606,1.118987541540157,0.7110525077539387,0.4115558033274248,0.22330344858747547,0.11259075537968168,0.0557035265805786,0.030446656063429584,0.020283939991808043,0.016117946923064043,0.013707751006217423,0.011653083042064196,0.009699417445040114,0.007653404885586549,5.737448191438103,3.653705400307173,2.7327009555077035,1.9894524711373829,1.3461395900706643,0.8608632492150884,0.5163338933764005,0.30122945471049123,0.18520879685651956,0.12951808667392728,0.10442478530674304,0.09068500048062793,0.07969008269056298,0.06925037013868691,0.058159906244885824
0.0,63.0,63.0,0.0,120.0,0.0,0.0,0.0,0.0,-107.0,0.0,-45.0,0.0,0.0,0.0,34.27253218749016,17.55503396713325,3.4970596019218494,1.7374011962370324,1.1316101736429462,0.7182918974660693,0.41531286800060324,0.22517429964760574,0.11344593881210027,0.055903242782862364,0.030184818728932118,0.019782880859862472,0.015569082849788108,0.013208361739557722,0.01123172158096447,0.009358648199674543,0.007394313136559425,5.79524124333031,3.6875315207677306,2.7564083852371515,2.005608064934632,1.3563876638876065,0.867188842665036,0.5200321210407496,0.3027237263096744,0.18468151511188133,0.12758792450907255,0.1019441956265965,0.08824916938343157,0.07753307146889231,0.06742267433165955,0.056688700426700975
0.0,64.0,64.0,0.0,120.0,0.0,0.0,0.0,0.0,-107.0,0.0,-45.0,0.0,0.0,0.0,34.27253218749016,17.55503396713325,3.5488855393549765,1.759174607067681,1.1443894472610259,0.725605450856203,0.4190972018331909,0.22705201391425403,0.11430964398050557,0.056128851537394005,0.029960065075059307,0.019317682259060144,0.015049870273414026,0.012732861529576069,0.010829507056209775,0.00903275064789649,0.00714590319495679,5.85365037915359,3.721674203365333,2.7803024580219886,2.0218594770365668,1.3666669114196799,0.8735114100296826,0.5237413043763086,0.30429960603180883,0.18429534269950046,0.1258058235917309,0.09958710572212594,0.08591130555533483,0.07545560628462357,0.06565929235851385,0.05526658960445788
0.0,65.0,65.0,0.0,120.0,0.0,0.0,0.0,0.0,-107.0,0.0,-45.0,0.0,0.0,0.0,34.27253218749016,17.55503396713325,3.6016256347872457,1.781263054594891,1.1573283504535656,0.7329947193642813,0.4229096414857376,0.2289368717870052,0.11518063148043492,0.05637765676467443,0.029769721016059465,0.018886306868635003,0.014558746673974578,0.012279975132023838,0.010445420439396684,0.008720958207094084,0.006907651380582183,5.912684861991839,3.7561397876671094,2.8043876546280924,2.0382098674876596,1.3769797024100543,0.87983220252406,0.5274580450706143,0.3059479347143175,0.18404042536698154,0.12416450784414775,0.09734842338451341,0.08366728629115724,0.07345420361567033,0.06395745538316529,0.05389156024360515
0.0,66.0,66.0,0.0,120.0,0.0,0.0,0.0,0.0,-107.0,0.0,-45.0,0.0,0.0,0.0,34.27253218749016,17.55503396713325,3.655299343133267,1.803672583889932,1.1704298930732382,0.7404612492775834,0.4267510079889973,0.23082919012606404,0.11605786081090594,0.05664720624194377,0.02961128149771331,0.018486832673383552,0.014094244997033378,0.011848508597543399,0.010078505811070549,0.008422549748277216,0.0066790633841951105,5.972353850452481,3.7909346297222917,2.828668438126475,2.054662321587582,1.3873283417706028,0.8861525440508656,0.5311795364302049,0.3076603658469176,0.18390745337039763,0.12265700241125692,0.09522329049213471,0.081513214687139,0.07152556864649555,0.06231453623447327,0.05256169604412745
0.0,67.0,67.0,0.0,120.0,0.0,0.0,0.0,0.0,-107.0,0.0,-45.0,0.0,0.0,0.0,34.27253218749016,17.55503396713325,3.7099265582898293,1.8264093129439487,1.1836971014531275,0.7480065927330823,0.4306221049080604,0.23272931295391477,0.11694046565783588,0.05693527342531024,0.029482400883716706,0.018117445455958937,0.013654986509303123,0.011437343327384575,0.009727865993522466,0.0081368465723222,0.006459672436530321,6.03266681933412,3.8260651021705883,2.853149053619013,2.071219909358793,1.397715070294431,0.8924738071028147,0.5349034889734454,0.3094293101745256,0.18388764008493536,0.12127662151029693,0.09320706736286649,0.07944540414910067,0.06966658379765288,0.0607280412000015,0.051275173336234964
0.0,68.0,68.0,0.0,120.0,0.0,0.0,0.0,0.0,-107.0,0.0,-45.0,0.0,0.0,0.0,34.27253218749016,17.55503396713325,3.7655276684179118,1.849479457197661,1.1971330267275957,0.7556323030556552,0.4345237210575406,0.23463760346809504,0.1178277317141296,0.05723984036762852,0.029380883904797057,0.017776431923624266,0.013239674274888142,0.011045430599896499,0.009392658515450908,0.007863209608955469,0.006249037488612591,6.093633345561466,3.861537670278955,2.8778336204714163,2.087885643267882,1.4081420734205534,0.8987973940994818,0.5386280636704672,0.31124788260773906,0.1839727009809477,0.12001695711226576,0.09129531854996342,0.0774603640219336,0.06787429800152975,0.05919560235655739,0.05003025553181917
0.0,69.0,69.0,0.0,120.0,0.0,0.0,0.0,0.0,-107.0,0.0,-45.0,0.0,0.0,0.0,34.27253218749016,17.55503396713325,3.8221235679165027,1.872889431089136,1.2107407571043076,0.7633399077343207,0.4384566433068529,0.23655443532921447,0.11871907708815371,0.05755908169208844,0.029304677113383,0.0174621734068357,0.012847087193603394,0.010671786528595644,0.009072091880676248,0.007601036820531597,0.006046741581885011,6.155262366506949,3.8973582634971526,2.9027267479553482,2.104662522168211,1.4186114535221108,0.9051247122944766,0.5423518216281636,0.3131098487497698,0.18415483353016293,0.11887186824194501,0.08948379995645563,0.07555478626211369,0.06614591666929585,0.05771497039863525,0.048825287041409905
0.0,70.0,70.0,0.0,120.0,0.0,0.0,0.0,0.0,-107.0,0.0,-45.0,0.0,0.0,0.0,34.27253218749016,17.55503396713325,3.8797355054351077,1.8966455220891016,1.2245233798505821,0.7711309681554729,0.4424216349591119,0.23848019245656063,0.11961403431938825,0.05789134935813283,0.029251860895320118,0.017173140046594086,0.012476074555232738,0.010315487414605815,0.00876542211595078,0.007349760794264439,0.005852390836031551,6.217563081592062,3.9335332854915768,2.9278326034275093,2.121553505863415,1.4291252725991905,0.9114571741912338,0.5460736596733587,0.3150095800546475,0.18442669621302477,0.11783547114264768,0.08776844708582072,0.07372553308793009,0.06447879229987986,0.05628400792721332,0.047658691209957055
0.0,71.0,71.0,0.0,120.0,0.0,0.0,0.0,0.0,-107.0,0.0,-45.0,0.0,0.0,0.0,34.27253218749016,17.55503396713325,3.938384567923297,1.9207543741404984,1.2384840402234019,0.779007023840788,0.4464194587948248,0.24041526076886924,0.12051223532395727,0.058235158513312506,0.029220641854502755,0.016907885459188945,0.012125551052358338,0.009975665463045364,0.008471949574550632,0.007108846507896034,0.005665613149901,6.280544652563749,3.9700688258476484,2.9531555596133257,2.138561467309106,1.4396855477161246,0.9177961834709175,0.5497927673415426,0.3169420067899905,0.18478138887280646,0.11690212981377981,0.08614536437657891,0.07196962553275604,0.0628704156845785,0.05490068316713253,0.04652896395023635
0.0,72.0,72.0,0.0,120.0,0.0,0.0,0.0,0.0,-107.0,0.0,-45.0,0.0,0.0,0.0,34.27253218749016,17.55503396713325,3.998093124449574,1.9452223990850164,1.2526260553393713,0.7869695893221441,0.4504508679188454,0.2423600283131385,0.12141339688647547,0.0585891742772339,0.02920934563394428,0.016665041802873266,0.011794492217038249,0.009651504831603607,0.008191015975216423,0.006877789255138903,0.00548605578552806,6.344216735887357,4.006971250343706,2.9786998074493027,2.1556892905073495,1.4502942359695676,0.9241431301508792,0.5535085853770423,0.3189025744825785,0.18521243327192344,0.11606644706569907,0.084610815481458,0.0702842328421872,0.06131840766618649,0.05356306408140401,0.04543467075399355
0.0,73.0,73.0,0.0,120.0,0.0,0.0,0.0,0.0,-107.0,0.0,-45.0,0.0,0.0,0.0,34.27253218749016,17.55503396713325,4.058883883489929,1.9700565246567618,1.2669525679825755,0.7950202599159014,0.45451658480813073,0.24431488651015668,0.12231730845040509,0.0589521991219541,0.029216410188378752,0.016443315200127394,0.011481930242508563,0.009342237984336255,0.007922001657356315,0.0066561127184238565,0.00531338421334071,6.40858896430994,4.04424739707386,3.004469809724194,2.172939423776582,1.4609533726351953,0.9304993464659819,0.5572207869846397,0.32088719733888976,0.1857137552039455,0.11532325579616909,0.08316121443015033,0.06866666265254741,0.05982051141378007,0.052269312855046796,0.04437444469635482
0.0,74.0,74.0,0.0,120.0,0.0,0.0,0.0,0.0,-107.0,0.0,-45.0,0.0,0.0,0.0,34.27253218749016,17.55503396713325,4.120780110629021,1.9952637255382053,1.2814667632322674,0.8031606045717189,0.4586173504467268,0.24628021531695338,0.12322382359758967,0.05932316124807056,0.029240379267874383,0.01624148154097649,0.01118695013973697,0.00904714232923983,0.007664323034623864,0.006443367177420396,0.00514728161024664,6.473670446396929,4.081903104704748,3.0304696215439426,2.190314951966739,1.4716647588547909,0.9368661993305004,0.5609291975023615,0.32289223503979686,0.186279662611124,0.1146676114526049,0.08179311743166705,0.06711435191265332,0.058374585180745245,0.05101768071818907,0.04334697890520559
0.0,75.0,75.0,0.0,120.0,0.0,0.0,0.0,0.0,-107.0,0.0,-45.0,0.0,0.0,0.0,34.27253218749016,17.55503396713325,4.18380567447617,2.020850955099176,1.2961719543940406,0.8113921886707102,0.4627538955666345,0.248256392847247,0.1241328484010674,0.05970110393555562,0.029279896352060613,0.016058382542667664,0.010908686222764237,0.008765537110378899,0.0074174302324736515,0.006239127842851263,0.004987447566154541,6.539470404672946,4.1199445154355425,3.056703445618131,2.207818706951842,1.482430218223418,0.9432450102895332,0.5646338057277775,0.32491444359263455,0.18690483016374335,0.11409478372720676,0.08050321553701102,0.06562485846297471,0.056978595509668696,0.049806503091812185,0.042351027059612974
0.0,76.0,76.0,0.0,120.0,0.0,0.0,0.0,0.0,-107.0,0.0,-45.0,0.0,0.0,0.0,34.27253218749016,17.55503396713325,4.2479849647661325,2.0468251231693584,1.3110716576394632,0.8197165235193811,0.4669269597858098,0.25024379104109323,0.12504433354006642,0.060085175545266656,0.02933369882796455,0.015892922112017285,0.010646318872024328,0.008496780539502691,0.00718080489405429,0.006042993306007404,0.0048335977565320785,6.605997605068282,4.1583781290227355,3.083175449219279,2.2254534257649716,1.4932515481381592,0.9496370704813454,0.5683347315633885,0.3269509436564707,0.18758428108309966,0.11360024914511557,0.07928832782478423,0.06419585325404398,0.05563061085822889,0.048634195027156935,0.0413853997871231
0.0,77.0,77.0,0.0,120.0,0.0,0.0,0.0,0.0,-107.0,0.0,-45.0,0.0,0.0,0.0,34.27253218749016,17.55503396713325,4.313342605351026,2.0731935004174655,1.3261690522355467,0.8281352704490194,0.47113723430703464,0.25224278421380925,0.12595826697682275,0.060474619825401976,0.029400612602666753,0.015744062921360998,0.010399071566154888,0.008240267144164589,0.006953958142068397,0.005854584095192548,0.0046854637894574395,6.673261299899588,4.197210080240741,3.109889821050912,2.2432218715330348,1.5041305201414281,0.9560436333037037,0.5720322052042217,0.32899918904371267,0.18831336981125138,0.11317968386572669,0.07814539514568832,0.06282511314785302,0.05432879561713251,0.04749924692084349,0.040448961735842136
0.0,78.0,78.0,0.0,120.0,0.0,0.0,0.0,0.0,-107.0,0.0,-45.0,0.0,0.0,0.0,34.27253218749016,17.55503396713325,4.379903786386925,2.099963224286362,1.3414675286881717,0.8366500384437873,0.4753854293698774,0.2542537357072951,0.12687466902824523,0.06086876741077369,0.029479546797909942,0.015610823263998147,0.010166208137463177,0.007995425319476949,0.006736428683814974,0.005673541330874341,0.00454279170841867,6.7412707965575125,4.236446888196292,3.136850799252292,2.2611267399400994,1.5150688782971353,0.9624659239301718,0.5757265447719739,0.33105693784483947,0.18908776516257172,0.11282895672387097,0.07707147436650803,0.06151051425804985,0.05307140449580588,0.04640022048632821,0.039540626401502875
