Line_number,Fiducial,Easting,Northing,Height,Elevation,tx_pitch,tx_roll,tx_yaw,txrx_dx,txrx_dy,txrx_dz,rx_pitch,rx_roll,rx_yaw,PX,PZ,S0X_time_1.086e-05,S0X_time_3.256e-05,S0X_time_5.426e-05,S0X_time_8.680e-05,S0X_time_1.411e-04,S0X_time_2.279e-04,S0X_time_3.689e-04,S0X_time_5.860e-04,S0X_time_9.115e-04,S0X_time_1.411e-03,S0X_time_2.192e-03,S0X_time_3.418e-03,S0X_time_5.339e-03,S0X_time_8.301e-03,S0X_time_1.338e-02,S0Z_time_1.086e-05,S0Z_time_3.256e-05,S0Z_time_5.426e-05,S0Z_time_8.680e-05,S0Z_time_1.411e-04,S0Z_time_2.279e-04,S0Z_time_3.689e-04,S0Z_time_5.860e-04,S0Z_time_9.115e-04,S0Z_time_1.411e-03,S0Z_time_2.192e-03,S0Z_time_3.418e-03,S0Z_time_5.339e-03,S0Z_time_8.301e-03,S0Z_time_1.338e-02
0.0,0.0,0.0,0.0,120.0,0.0,0.0,0.0,0.0,-107.0,0.0,-45.0,0.0,0.0,0.0,34.27253218749016,17.55503396713325,1.7083633624325272,1.4958318441290435,1.4770159575867405,1.3797875626371925,1.2911577141498352,1.2218602143068222,1.0775572512267655,1.0228613182984279,0.8788962986600222,0.7630983546612675,0.6352196591990293,0.3882010411642006,0.32768069904058233,0.26396184514823573,0.19356584023294848,3.2302672811917343,3.0536916304628297,2.928148836500412,2.822175727980541,2.7190456433660453,2.540206511547261,2.4045533707482125,2.1952972796840435,1.9735469661786238,1.741643170192412,1.5216655944723965,1.288882523364416,1.0170837719102617,0.7751903573988976,0.5549015558197865
0.0,1.0,1.0,0.0,120.0,0.0,0.0,0.0,0.0,-107.0,0.0,-45.0,0.0,0.0,0.0,34.27253218749016,17.55503396713325,1.6216190977097873,1.3949168227148214,1.376257367109572,1.2808951694384625,1.2006364064913837,1.0178512298258842,0.9938771408661287,0.9395369517576516,0.8685016048686546,0.697624127893195,0.5780714538861237,0.4475087075795161,0.27624408960534436,0.24031161985027905,0.15989024397087348,3.1494871146509458,2.741888736471575,2.709153253635231,2.6260429190993038,2.4831389115654092,2.3614396322550464,2.1690020068305773,2.0260053056145253,1.875978814178382,1.6296776824109842,1.4283564396148318,1.1886640767027918,0.9254473041353198,0.6857255957549763,0.5334651897280812
0.0,2.0,2.0,0.0,120.0,0.0,0.0,0.0,0.0,-107.0,0.0,-45.0,0.0,0.0,0.0,34.27253218749016,17.55503396713325,1.5542804024548853,1.3166672335167313,1.1375525831732634,1.1784608062792445,0.9865470296549601,1.0388421689829175,0.9126514341845366,0.8533748117828954,0.7267020785738675,0.6189053463397771,0.48740843722639166,0.4224780097151022,0.31156013285937867,0.18603047740115194,0.1641844035691489,3.0377449697079464,2.611122079441139,2.4857135982742538,2.432232407274582,2.3219209275280552,2.18200760232071,2.0491013650106304,1.9154176745011662,1.7267789544700967,1.5231956443247203,1.3002020330044892,1.1217143264592044,0.8936726959498043,0.6723965591109331,0.4965002698947578
0.0,3.0,3.0,0.0,120.0,0.0,0.0,0.0,0.0,-107.0,0.0,-45.0,0.0,0.0,0.0,34.27253218749016,17.55503396713325,1.5223161889842816,1.1915639263558562,1.1405390460821248,0.975379833314551,0.95273190342495,0.9204004560794458,0.8326033003083146,0.7092199634068663,0.6353932628915452,0.5438836243591914,0.5212547218616135,0.3766689547097861,0.2817121091075658,0.1785969663070771,0.14315153828372465,3.0635264866217136,2.4925842886544607,2.3687754100137117,2.2222056640805836,2.149697027616972,2.0510471203858067,1.8967869812413491,1.7641475945296412,1.594887384535316,1.417658356898924,1.2258772368995035,1.0377432780485991,0.7997080061241338,0.6624467529095601,0.43404132140171936
0.0,4.0,4.0,0.0,120.0,0.0,0.0,0.0,0.0,-107.0,0.0,-45.0,0.0,0.0,0.0,34.27253218749016,17.55503396713325,1.5688020993146585,1.0516632441050129,0.8903641018120463,0.9151337385918499,0.8715514992339162,0.8318005714726471,0.7274919755638436,0.670179373991055,0.5949313563275956,0.5637447186537564,0.4192956550469012,0.3364341917750065,0.2200257699447942,0.183393583779588,0.143388107512999,3.0679074918544327,2.3418428988285247,2.212827675306164,2.1205056989575275,2.0020043621628423,1.9498514637507327,1.8064515877684368,1.6518190688161216,1.5287702704946398,1.3193652913715206,1.1751841313330769,0.9898468359115248,0.7851485606576282,0.6131814024705525,0.41297393796352866
0.0,5.0,5.0,0.0,120.0,0.0,0.0,0.0,0.0,-107.0,0.0,-45.0,0.0,0.0,0.0,34.27253218749016,17.55503396713325,1.5543109105537831,0.9924563345069247,0.9047651357950612,0.8946563045280049,0.7684044591855943,0.7281622130071712,0.7574450663966904,0.556538959070349,0.5478776436015631,0.4756193023555117,0.36961186564671783,0.2936644203951305,0.22236299514752822,0.13073283235799082,0.13274996948943332,3.107911031603375,2.240263306221813,2.048122232109656,1.9702438457523075,1.891490162799663,1.7905323479123678,1.6597202707730618,1.5295526769864976,1.4046690243407012,1.2284330707668265,1.045787987540961,0.9032944975395448,0.7473211804065482,0.5540192168984246,0.4599408510147594
0.0,6.0,6.0,0.0,120.0,0.0,0.0,0.0,0.0,-107.0,0.0,-45.0,0.0,0.0,0.0,34.27253218749016,17.55503396713325,1.5463444060731892,1.0632929314635158,0.845758697419349,0.7622214504723187,0.6707717423084478,0.6559321104865504,0.6539609917709904,0.5964710441915086,0.5529281298340952,0.4101426952208197,0.2842510376739114,0.21531510537172915,0.18431820450913633,0.13763482233865135,0.08072572406228101,3.172176107663805,2.248561507941153,1.955474767758594,1.8526513603067476,1.7270944926675784,1.6724597050953853,1.5309785708871757,1.4190731279262536,1.332718077121562,1.1697396281397092,1.0391576891476892,0.8242706708982174,0.7146205493029401,0.5244996418213694,0.3838537316399096
0.0,7.0,7.0,0.0,120.0,0.0,0.0,0.0,0.0,-107.0,0.0,-45.0,0.0,0.0,0.0,34.27253218749016,17.55503396713325,1.5798608483300836,0.8524700680924543,0.7849192383929885,0.6866823732290994,0.6779030526586137,0.630122281490413,0.6128253943765581,0.48523377520737465,0.521205854702715,0.33422585372589675,0.37328648917104024,0.22897703144550127,0.1789940505988564,0.1717232942074168,0.057443140019188405,3.1413701069935995,2.1562718973461275,1.8741208427981182,1.7612148785277355,1.6736215673092936,1.5483840877912358,1.4634334353863432,1.3391303428208707,1.230633646906017,1.1098065960283405,0.9904612864905011,0.8360530948463063,0.6278356150681196,0.4958962754293108,0.38148060055210514
0.0,8.0,8.0,0.0,120.0,0.0,0.0,0.0,0.0,-107.0,0.0,-45.0,0.0,0.0,0.0,34.27253218749016,17.55503396713325,1.699442093574647,0.8843527462826588,0.7825271583326167,0.6485875527756718,0.6104308630964363,0.511473827786062,0.5436806138826886,0.4946366801443901,0.4265517148062424,0.3514681312912131,0.3080583439932827,0.23464703933198514,0.24370489800353096,0.15003268898537753,0.12814483555787543,3.236997682432392,2.1316267920267817,1.8075202206818126,1.6580437498197305,1.5275418187494996,1.476726320106724,1.3814131776961325,1.2492719375040142,1.1268282361140045,1.015736593699885,0.8693380837822604,0.7372780925317072,0.6430225428355032,0.49836113298095686,0.360888007134879
0.0,9.0,9.0,0.0,120.0,0.0,0.0,0.0,0.0,-107.0,0.0,-45.0,0.0,0.0,0.0,34.27253218749016,17.55503396713325,1.6187665741910338,0.8853650536606817,0.7228924572261243,0.5938774388198983,0.5757895818523516,0.5298612279503015,0.47835903101203414,0.510990059095007,0.3003744528431682,0.32228402899157194,0.27465672422315013,0.22547437030431122,0.15495688133832455,0.15447287687686073,0.08991620442901947,3.2934577931698708,2.152570634928688,1.8113036761483823,1.570644490509866,1.4665192888154113,1.3372440644430268,1.255130419275256,1.1658342307179823,1.0670735475716222,0.964520693847699,0.8728166642976272,0.7395673600514379,0.5712406499425059,0.46743281095993616,0.35980520350543627
0.0,10.0,10.0,0.0,120.0,0.0,0.0,0.0,0.0,-107.0,0.0,-45.0,0.0,0.0,0.0,34.27253218749016,17.55503396713325,1.6709491580415803,0.9073106113050066,0.5810812907667562,0.6496520127976637,0.5777055571620606,0.45060548161506897,0.37099236707296734,0.3146883664368244,0.3840554890903644,0.27918689481975106,0.2782836703334784,0.18890039784642426,0.1767360576059197,0.10279768607578618,0.041934569793949245,3.3300579239903767,2.120067882644882,1.722340153308332,1.5151051714589971,1.3940479526778802,1.2611357133634593,1.2104121009392579,1.0851795114738145,1.0446773695367602,0.9426552753287804,0.8155182537851543,0.6805296735502001,0.5505165503663384,0.414215413249561,0.3605515471960411
0.0,11.0,11.0,0.0,120.0,0.0,0.0,0.0,0.0,-107.0,0.0,-45.0,0.0,0.0,0.0,34.27253218749016,17.55503396713325,1.6760271075322513,0.8714877007748904,0.6083657348640602,0.5226428316112233,0.41964487426021874,0.44947961871221037,0.45106188683248905,0.4013155944868687,0.2920697072627247,0.2774582514959394,0.2417031269903419,0.15283143369943586,0.1272617910542705,0.08953424838106121,0.04828705043655369,3.365814607921197,2.1971552227151085,1.7283160667679422,1.4657654661550716,1.2789999724897925,1.2090387487093268,1.1371297893291725,1.068119067134327,1.0008989042830727,0.8846901107782696,0.78728682295721,0.6332827540879071,0.5335931789751927,0.4277185788756385,0.3286861908940037
0.0,12.0,12.0,0.0,120.0,0.0,0.0,0.0,0.0,-107.0,0.0,-45.0,0.0,0.0,0.0,34.27253218749016,17.55503396713325,1.7091694964822752,0.9470622699294331,0.6372142375031535,0.5047682907118082,0.40530588470023177,0.4392156824381039,0.3287416407015177,0.35833672735243943,0.3021430396473238,0.26403490749418507,0.20394850430119318,0.2478974878400911,0.18591749302471403,0.06200455479078059,0.07704796877927468,3.393504548947422,2.23022699778545,1.7468662284844125,1.4361806993359298,1.2717040216314208,1.126117393033697,1.0636955542246869,0.9955320675135074,0.9352088051357941,0.8059421127959913,0.7426781019806039,0.5868394017246881,0.4859896203473762,0.4232675948359444,0.3051707503806873
0.0,13.0,13.0,0.0,120.0,0.0,0.0,0.0,0.0,-107.0,0.0,-45.0,0.0,0.0,0.0,34.27253218749016,17.55503396713325,1.739156816271438,0.9711606906184933,0.6768029572686772,0.49365879712028166,0.46361239650466357,0.34983925597509735,0.282561214651822,0.29269430592323903,0.2917127022162772,0.23670997914248457,0.21386742081917537,0.22674415710364157,0.09474519012444603,0.08328095525156358,0.08757163604763286,3.4440387259819043,2.246328572773542,1.7519913261004092,1.4407994335449719,1.1814817385465992,1.0742106136501464,1.022055221782298,0.9520672221794764,0.8452439684959497,0.7908994914465577,0.6938061820764538,0.6029314175115865,0.5311433345751512,0.4194753855840223,0.3033655141655853
0.0,14.0,14.0,0.0,120.0,0.0,0.0,0.0,0.0,-107.0,0.0,-45.0,0.0,0.0,0.0,34.27253218749016,17.55503396713325,1.7189104201728502,0.9226469049491869,0.5935345342475162,0.5181293918833735,0.3903877801979349,0.34689265695701993,0.268527721149709,0.2231295862117617,0.23025230352709214,0.1792092475894944,0.2258830668274232,0.15984825313752168,0.06859632768830032,0.07999456919044727,0.09143951481429084,3.5015867983429843,2.222507248657245,1.7402466240890506,1.3751039490358514,1.1268606064605806,1.0342453559661817,0.946544000743461,0.8582457173686565,0.7877524283216831,0.7374461512144781,0.5999908180542105,0.5847160413942114,0.42848245209015756,0.39612929521561957,0.2505591933237388
0.0,15.0,15.0,0.0,120.0,0.0,0.0,0.0,0.0,-107.0,0.0,-45.0,0.0,0.0,0.0,34.27253218749016,17.55503396713325,1.7980789848798309,0.9675988043751983,0.622788385234141,0.49929098383617415,0.35782839561270696,0.2615863740989792,0.28464778771294125,0.1821893930578998,0.1863196177836221,0.21994029504196155,0.16487730969046052,0.18370156991280587,0.07806066084486163,0.07772206705884395,0.019783311142105006,3.510854155378003,2.2928591361668444,1.724878157151187,1.374504831162899,1.114690209411519,0.9698339862945686,0.9309205397376523,0.8364046394325722,0.7495353479238674,0.6918127652198474,0.5778489848320312,0.5173675832937699,0.43898266950643616,0.3582541817444469,0.23233295047297398
0.0,16.0,16.0,0.0,120.0,0.0,0.0,0.0,0.0,-107.0,0.0,-45.0,0.0,0.0,0.0,34.27253218749016,17.55503396713325,1.8550508985849319,0.9601324293279175,0.6458022835454794,0.49849782073057564,0.34984427213119745,0.2739694645369452,0.2567866286557173,0.31422170695400453,0.27689544787396203,0.25136603073537145,0.16777815962014797,0.1337287040835475,0.11065643441148519,0.08145511778556469,0.05362265229129858,3.553370033108475,2.28668522411369,1.7757702145626795,1.3266835016685072,1.068239734108048,0.9130842977877575,0.8522569011001727,0.7816493440849916,0.7052580732733414,0.6514076622953627,0.6002954046573871,0.4923081846863494,0.4305822344827166,0.35594546297386326,0.28337451138787517
0.0,17.0,17.0,0.0,120.0,0.0,0.0,0.0,0.0,-107.0,0.0,-45.0,0.0,0.0,0.0,34.27253218749016,17.55503396713325,1.8377751998678453,0.9877206633214561,0.6332821684172144,0.4409181627432108,0.35547684682036185,0.26757641821008793,0.31586335704357776,0.2165170959448944,0.16308150886250633,0.14493274633270697,0.15316767977627785,0.1098251782963099,0.07444164537191247,0.04150314996943064,0.07665517345416982,3.611376801510014,2.340621193997242,1.7787535231689786,1.3636983869890396,1.0640022929564767,0.9031527612543014,0.7977501571614704,0.7483792708493646,0.7117386313783837,0.6451476103432585,0.608704519158509,0.48382819220492157,0.3907169537889407,0.30767399586213495,0.22228883434082897
0.0,18.0,18.0,0.0,120.0,0.0,0.0,0.0,0.0,-107.0,0.0,-45.0,0.0,0.0,0.0,34.27253218749016,17.55503396713325,1.8831568176775544,0.9930501539529791,0.6462620995216264,0.42131747572212913,0.3820715617316446,0.22050622451330512,0.2559147221106954,0.20429224237681554,0.17533236655257037,0.17156443785267103,0.14187353054485605,0.08796496370749718,0.04490997573512269,0.04872351818618137,-0.007447944353757702,3.617387304224161,2.3529328220328276,1.7384539004018045,1.333622201737904,1.0267072508595299,0.8828103374016446,0.7782472552561623,0.7184799443764491,0.6523555703449605,0.6046203576187958,0.5812463626054872,0.4372186704781257,0.4209870845519475,0.31626317084091043,0.2668577601588946
0.0,19.0,19.0,0.0,120.0,0.0,0.0,0.0,0.0,-107.0,0.0,-45.0,0.0,0.0,0.0,34.27253218749016,17.55503396713325,1.8842050118506546,1.0154561177573398,0.7077026530194003,0.440771045606241,0.3402589678427973,0.24906926558803727,0.2033705609872736,0.19639224884463025,0.1201764768096386,0.2334660152826505,0.1277270108449278,0.13788022119182197,0.15870371561376412,0.14879993146062653,0.0937029622333104,3.656389454057961,2.432561740878729,1.7395407935962741,1.3367087773833033,1.0316311797029512,0.8113759488192488,0.7584301570733128,0.6467299038168789,0.649696708479135,0.5585252621919568,0.511755567774524,0.418316447062572,0.38478671642390466,0.3156344149282485,0.21413865367238663
0.0,20.0,20.0,0.0,120.0,0.0,0.0,0.0,0.0,-107.0,0.0,-45.0,0.0,0.0,0.0,34.27253218749016,17.55503396713325,1.8973169926325888,1.0110433050987042,0.7526883142401584,0.5171363164114923,0.3323271324128531,0.26855146420576814,0.21374769867789178,0.20904959706211887,0.18404330551408327,0.08791517994687212,0.14737089961728037,0.04253423003129021,0.0741760036325814,0.07263880164540329,0.027476290297327562,3.733585126150889,2.433576644226283,1.8347912618770068,1.3673711618572777,1.0008182580950769,0.8165660401929504,0.6974613813836643,0.6075692472863404,0.5671527210360318,0.5698490252248976,0.46152398627993524,0.4073303810778179,0.37783788218242026,0.2776293165886937,0.24868119374085804
0.0,21.0,21.0,0.0,120.0,0.0,0.0,0.0,0.0,-107.0,0.0,-45.0,0.0,0.0,0.0,34.27253218749016,17.55503396713325,1.9357573426152068,1.0497768709229822,0.8128855791885449,0.42027282940198896,0.3135682786821487,0.19084423229115666,0.17291603091059846,0.13139073678947005,0.13095022093556374,0.1281059067540193,0.10290000058061033,0.05040745213891153,0.061003044157746635,0.048449203964921736,0.026828498700309546,3.763676292662598,2.441050888421604,1.8591849918986363,1.3271817934174803,0.9852189620622759,0.7918804142256708,0.6945872545840417,0.5835492876450493,0.5780684943534395,0.5249421591629265,0.4510584824809437,0.4132479236831377,0.35099554630437496,0.2634032890108792,0.17887880817463295
0.0,22.0,22.0,0.0,120.0,0.0,0.0,0.0,0.0,-107.0,0.0,-45.0,0.0,0.0,0.0,34.27253218749016,17.55503396713325,1.976425528316621,1.0904468227423598,0.6353600670443749,0.502420028933245,0.3163833044914433,0.21467132630907323,0.1294337431340337,0.16385398163213857,0.11133645238708235,0.20918458966234288,0.11531484684534171,0.12746421899486357,0.060408610642992334,0.06910731443559776,0.03521712934689667,3.832931313330235,2.466536345541135,1.864515019193492,1.4075876064427018,0.9600383506173394,0.7489808334871839,0.6494139073510715,0.5961143798518622,0.5237762947423596,0.4896154409345013,0.4139062501311898,0.38150413547049783,0.30172449114206057,0.2817818362949018,0.2376436557423024
0.0,23.0,23.0,0.0,120.0,0.0,0.0,0.0,0.0,-107.0,0.0,-45.0,0.0,0.0,0.0,34.27253218749016,17.55503396713325,1.9841275157818499,1.0215567792513822,0.7137104967399109,0.4118979821641743,0.30639479136458975,0.17120211029931373,0.1990078936976849,0.22276305264741145,0.08955251574447434,0.07055610315653296,0.04119665249802751,0.027425377486607894,0.07412633273714658,0.11752765508189009,0.06380146243964382,3.856803525311433,2.488372462409982,1.8876954443681426,1.4336302330835013,1.0020487560786409,0.7249391586661836,0.6458146093396548,0.5360955915107206,0.48067670216039987,0.439254378728468,0.40669381902357177,0.345964819979745,0.3228528311092186,0.24325262072714912,0.23419576928475305
0.0,24.0,24.0,0.0,120.0,0.0,0.0,0.0,0.0,-107.0,0.0,-45.0,0.0,0.0,0.0,34.27253218749016,17.55503396713325,2.0294424859066393,1.0731136606377665,0.7634630075509542,0.4958099293978826,0.26182624827314177,0.1886123829045315,0.1735522141208636,0.1600648991596003,0.14332580777205714,0.15775292767455848,0.10499777658736434,0.12371089564317121,0.03710588139261156,0.0885536591076449,0.07428649745805738,3.9468632887315374,2.559327213322413,1.9134878163199704,1.434292088980352,0.9815650215887213,0.778907318796696,0.5699996576761277,0.5072939964873635,0.4807374277905,0.4637600906139958,0.3473722039717081,0.35320863057450735,0.2970942416311192,0.24302241862455298,0.1971071649972665
0.0,25.0,25.0,0.0,120.0,0.0,0.0,0.0,0.0,-107.0,0.0,-45.0,0.0,0.0,0.0,34.27253218749016,17.55503396713325,2.008735366894368,1.1136529741081007,0.716378908498923,0.5052886767843235,0.2989173323239695,0.1626503966517489,0.14748833185603277,0.10669686243908001,0.1144850047549032,0.13624462657012532,0.10650426027514047,0.08729902919379434,0.03205789585425317,0.07815177120501944,0.040214629735513124,3.908100670332671,2.5493758029457965,1.9050440795924022,1.3992572311085976,0.9823953555796495,0.7357500315964958,0.5656551475112522,0.5377176788749698,0.42052324254310874,0.4332551694864105,0.34556845916122747,0.3590902169956312,0.2640117190969987,0.2379226608360603,0.1689209348898436
0.0,26.0,26.0,0.0,120.0,0.0,0.0,0.0,0.0,-107.0,0.0,-45.0,0.0,0.0,0.0,34.27253218749016,17.55503396713325,2.060976229674868,1.1080378897417773,0.7320377496822498,0.49392133282571615,0.27422259261912946,0.29562025415076876,0.134722878837503,0.1611415714090147,0.20778553591113758,0.10298268466577713,0.1024353826771854,0.08215349553391166,0.0966843993758567,0.08331535818121302,0.00044899018106109995,4.004027858472006,2.5818782424141373,1.9585930931494497,1.4685644672900113,0.978696219763204,0.7334768410257816,0.5600139582219533,0.500237962987667,0.4557219968051683,0.3983092811120923,0.38907383955614533,0.3384455971345239,0.259798423853821,0.23843244359882515,0.1826306836750915
0.0,27.0,27.0,0.0,120.0,0.0,0.0,0.0,0.0,-107.0,0.0,-45.0,0.0,0.0,0.0,34.27253218749016,17.55503396713325,2.0605420419541107,1.1829437201365471,0.67688578967482,0.5224476844101223,0.3697274959506633,0.1958774421241292,0.12343257216308573,0.09778176301467617,0.10360397923440158,0.05536773583335629,0.027058069998494375,0.11865973476408184,0.04721099024257799,0.04505535331062544,0.0028404334567093785,4.038180319530912,2.582805720263364,1.9779808368436285,1.4901547824020904,1.002021854472062,0.6999818770235048,0.5375172347919348,0.47346354102800264,0.3930587929674879,0.37457383197299193,0.33322203863498184,0.2917287038149843,0.2717582916416284,0.21822974757445626,0.14036359643201565
0.0,28.0,28.0,0.0,120.0,0.0,0.0,0.0,0.0,-107.0,0.0,-45.0,0.0,0.0,0.0,34.27253218749016,17.55503396713325,2.196312239623117,1.1337262148775644,0.7229573164277985,0.42734648676494363,0.28175053295145475,0.21870956059917396,0.11029171761713538,0.10865311115668354,0.05099955685812931,0.04712016970381321,0.07792264955492467,0.0005665515547928351,0.04613894778636068,-0.0014997350434678494,-0.010311247402837696,4.043194044225162,2.6703077609546426,1.9774885051741726,1.4724650403015973,1.007563321727015,0.7182228499060418,0.5211975582152444,0.4516565980133051,0.41482781318297185,0.3883862112208578,0.3433332690450993,0.2939626772800035,0.24730697610077304,0.18873400802097356,0.16627155616002268
0.0,29.0,29.0,0.0,120.0,0.0,0.0,0.0,0.0,-107.0,0.0,-45.0,0.0,0.0,0.0,34.27253218749016,17.55503396713325,2.2057569089246862,1.1624685152891159,0.7398756784886314,0.5146578319854308,0.2743695441361961,0.17992263611534284,0.08358869959184684,0.11775237885384637,0.10723247030348246,0.08136813577285344,0.15694413755255437,0.025101329667960325,0.03195178138524843,0.07906184195046653,-0.003414752533720266,4.180203213481258,2.636450673601035,2.0466940043807105,1.4544439295400293,1.025714962707572,0.7229708553490923,0.5313927891529173,0.41672261580493647,0.3605571518857534,0.37626685497414003,0.2852610627581158,0.32999464986734756,0.2871628164141982,0.20691864249989997,0.16842305405465147
0.0,30.0,30.0,0.0,120.0,0.0,0.0,0.0,0.0,-107.0,0.0,-45.0,0.0,0.0,0.0,34.27253218749016,17.55503396713325,2.2055748492253207,1.1672510245459609,0.8624007975890473,0.5008730439298003,0.31919814894627985,0.12959931822203738,0.12008289347731797,0.11773205321786377,0.071741184716594,0.07188459654365391,0.052074839766211495,-2.8471800927583335e-05,0.07384048797931497,-0.02273424555584995,0.007444985822804503,4.1217695630539,2.6659046211274178,2.024114317081056,1.4883679281238662,1.0291854780102088,0.6778999798571552,0.47195881086973834,0.4326148838365151,0.38050315008494545,0.34314278894072164,0.28681636826242657,0.24950134889906134,0.21774184627437174,0.2056723514878757,0.1406022387027096
0.0,31.0,31.0,0.0,120.0,0.0,0.0,0.0,0.0,-107.0,0.0,-45.0,0.0,0.0,0.0,34.27253218749016,17.55503396713325,2.177974060964822,1.155411208727713,0.702535865921646,0.538458723066971,0.3175157066150008,0.14365827511460905,0.15534757585562392,0.06981382280403478,0.07493727633023003,0.07625726087914805,0.11340147556338866,0.06694342944981042,0.04377243481711898,-0.010856531500062008,-0.03704887064504396,4.2109229714431216,2.711679903551275,2.0573711749235044,1.5189966460652866,1.0228023873343643,0.6779650465761371,0.5232129334362768,0.43298314626754947,0.3995275523653258,0.343290946798762,0.30443160934476415,0.25021794702432176,0.234230494384289,0.1791378473182198,0.1488155328027529
0.0,32.0,32.0,0.0,120.0,0.0,0.0,0.0,0.0,-107.0,0.0,-45.0,0.0,0.0,0.0,34.27253218749016,17.55503396713325,2.2162711146794334,1.1797176729926633,0.7857297253442945,0.45484109701969516,0.36666052483836714,0.16874044329011137,0.1560138212968057,0.055834669409339795,0.1040011686965364,0.07218063606975789,0.004429324847576646,0.07363552442385338,0.026449840821692223,-0.004498363483430287,-0.0006246377683414156,4.21935467507272,2.7484592022514893,2.069445175672717,1.5374997859207065,1.0486710112049915,0.7121022028697245,0.5236854981940422,0.39884475028700955,0.3041231314305324,0.32501241642461004,0.30071636276381075,0.26381027945878355,0.1931050632301689,0.1545719748346604,0.15748819437273998
0.0,33.0,33.0,0.0,120.0,0.0,0.0,0.0,0.0,-107.0,0.0,-45.0,0.0,0.0,0.0,34.27253218749016,17.55503396713325,2.307567098454391,1.158426275666311,0.8542355337531667,0.5166438698721915,0.2706601401751474,0.26214191872787845,0.10970086621942496,0.11001772490131341,0.0607215348216691,0.1359138149837152,0.006381206924509143,0.10506223775893139,0.07198489084433535,0.09090131401752477,0.06337482821723003,4.321802723232082,2.812264828643286,2.122644043982672,1.5451896598055825,1.0679055345418476,0.7272010143713846,0.47887132260687665,0.36796347583070177,0.29687780180888573,0.3293223471201949,0.2855263899792192,0.23682213920227632,0.20795960227561947,0.14260648942636756,0.13900346116885998
0.0,34.0,34.0,0.0,120.0,0.0,0.0,0.0,0.0,-107.0,0.0,-45.0,0.0,0.0,0.0,34.27253218749016,17.55503396713325,2.2668662691527524,1.2758708312747777,0.8989306729376747,0.530917765296562,0.3035977877590752,0.16758367216680387,0.11333389753191052,0.10521488009147464,0.06961130686729781,0.09122948304525492,0.0430912280044376,0.0186351912325913,0.03150032457653483,0.08955417039731622,-0.013066577759105906,4.3259731472272795,2.8218605299494555,2.115718878941768,1.6105592743382215,1.069982854600361,0.7189871726594986,0.47554130875655287,0.41942197987102714,0.3269624685859952,0.28933339872560987,0.2550027286002162,0.24037170748987885,0.2130371415040405,0.15759979521471043,0.11018508700007604
0.0,35.0,35.0,0.0,120.0,0.0,0.0,0.0,0.0,-107.0,0.0,-45.0,0.0,0.0,0.0,34.27253218749016,17.55503396713325,2.302576133057583,1.2570821599145132,0.8375719626029295,0.5704511557472596,0.32928746124850006,0.14807196304208065,0.1299850398977642,0.13496454532502775,0.11508359992953042,0.09871475470558297,0.04421079240902835,-0.002116661899955463,0.03209532315773056,0.008596582980493497,0.015877133459871195,4.326662453182671,2.8280424762006025,2.121696257711577,1.5687597592553082,1.0703408970008008,0.6673582600187147,0.4684651891313626,0.3560795638787786,0.322405080878345,0.2678091251493265,0.24406215865882405,0.1869289438990782,0.2572202881392445,0.1593857964049561,0.11620899687466504
0.0,36.0,36.0,0.0,120.0,0.0,0.0,0.0,0.0,-107.0,0.0,-45.0,0.0,0.0,0.0,34.27253218749016,17.55503396713325,2.346136066269183,1.2307793565693548,0.7810995095927902,0.5405257696092759,0.335040246025422,0.18983384969097086,0.13070259766651943,0.1108060307366612,0.10958369742871049,0.0652504320714008,0.06751152854173277,0.05211263413818886,0.04994077105715208,0.10620359472191296,0.03673476793757455,4.440143643173887,2.857587215933537,2.1602004201188407,1.5703636219228259,1.0633821960216256,0.7428898050246822,0.4586129846350777,0.3669983374622351,0.2752301096548132,0.2423606206138674,0.2311088730804613,0.2169900586508906,0.20909596335802078,0.16435372159215084,0.12905264789270662
0.0,37.0,37.0,0.0,120.0,0.0,0.0,0.0,0.0,-107.0,0.0,-45.0,0.0,0.0,0.0,34.27253218749016,17.55503396713325,2.410391805182293,1.304586198018696,0.889983165968724,0.5574186958581325,0.3469126223270368,0.13776676602288204,0.1511886932785545,0.041248557600203205,0.02808013102293016,0.06251057059886012,0.09899075693191117,0.07476848367949943,0.06596533677240138,-0.002092621332571716,0.10993400726464789,4.477308530225133,2.829075746861895,2.141283851004873,1.619589407711368,1.0457742150245724,0.6940317533009305,0.45497652838790076,0.31889953732010967,0.29217515725971277,0.25884261865450703,0.2328868891397722,0.18958465514992975,0.1799670659956623,0.17140887711923633,0.11911118437870587
0.0,38.0,38.0,0.0,120.0,0.0,0.0,0.0,0.0,-107.0,0.0,-45.0,0.0,0.0,0.0,34.27253218749016,17.55503396713325,2.50384820948271,1.280805255083241,0.8927035843717751,0.545071435366644,0.3478165130252843,0.0832770731346858,0.20000958734052143,0.016247887025537817,0.06787981931054196,0.10220840098135003,0.04379381137362428,-0.02015837522790434,0.005094127227924544,0.05110675056795139,0.01799539101093929,4.4984757982121675,2.9751993051873704,2.2371249428222457,1.6243250675177159,1.0775740577376376,0.6984079056261892,0.4488529874960261,0.3348595571516659,0.2595046654849901,0.26511650714370677,0.17790203723955614,0.2121300238937468,0.16943604727835448,0.1469035378777514,0.12507438772616047
0.0,39.0,39.0,0.0,120.0,0.0,0.0,0.0,0.0,-107.0,0.0,-45.0,0.0,0.0,0.0,34.27253218749016,17.55503396713325,2.440729635064401,1.3669630460180648,0.8464534964232955,0.5914769951835013,0.34095786572221465,0.1289034363127847,0.12119130908571775,0.0396054819702322,0.08555879392927115,0.08379314609770289,0.021548250952764962,0.035402921484963414,0.05977962133663159,0.0270991671543786,0.022864898396819735,4.54055270974132,2.9440647762479673,2.2510595796095245,1.6402998793241712,1.1079972399500686,0.6992133631983428,0.4440774355325976,0.3269512900874228,0.30254165836185076,0.24677656270945914,0.24662495618102862,0.1909153387837863,0.18197141973111397,0.13742517177054653,0.07367270452737391
0.0,40.0,40.0,0.0,120.0,0.0,0.0,0.0,0.0,-107.0,0.0,-45.0,0.0,0.0,0.0,34.27253218749016,17.55503396713325,2.477304215455842,1.3194546864699146,0.9062455287194412,0.5822583721055529,0.3045158571736538,0.21775529401409735,0.18183945420235223,0.0922418437185216,0.006728140818973577,0.08708483685725255,0.04553548141854386,0.04283041404213232,0.07928591446151617,-0.0006401525550208259,0.054460237312958876,4.595705268918429,2.9553321935963486,2.2736950119147767,1.6455086664595184,1.1569165589253547,0.7371912516123451,0.4640406813593258,0.3200952120159019,0.2709669213583458,0.20668580201517037,0.209889930198223,0.17470308822483613,0.18667306414081852,0.12258063027687133,0.11757651318976572
0.0,41.0,41.0,0.0,120.0,0.0,0.0,0.0,0.0,-107.0,0.0,-45.0,0.0,0.0,0.0,34.27253218749016,17.55503396713325,2.5753864785848672,1.4086927312287074,0.9232016614373947,0.5384200268584868,0.31740847392664906,0.2319960856765617,0.11550939187152805,0.056974429500082864,0.04385468891434033,0.05348098623735513,0.0715044427310981,0.03618844118740244,0.009257356559844675,0.07766327454776506,0.025107861550523088,4.687687763807871,2.9959438545537522,2.2632526024412196,1.6471242479161894,1.1113721218320625,0.7470771051748969,0.4714804977735104,0.3081404723381299,0.2567403179869918,0.18609152315451952,0.206946725056584,0.1563785135622734,0.18650928607869235,0.14823948748893948,0.108051846807193
0.0,42.0,42.0,0.0,120.0,0.0,0.0,0.0,0.0,-107.0,0.0,-45.0,0.0,0.0,0.0,34.27253218749016,17.55503396713325,2.585775700856194,1.324497493303706,0.9732722495066399,0.5584606733188067,0.33433247307234204,0.2045553769847569,0.042793538933074866,0.03614674595103243,0.08656336435062115,0.06545556459552225,0.05359083441363906,-0.00980060393994512,-0.014636264357661674,0.08832670289251653,0.039155923739546,4.721739607729691,3.025363162055143,2.2906218755436925,1.641108844951791,1.127669922846484,0.745417881008269,0.4348829660366247,0.31406117815871454,0.21865656560387153,0.2110477946536175,0.18465196868662667,0.1904340151422547,0.15479884755638762,0.1589947779094968,0.12706749121611138
0.0,43.0,43.0,0.0,120.0,0.0,0.0,0.0,0.0,-107.0,0.0,-45.0,0.0,0.0,0.0,34.27253218749016,17.55503396713325,2.659141978910623,1.3159593551354802,0.9220374743871406,0.5699049315013561,0.3854800013765075,0.19162406697410536,0.15337183954655914,0.06804274328383092,0.07451218084651465,0.02997839699241768,0.01600388858105922,0.04644365076797968,0.050162553674945876,0.049578967440445286,0.018908879964065255,4.707871124036661,2.982112230797494,2.2565288600426707,1.7033712504830019,1.2018433712426682,0.7481869917446983,0.4423936333897827,0.32394285507027554,0.21229372595591098,0.1981105570700629,0.16297407068114872,0.16996029801857118,0.12999824841134272,0.10172941416172682,0.10702462200163214
0.0,44.0,44.0,0.0,120.0,0.0,0.0,0.0,0.0,-107.0,0.0,-45.0,0.0,0.0,0.0,34.27253218749016,17.55503396713325,2.6052346339297037,1.3913498365683739,0.9255251664530221,0.6143818659862533,0.28639838278539775,0.16151679956027504,0.1651917046354465,0.046513186560083505,0.05239526617537363,0.07218891577275266,0.1027724552016869,0.007280169853466481,0.05777808034253401,-0.05458826835150419,-0.04770954411000006,4.77440494025292,3.1071706030185005,2.3229465791360298,1.700476308898998,1.1288114445339197,0.7434429064894884,0.44208146615557176,0.32738298581027137,0.24738697443407803,0.25142898470270486,0.19933507786418514,0.1675649443684945,0.15212617083491295,0.11186749604045033,0.12284941952657914
0.0,45.0,45.0,0.0,120.0,0.0,0.0,0.0,0.0,-107.0,0.0,-45.0,0.0,0.0,0.0,34.27253218749016,17.55503396713325,2.7034247316208795,1.347424895658912,0.8886614983797584,0.5810718622631179,0.40670245297780167,0.1869826139714005,0.13754128020379391,0.030451736441126247,0.05862017810129699,0.032610384466116,0.01692400194361651,0.07057918011429185,0.05578803029210527,-0.042556141060772434,-0.021456315560693384,4.856333787788784,3.1167467202150045,2.361539074987125,1.7428789392118431,1.202246190875262,0.7671546798091834,0.4469100320001842,0.33173744509421066,0.22072584184358962,0.20129744547208198,0.1687028177508544,0.15147106234377572,0.16175969417878608,0.13484731805572533,0.07732286210020728
0.0,46.0,46.0,0.0,120.0,0.0,0.0,0.0,0.0,-107.0,0.0,-45.0,0.0,0.0,0.0,34.27253218749016,17.55503396713325,2.741591466231428,1.4724516097511597,0.8924323153342993,0.6002520484123169,0.26840508662985085,0.17998077129904805,0.06504479254492035,0.06402381153394811,0.07816258056231944,0.05575427656091983,0.048894582434142984,0.046934649700987874,-0.06633733409484292,0.0019997591510317464,-0.045708204827490544,4.88919519709693,3.1329637879246452,2.3752978126228013,1.7205147407466215,1.185819514208327,0.7412521607594086,0.43990463293268645,0.33445772672743157,0.24036347435183636,0.23044432913906515,0.1767830376126865,0.12124128834421552,0.1278838305609838,0.13267147830972262,0.10037087254614148
0.0,47.0,47.0,0.0,120.0,0.0,0.0,0.0,0.0,-107.0,0.0,-45.0,0.0,0.0,0.0,34.27253218749016,17.55503396713325,2.7962737320433204,1.3770614679029634,0.9390326971321785,0.6284726371623574,0.4088535164444748,0.22128260665147573,0.10186196748640973,0.10200390395087179,0.058853860535164754,0.07768736647387212,-0.02151594983020274,0.027946103905299925,0.04983483912761085,0.028958596403279142,0.0910204575921093,4.949622889132803,3.1821553945312937,2.404405854746095,1.7507272063150838,1.2097946253654135,0.7731820618046076,0.46939659652909105,0.3116950843227052,0.20546492805905037,0.16492521283104228,0.1602586320829849,0.15370088194351342,0.13842605671176347,0.1215021686523845,0.10126255909737793
0.0,48.0,48.0,0.0,120.0,0.0,0.0,0.0,0.0,-107.0,0.0,-45.0,0.0,0.0,0.0,34.27253218749016,17.55503396713325,2.839449706947001,1.428641460880968,0.9904221805707479,0.6816559553228339,0.37434326001328644,0.21565711229618395,0.13183903969058308,0.04391800422032159,0.03553093318022167,0.004402438852566675,0.02989717466143154,0.06267751586110665,0.030630586137675456,0.014528765421660882,0.00836444704241308,5.0154744647901595,3.1750030830919282,2.414624078611308,1.7785472236012165,1.158480164811311,0.7461907584444384,0.5169527774107332,0.30612672503430993,0.22076766172009604,0.1814434477013805,0.1499054239140584,0.15826975011996433,0.12551172973023952,0.08689770358136263,0.06014699642356843
0.0,49.0,49.0,0.0,120.0,0.0,0.0,0.0,0.0,-107.0,0.0,-45.0,0.0,0.0,0.0,34.27253218749016,17.55503396713325,2.901069784247897,1.3737128518101815,0.9451765889076607,0.645245308760202,0.4336851635289069,0.26038073909615894,0.12786681728959814,0.03295452593161405,0.02188409643954807,0.022136690913383678,0.02029263114097788,-0.005186702172609539,0.03968987476101421,0.02325620862485985,-0.0028849954913864953,5.046941707458169,3.1958824278870304,2.429078071670252,1.7789044481627245,1.2098827201125693,0.7595628609422131,0.5007897056584357,0.28103242905638803,0.20698034039875388,0.20260333853090892,0.16219112005440037,0.1407611328817326,0.06128307895986929,0.08158611468158265,0.11558440097801255
0.0,50.0,50.0,0.0,120.0,0.0,0.0,0.0,0.0,-107.0,0.0,-45.0,0.0,0.0,0.0,34.27253218749016,17.55503396713325,2.8640677570559103,1.4305717945482883,0.988045204802078,0.6424428874913066,0.3663184210543788,0.1832400534967792,0.15946539965710171,0.09197796633461477,0.04347665583926318,-0.0006814401664755609,-0.02327955807113605,0.04874482289034793,0.10209358857637839,-0.007785368671670378,0.024099523507458788,5.111090322198504,3.2875239753691017,2.449725320482941,1.7706619073465832,1.216076038538479,0.7786371829779721,0.4574163790216408,0.28343933499001256,0.2252886672192891,0.17479979165429538,0.14462360790364803,0.1062011610646769,0.10113260171893795,0.06798073039513115,0.0982055052039554
0.0,51.0,51.0,0.0,120.0,0.0,0.0,0.0,0.0,-107.0,0.0,-45.0,0.0,0.0,0.0,34.27253218749016,17.55503396713325,2.9836375402584445,1.477375132025468,1.0015228746515745,0.6481912166633478,0.4130736445363826,0.19723708848288865,0.1378557562886685,0.029235858295787887,0.031539550387176415,0.047021630995358284,0.06215374859159413,0.07351710891975505,0.01807369662710372,0.015776320984278433,-0.03844449071023196,5.1141187505754955,3.314326097859139,2.459169444792071,1.8296398101266285,1.2075483404614924,0.7646576986371119,0.5352392464593152,0.3041456850331197,0.19361307181487064,0.12575641076177746,0.13952117248835633,0.18215065462739416,0.09491821480177424,0.07438787611329797,0.06970778066836057
0.0,52.0,52.0,0.0,120.0,0.0,0.0,0.0,0.0,-107.0,0.0,-45.0,0.0,0.0,0.0,34.27253218749016,17.55503396713325,3.033077631063629,1.538801735460293,0.9696588161912771,0.5728980480015242,0.3676149124136046,0.2149094386114688,0.09130901685890924,0.035956761505964344,0.03438941903471418,0.0022027647628117403,0.007060585346167127,0.013104309775823355,0.04683318132161911,0.009524861901359687,-0.013994181400938447,5.160413330226665,3.3302399171685084,2.520146696916188,1.8373213102172472,1.17947294343527,0.8176454302445975,0.4869591176220644,0.28479968934791156,0.20352351170693384,0.1600049232850323,0.1666740953281107,0.13816133988515042,0.0958504807135832,0.09716481202415624,0.07392710557999768
0.0,53.0,53.0,0.0,120.0,0.0,0.0,0.0,0.0,-107.0,0.0,-45.0,0.0,0.0,0.0,34.27253218749016,17.55503396713325,2.964212290025643,1.5332279322010496,1.0136694821836871,0.6498818933270974,0.408596078570455,0.16523415023022847,0.1196468207102571,0.06991211714422504,0.06477147985341836,0.06876827182722635,0.059248937812676955,-0.022316964214074465,-0.01122030828381252,0.04751913893159958,-0.0036645092969922292,5.267086510416568,3.326937075646381,2.5037852608487126,1.8382563652680712,1.2651792862546185,0.8117105433545733,0.48038618316537385,0.2672040305421733,0.19721927582189494,0.12976108029681574,0.1612344656280366,0.08242271734464315,0.08999753067919487,0.09828875092278123,0.0832044307536075
0.0,54.0,54.0,0.0,120.0,0.0,0.0,0.0,0.0,-107.0,0.0,-45.0,0.0,0.0,0.0,34.27253218749016,17.55503396713325,3.1229419684409816,1.4913726800878917,1.0403739909407193,0.7209665754645493,0.38770431776382697,0.27615425768995794,0.12181785944685619,0.05206104819057542,0.018418351231780688,0.01658640427649633,0.031114267414967544,-0.00474784974532334,0.03695806258090491,-0.003208498770178295,0.009841560554583571,5.2897158977870955,3.395372956377919,2.573987594909893,1.855504055003477,1.2855871213574834,0.7876513133743077,0.47486595817513494,0.2713228569033185,0.18680047907260747,0.18777517075097597,0.11457770931386564,0.06881054040218744,0.08702940310093586,0.0715304302345375,0.06253466200211141
0.0,55.0,55.0,0.0,120.0,0.0,0.0,0.0,0.0,-107.0,0.0,-45.0,0.0,0.0,0.0,34.27253218749016,17.55503396713325,3.1239978743267125,1.552385040976474,1.0336848225525643,0.6453163320474825,0.34656516871254445,0.17136596467723067,0.09425769179808419,0.06897191826987803,-0.04122045354977912,0.032844027819305205,0.08619240929778485,0.07856845701692229,0.01431998790464407,0.08136245485567578,0.0050730427519031125,5.3615613526756105,3.4425604292727607,2.551144308905843,1.81651132000839,1.2972700237273922,0.7760980534314526,0.5221125637216342,0.2801730283584042,0.23032760249818296,0.14422314634339917,0.1220473567748455,0.10241155845361744,0.08376149905859111,0.05007785510797488,0.05944035644554839
0.0,56.0,56.0,0.0,120.0,0.0,0.0,0.0,0.0,-107.0,0.0,-45.0,0.0,0.0,0.0,34.27253218749016,17.55503396713325,3.0780943611343536,1.554012919189398,1.0447797984907143,0.7131842103379111,0.39387580030957503,0.11564955461113906,0.06824243419361531,0.0851978852478378,0.023343797153227434,0.02488331680100666,-0.021933057697262837,0.08438267769183441,0.03460107039409466,0.10709480678446405,0.011169467955004588,5.41866254214752,3.4334857813841886,2.559454613172955,1.9156861547745654,1.3170564447478088,0.786538350408071,0.5229200180632324,0.30337925384232817,0.20216408578451267,0.1240141620312247,0.09809432688631392,0.11630738219963153,0.08863134566471143,0.08980564858240328,0.0641960735061011
0.0,57.0,57.0,0.0,120.0,0.0,0.0,0.0,0.0,-107.0,0.0,-45.0,0.0,0.0,0.0,34.27253218749016,17.55503396713325,3.1902657569348234,1.6530840859243083,1.004015076031369,0.6270958169323967,0.39918568753841216,0.23038306132148778,0.04962111534865386,0.06859292449070409,0.07961020759915705,0.10109075060488207,0.01629082080234236,0.04469765117844174,0.034774886611578716,-0.04016796549014379,0.06113607535175418,5.427784373165526,3.4957522166152932,2.6232236207216415,1.8772175321514373,1.3252440123065188,0.8478698899054952,0.4741107808251833,0.26914495401889216,0.21108388447078497,0.11914550649615366,0.08703707714046555,0.14652471736795214,0.10051011340801208,0.0859092617379259,0.07429655248455568
0.0,58.0,58.0,0.0,120.0,0.0,0.0,0.0,0.0,-107.0,0.0,-45.0,0.0,0.0,0.0,34.27253218749016,17.55503396713325,3.215969718391228,1.7007963692329684,1.1134029595787256,0.7518751385893538,0.43978310045340796,0.24832672240111356,0.06822414000493526,0.07028253069986974,0.07514443326341237,0.008932523055034898,0.049728918141064574,0.05273525226643237,-0.03402307078929896,-0.015287793373124197,-0.016909039353041562,5.505936969538457,3.510700635154475,2.6117690495724455,1.9054428617300792,1.2955811388253018,0.851646065686207,0.4837283559478897,0.30426813892143045,0.21831723225327418,0.1496912420026946,0.13732762650444827,0.09342195861047228,0.10957896835733462,0.04404195521364557,0.11379163338288845
0.0,59.0,59.0,0.0,120.0,0.0,0.0,0.0,0.0,-107.0,0.0,-45.0,0.0,0.0,0.0,34.27253218749016,17.55503396713325,3.262137295331863,1.6922713405627694,1.0509702790206814,0.7344929559920582,0.45165538930031923,0.13937601523538742,0.14054172886598573,0.0422207213913487,-0.0075800161207796105,0.03596271319819721,0.04395882361088789,-0.024288649495190943,0.06630990598277764,0.012762405973325047,-0.0020858759568609248,5.600608079621298,3.5702414206056794,2.636696563481051,1.982589041648893,1.3128366204032933,0.8075488550206636,0.5274582230504203,0.3009771938679133,0.19590602453474878,0.12516682009663285,0.0849481170011588,0.14073037150530682,0.11171815721949446,0.06194168074970739,0.0678376069297855
0.0,60.0,60.0,0.0,120.0,0.0,0.0,0.0,0.0,-107.0,0.0,-45.0,0.0,0.0,0.0,34.27253218749016,17.55503396713325,3.352738068795335,1.687922990501876,1.1568073707485191,0.7069588666077289,0.3856106705875959,0.22875748920642022,0.07825713723383099,0.10439027766658243,0.014603040678829553,-0.012190661378438588,0.045484782952935725,0.01162256832543004,-0.004671906769353362,-0.00145004675191783,0.03981061925440196,5.659920734974786,3.6125169817382345,2.6551542450898613,1.9688596982887963,1.3247752340351062,0.8315923816913904,0.5104888409365873,0.259487182300456,0.20656632503403569,0.14985816328533122,0.1130124926521895,0.08678386308822741,0.08965722042512299,0.06657302515542969,0.08604823971771766
0.0,61.0,61.0,0.0,120.0,0.0,0.0,0.0,0.0,-107.0,0.0,-45.0,0.0,0.0,0.0,34.27253218749016,17.55503396713325,3.4408246043303277,1.6923675129495275,1.0912817940900397,0.6991967410543813,0.40664481195247343,0.23025032988455996,0.08110004444090659,0.056955390094958876,0.04005398945995792,0.015110935586894659,0.00500850610721151,-0.048878629036708636,0.04400885273177413,-0.08547988444245043,-0.01735825165729011,5.678984729854896,3.6321258382311425,2.714142133443583,1.9717240336299962,1.3570284958098133,0.842145831607578,0.4921328927996204,0.28914712778102547,0.1829505199255112,0.1307432643919392,0.10838843056419019,0.1311523499308856,0.09875944166538256,0.046252817333793314,0.0422102052775088
0.0,62.0,62.0,0.0,120.0,0.0,0.0,0.0,0.0,-107.0,0.0,-45.0,0.0,0.0,0.0,34.27253218749016,17.55503396713325,3.485743960009651,1.7708672384583382,1.11539258144896,0.741086552046282,0.38196638699948304,0.23306313800762316,0.11940171621755188,0.1271753156935191,0.04286681054395554,0.018400065253099694,0.06992017422178448,-0.0047950748004854694,0.03597801071145174,-0.013707651243964628,0.024437271217331948,5.746532510993288,3.6627501970595904,2.7135098401185624,1.9500221620836118,1.3556681358528306,0.8496475251986683,0.5115315256650014,0.2930663999407413,0.191996292353239,0.13526174720784948,0.09055183925053464,0.0782859344354411,0.05712662447148845,0.07154490424729094,0.0804542664701908
0.0,63.0,63.0,0.0,120.0,0.0,0.0,0.0,0.0,-107.0,0.0,-45.0,0.0,0.0,0.0,34.27253218749016,17.55503396713325,3.5255553364382037,1.7881236002648333,1.1723592823767366,0.7256891357562576,0.4561697679577495,0.2316151179329967,0.11729431930490644,0.08413119286405142,0.043364090250740325,-0.01722727103298372,0.05562925840358268,-0.02221523414458066,-0.010111263451470247,0.017733750694126714,0.011939047834224493,5.746840622272454,3.6808453379561676,2.7573876273452247,2.000183653613024,1.281396215071613,0.8409642213141933,0.5178836882234452,0.28907563913799283,0.17559641445374496,0.16547227691855407,0.10430059612581216,0.11445460101848423,0.0782083902716306,0.07263631149115528,0.03911946294207559
0.0,64.0,64.0,0.0,120.0,0.0,0.0,0.0,0.0,-107.0,0.0,-45.0,0.0,0.0,0.0,34.27253218749016,17.55503396713325,3.52345021256119,1.8085755544457198,1.0984002486987081,0.6802988563669077,0.45216795837210016,0.1490100615574776,0.11212764626850996,0.035318155765790615,0.04666955902130806,0.06448565647710591,0.025579812824141436,-0.046789227966523905,-0.007170322845128287,0.025230801053057146,-0.005673258392193232,5.833337365436213,3.742999223879381,2.7720607512398985,2.0054790376334855,1.3808892477933625,0.8963859613585894,0.5325546745637155,0.29014890276231997,0.19287190755867284,0.10628621606077569,0.10827870317198399,0.08338927780019341,0.06813663148015059,0.04722270880155954,0.06879124277867915
0.0,65.0,65.0,0.0,120.0,0.0,0.0,0.0,0.0,-107.0,0.0,-45.0,0.0,0.0,0.0,34.27253218749016,17.55503396713325,3.568645456557352,1.7871288741476163,1.1469110189507827,0.727690066750606,0.46347274331863986,0.28818810628955793,0.11482860844408053,0.09352082773469185,0.006234254318817155,0.047541137900928246,-0.056164759283099705,-0.03991528207458804,-0.029886341247969385,-0.0690450912761469,0.0022846519508909523,5.9361492942587235,3.756061427110526,2.8335097251604284,2.095946638921254,1.3727424667867716,0.8449152363394262,0.5059547566079285,0.29065959318751156,0.22035882671659462,0.10369184880858402,0.12710222393538106,0.07461881201818338,0.09813905414833533,0.0907707668574149,0.047043110208945645
0.0,66.0,66.0,0.0,120.0,0.0,0.0,0.0,0.0,-107.0,0.0,-45.0,0.0,0.0,0.0,34.27253218749016,17.55503396713325,3.6452359552862146,1.8082667645276445,1.170002607678956,0.7626385589938389,0.37310287644692003,0.23816159060343148,0.14018256463367815,0.09897937556879272,0.05395725484504198,0.06271201215059456,-0.07584544262706375,0.0324541463193315,0.05602987770956633,0.025614933766939168,0.027292615516958905,6.013203944170533,3.7204765331262406,2.8522675607834342,2.042771535688054,1.3542413490614922,0.883621942057592,0.5480955319452514,0.33175590332154464,0.21670671162014588,0.09428425775932753,0.07609280667419972,0.039451611826614365,0.062449876861487855,0.04957127352287373,0.04726948732129092
0.0,67.0,67.0,0.0,120.0,0.0,0.0,0.0,0.0,-107.0,0.0,-45.0,0.0,0.0,0.0,34.27253218749016,17.55503396713325,3.76321658548004,1.851572532876431,1.1072169029103052,0.7202701747012581,0.4138471341993783,0.22466672792658895,0.0948779743137882,0.0855760573544899,0.11486028735918472,0.06750054419727394,-0.016438800200099114,0.07469019112654647,0.03605301347378389,-0.021066183549623446,0.022809117271115894,6.070184687210661,3.7705087653421923,2.8465628725701384,2.0801232075618965,1.4100091084398205,0.912599621489284,0.5448046433609411,0.2930146933055533,0.1793735045381718,0.11418123715676817,0.041220548705902194,0.13547792639355644,0.07865057061031093,0.10680888940002124,0.04224973560350509
0.0,68.0,68.0,0.0,120.0,0.0,0.0,0.0,0.0,-107.0,0.0,-45.0,0.0,0.0,0.0,34.27253218749016,17.55503396713325,3.8220678512637085,1.8738983229310666,1.213776139896298,0.8272035158553231,0.44806005357292017,0.22301961734356568,0.14421736918446254,0.13099034309551086,0.03333718493126003,-0.014538927982221273,-0.038843830946575876,0.011762247149411698,0.028938117265128384,-0.0680063152146836,0.0008847456726970016,6.105092410088145,3.877598156230999,2.8685198156773355,2.096401465510916,1.3925714741923791,0.9204024858614831,0.5467957998258478,0.3234890082280569,0.17947164981633418,0.10838912841788576,0.10693910596537462,0.09738420190110614,0.0915411392528678,0.10514602547737303,0.04192243771448917
0.0,69.0,69.0,0.0,120.0,0.0,0.0,0.0,0.0,-107.0,0.0,-45.0,0.0,0.0,0.0,34.27253218749016,17.55503396713325,3.843039153206125,1.8780303207154014,1.1136802419775562,0.7473997755361182,0.4496455322971246,0.2242179510866858,0.12170522945404548,0.10801767878259881,0.1087493906337965,0.04448923179005204,0.05587973800824583,0.028221962814088418,-0.025631483520698172,0.018267450053477293,-0.02432790554166605,6.1725198975933155,3.869721487812406,2.865431030999538,2.1099698097454804,1.4438815031208951,0.930313617396642,0.5437988579897267,0.30758123189833386,0.16594710609462882,0.12305102557494124,0.09826134374315296,0.07401743469655513,0.07246930150357594,0.0581500914090494,0.06885396802289011
0.0,70.0,70.0,0.0,120.0,0.0,0.0,0.0,0.0,-107.0,0.0,-45.0,0.0,0.0,0.0,34.27253218749016,17.55503396713325,3.935373697808986,1.9048314687672545,1.1944046891931364,0.7667777611876269,0.4449056012570207,0.26914673609962386,0.23423708940203505,0.0814355796471139,0.0011513932513141055,-0.01062467859846786,0.03763749824451976,-0.03598869909546324,-0.02553510496327177,-0.057474186007102995,0.003900242545666595,6.2343754943146426,3.975060762967413,2.930525114989095,2.1373694925201696,1.3776628583437074,0.8762738094580212,0.5764585229102405,0.3203702498409581,0.17537446222221367,0.12931220653451372,0.10019848199176196,0.08415070440234856,0.05031913928043823,0.0576171128372814,-0.0040154209008989306
0.0,71.0,71.0,0.0,120.0,0.0,0.0,0.0,0.0,-107.0,0.0,-45.0,0.0,0.0,0.0,34.27253218749016,17.55503396713325,3.9817580642676216,1.966190561203508,1.260661476556688,0.7512065208905929,0.4334776885539184,0.23438804247784692,0.11153513912388495,0.004675476104441863,0.05784839082307833,0.010422051028350914,-0.0018977141540446815,0.07698639745092349,-0.051656925227201084,0.0064556143728988526,0.013254622826235414,6.218087808946777,3.9496429437072478,2.9389354756908928,2.1059097498713055,1.44365899792805,0.9214918174971154,0.5615486847746696,0.2949216390045228,0.20656413527929726,0.13147094860444897,0.08403280730726198,0.06866112340851241,0.08070381126015504,0.04198835318087502,0.0318067751502947
0.0,72.0,72.0,0.0,120.0,0.0,0.0,0.0,0.0,-107.0,0.0,-45.0,0.0,0.0,0.0,34.27253218749016,17.55503396713325,4.044628575000216,1.8873452693463484,1.2703324884009422,0.7440616673890502,0.4787363116312861,0.1895451594428441,0.10922213256889676,0.06688980809304967,0.012144959683887794,0.03414124778812401,0.02524281916938668,0.014564569272212795,0.035471212761859564,0.03378371818158044,-0.021362572449956187,6.395438758864915,3.977746490074207,2.94468948520961,2.13416916129642,1.4304411479762944,0.9129643205637209,0.5500961721373187,0.3356935612687987,0.1910024451489286,0.09068231615279143,0.06911958496498974,0.05854405020227882,0.04127370067188578,0.04307097308159237,0.04695623290841127
0.0,73.0,73.0,0.0,120.0,0.0,0.0,0.0,0.0,-107.0,0.0,-45.0,0.0,0.0,0.0,34.27253218749016,17.55503396713325,4.069537729542038,1.8924492672662454,1.2124705249525825,0.7705878927437579,0.4548447134128224,0.1837608785194563,0.17871904308110484,0.1080071013566852,0.03336824397262622,-0.020772303296933227,0.03586439079647005,-0.01202779698897127,0.030123653891604575,-0.0690341265699399,-0.0025952076724722493,6.42588438920809,4.012344027123519,3.0115178170733965,2.1556161804149263,1.429465148091971,0.9609167845766514,0.5619355289277145,0.3217444402217393,0.2130240304663456,0.1212818913956579,0.07412293313910223,0.04906996351629234,0.0784632714973822,0.06698295449622528,0.011485753815885243
0.0,74.0,74.0,0.0,120.0,0.0,0.0,0.0,0.0,-107.0,0.0,-45.0,0.0,0.0,0.0,34.27253218749016,17.55503396713325,4.132332183306382,1.99629329332924,1.3185125426389455,0.8414823833833732,0.45172351243395953,0.18228222800190946,0.17120200789525059,0.06903115787133042,0.02899512940984635,-0.0023655176803030926,0.016674275126990996,-0.02975337479504847,0.1019973395438345,-0.03701820669462993,0.01703634475869821,6.521936067225468,4.1387511798272145,3.087581323694847,2.1931033580936585,1.5018720722766108,0.9475495132588588,0.5713030275625678,0.3145310464940776,0.17129732250279103,0.11222244460177902,0.06745044205391708,0.06588256034376319,0.05086676677996812,0.046866077396331716,0.08963809693421235
0.0,75.0,75.0,0.0,120.0,0.0,0.0,0.0,0.0,-107.0,0.0,-45.0,0.0,0.0,0.0,34.27253218749016,17.55503396713325,4.175941346991595,2.057130480666679,1.306508859438034,0.8284129039959156,0.5316105045286421,0.2551296158113936,0.14410244633754737,0.06158996492152217,0.042925371244818336,-0.06165839782506164,0.025052358608389093,0.08851898815810216,0.036959075200574815,-0.009479450304749998,0.0535300862680384,6.521119841200297,4.116903263787043,3.087285631022735,2.1985191617704927,1.472037800817378,0.9437170812432266,0.5570509204189622,0.2795191256411663,0.2086185957782558,0.09034061879065652,0.09197541336569699,0.05339861342040861,0.04870911465290801,0.010236810422459212,0.008292722706838139
0.0,76.0,76.0,0.0,120.0,0.0,0.0,0.0,0.0,-107.0,0.0,-45.0,0.0,0.0,0.0,34.27253218749016,17.55503396713325,4.262830020794114,2.0593065899584664,1.2996634930445068,0.8473065393943385,0.4680839398736818,0.3154176256448982,0.10782809124051682,0.07024650644492866,0.028458539886709277,0.027528628440067926,-0.04033911496578703,-0.027849177998568602,-0.024151970289747353,-0.004365674736339827,0.0016175384068019532,6.637108285749021,4.172245650553505,3.104995890398022,2.1991551914912257,1.4798191346620215,0.9417441438243732,0.5730702725185819,0.3104770929437667,0.1939161029871241,0.10316595692428424,0.06963548724706128,0.08904252307250295,0.049142118036990444,0.04057523657420445,-0.0299315111236056
0.0,77.0,77.0,0.0,120.0,0.0,0.0,0.0,0.0,-107.0,0.0,-45.0,0.0,0.0,0.0,34.27253218749016,17.55503396713325,4.276409689923667,2.1115454825728466,1.2893639918688231,0.840387869839431,0.5025985023694178,0.29474488861574044,0.13482319410277777,0.01689158154924264,0.004905878509948981,0.015208219232169381,0.02071751800390202,0.011556465213585,-0.04494476071999852,0.038819714794559076,-0.005348443279977725,6.638719459880854,4.176863683578905,3.085131218059483,2.260137677031328,1.5323300689957398,0.978752800386075,0.5348130684950961,0.3347961984602196,0.2042282862603729,0.1070173840818482,0.05538491092260126,0.04832184170066707,0.0441600118319957,0.03222797023563549,0.03854523572450989
0.0,78.0,78.0,0.0,120.0,0.0,0.0,0.0,0.0,-107.0,0.0,-45.0,0.0,0.0,0.0,34.27253218749016,17.55503396713325,4.380701748320937,2.1015527128070515,1.3539022052537362,0.8111006085677809,0.45894084415226205,0.23858204069144368,0.15695534086568091,0.09997842247096805,-0.002764663727521502,0.024889659129743225,0.009461411530804271,-0.008779241342784131,0.0071594979255243186,-0.00046939513779891556,-0.0048056838569124505,6.715066777979792,4.241529177239186,3.106790834603175,2.251303666443742,1.4851965289617943,0.9709924377383479,0.5885343732866739,0.37861828603871467,0.15032058075211796,0.11481752466157878,0.0869546653074458,0.08144843322689431,0.07082546517862966,0.030317356959967706,0.04920820046389379
