Line_number,Fiducial,Easting,Northing,Height,Elevation,tx_pitch,tx_roll,tx_yaw,txrx_dx,txrx_dy,txrx_dz,rx_pitch,rx_roll,rx_yaw,PX,PZ,S0X_time_1.086e-05,S0X_time_3.256e-05,S0X_time_5.426e-05,S0X_time_8.680e-05,S0X_time_1.411e-04,S0X_time_2.279e-04,S0X_time_3.689e-04,S0X_time_5.860e-04,S0X_time_9.115e-04,S0X_time_1.411e-03,S0X_time_2.192e-03,S0X_time_3.418e-03,S0X_time_5.339e-03,S0X_time_8.301e-03,S0X_time_1.338e-02,S0Z_time_1.086e-05,S0Z_time_3.256e-05,S0Z_time_5.426e-05,S0Z_time_8.680e-05,S0Z_time_1.411e-04,S0Z_time_2.279e-04,S0Z_time_3.689e-04,S0Z_time_5.860e-04,S0Z_time_9.115e-04,S0Z_time_1.411e-03,S0Z_time_2.192e-03,S0Z_time_3.418e-03,S0Z_time_5.339e-03,S0Z_time_8.301e-03,S0Z_time_1.338e-02
0.0,0.0,0.0,0.0,120.0,0.0,0.0,0.0,0.0,-107.0,0.0,-45.0,0.0,0.0,0.0,34.27253218749016,17.55503396713325,10.387003509558093,9.642417864820933,9.170752989479853,8.648909670152364,8.004114137686393,7.257403815372284,6.404326998617489,5.493376796688015,4.557009256363695,3.5658653892972887,2.5393628978778366,1.5898807026931019,0.8530304158851284,0.3894385834245484,0.13977571942162745,10.929504456682592,10.491926365242858,10.202443887399866,9.871547953351051,9.44503152592118,8.924445595409017,8.290481347929225,7.559780155613165,6.739083549814073,5.770936921729591,4.618786391629193,3.3538039668803106,2.1558999719173215,1.215895697752012,0.5660690019626505
0.0,1.0,1.0,0.0,120.0,0.0,0.0,0.0,0.0,-107.0,0.0,-45.0,0.0,0.0,0.0,34.27253218749016,17.55503396713325,10.389242905641085,9.644650797967236,9.172979481293922,8.651126548022345,8.006315116634058,7.259579093773506,6.406433441468214,5.494899650659305,4.555835763201803,3.5589917225661782,2.5265313067544497,1.5748762279086483,0.8404572590351881,0.3814479912169313,0.13605617509375334,10.937304611589818,10.499710738803516,10.210212519544143,9.879293055432736,9.452737610048922,8.932089206571503,8.298004722649992,7.566724805954746,6.743303545709691,5.768253663673562,4.606347562360652,3.333712413458783,2.1341297703510453,1.198121323662715,0.5551266582094507
0.0,2.0,2.0,0.0,120.0,0.0,0.0,0.0,0.0,-107.0,0.0,-45.0,0.0,0.0,0.0,34.27253218749016,17.55503396713325,10.391436128902916,9.64683765046251,9.175159984696519,8.653297574488994,8.008470480143417,7.261709008443088,6.408488811693535,5.496305371931089,4.55437035310374,3.5516908840153714,2.513346608472471,1.559719331020794,0.8278959340218581,0.37353255176101496,0.13239908786986004,10.945019350661365,10.507409749854384,10.21789584272546,9.886952928678125,9.460358604781797,8.939647866498728,8.305438880133119,7.573523824109726,6.747193214962545,5.765018979372167,4.593318839564006,3.313203511686442,2.1121858644621483,1.1803569517784265,0.5442674085096353
0.0,3.0,3.0,0.0,120.0,0.0,0.0,0.0,0.0,-107.0,0.0,-45.0,0.0,0.0,0.0,34.27253218749016,17.55503396713325,10.393585412615865,9.648980648217865,9.177296718343024,8.655424957043603,8.010582417730454,7.263795691161076,6.410493815915382,5.497585749086275,4.552589576074145,3.5439292423326805,2.4997725161554225,1.5443780637010218,0.8153251749676513,0.36568149357243773,0.1288003797898303,10.952653061720328,10.515027774053129,10.225498220512359,9.894531918349763,9.467898825706866,8.947125822214423,8.312786974235918,7.580172727208868,6.750732881369543,5.761201314135805,4.579663728802879,3.292240986745144,2.090039932212047,1.1625858089748387,0.5334838881656412
0.0,4.0,4.0,0.0,120.0,0.0,0.0,0.0,0.0,-107.0,0.0,-45.0,0.0,0.0,0.0,34.27253218749016,17.55503396713325,10.395692697516145,9.651081725770293,9.179391610683425,8.657510614716076,8.01265283294873,7.2658409833909525,6.412448616709177,5.498731316968572,4.550469105983275,3.535674428369598,2.485776107314974,1.5288244584465607,0.8027267651226508,0.35788567095016616,0.12525655542953992,10.960209556175858,10.522568612481706,10.233023443728083,9.902033799666398,9.475362022610414,8.95452675594295,8.320051408320195,7.586665602865097,6.753901282206328,5.756768664267474,4.565346810523882,3.2707908664494503,2.067666279740235,1.1447930722728341,0.5227696944488329
0.0,5.0,5.0,0.0,120.0,0.0,0.0,0.0,0.0,-107.0,0.0,-45.0,0.0,0.0,0.0,34.27253218749016,17.55503396713325,10.397759665223216,9.65314255959986,9.181446333170031,8.65955621113246,8.014683376056988,7.267846465322344,6.414352814124443,5.499731250309428,4.54798354885593,3.5268949517433326,2.471327232436818,1.5130339404054713,0.7900851366322347,0.35013736701001835,0.12176463581379353,10.967692121162267,10.530035545078421,10.240474785175616,9.909461834484045,9.482751439345053,8.961853848147962,8.327233870909364,7.592995081454753,6.756675527186437,5.751688538413301,4.5503336527226255,3.2488213247706677,2.0450416057908387,1.126965608836555,0.5121193664765956
0.0,6.0,6.0,0.0,120.0,0.0,0.0,0.0,0.0,-107.0,0.0,-45.0,0.0,0.0,0.0,34.27253218749016,17.55503396713325,10.399787765060081,9.655164594810554,9.18346232679245,8.661563180854868,8.016675469889766,7.269813477022158,6.416205413420781,5.500573254121435,4.5451062879389585,3.5175598943600552,2.4563980259259277,1.4969848363067988,0.7773870350825238,0.34243012787994537,0.11832209922667662,10.97510355801325,10.537431364339053,10.24785502856847,9.91681879309979,9.490069823690613,8.969109765671977,8.334335252883122,7.599152136394975,6.759030822742619,5.745927577076475,4.534590269598754,3.226302098983646,2.022144707241899,1.109092080553995,0.501528113715602
0.0,7.0,7.0,0.0,120.0,0.0,0.0,0.0,0.0,-107.0,0.0,-45.0,0.0,0.0,0.0,34.27253218749016,17.55503396713325,10.401778241129945,9.65714907213936,9.1854408290122,8.66353275623486,8.018630336420914,7.271743139276983,6.418004786265857,5.501243456122093,4.541809363640825,3.5076386733421416,2.4409625105676827,1.4806579704244576,0.7646212355204969,0.3347586175077307,0.11492683240749196,10.982446227869955,10.544758425440003,10.255166523168334,9.924107015684138,9.49731949999406,8.976296748851263,8.341355717489156,7.605126130011942,6.76094058452115,5.739451729619392,4.518083305653729,3.2032046196499304,1.9989563489436861,1.0911625468622532,0.4909919498395614
0.0,8.0,8.0,0.0,120.0,0.0,0.0,0.0,0.0,-107.0,0.0,-45.0,0.0,0.0,0.0,34.27253218749016,17.55503396713325,10.403732153918908,9.659097049460321,9.187382895161134,8.665465988690615,8.0205490176788,7.273636367022486,6.4197486168685804,5.501726290561135,4.538063370832241,3.497100848827558,2.424996269383721,1.4640363275618153,0.7517783045414291,0.32711849535768245,0.11157708612196689,10.98972208502263,10.552018677918912,10.262411213805382,9.93132843984339,9.504502392526526,8.983416623543816,8.34829464957919,7.610904681845853,6.762376303369875,5.732226078506124,4.500779759689163,3.1795017056925743,1.9754590680744881,1.0731684332458602,0.480507568510111
0.0,9.0,9.0,0.0,120.0,0.0,0.0,0.0,0.0,-107.0,0.0,-45.0,0.0,0.0,0.0,34.27253218749016,17.55503396713325,10.405650399938976,9.661009421351174,9.189289417923696,8.667363768103865,8.022432394833272,7.27549387892604,6.421433836158446,5.502004376698945,4.533837372987181,3.485915971140742,2.4084761772435286,1.4471047749196009,0.7388503998849241,0.3195063108236422,0.10827143662767959,10.996932708617225,10.559213697283319,10.269590672387915,9.938484632014301,9.51162005655628,8.990470825663966,8.355150620481755,7.616473570295961,6.76330747901396,5.7242147631128235,4.482646842062326,3.1551673976386687,1.9516370244376031,1.0551024278807248,0.47007229190982086
0.0,10.0,10.0,0.0,120.0,0.0,0.0,0.0,0.0,-107.0,0.0,-45.0,0.0,0.0,0.0,34.27253218749016,17.55503396713325,10.40753372917244,9.662886936472331,9.191161144641445,8.66922684005566,8.024281205140861,7.277316202220813,6.423056542344481,5.5020583905690055,4.529098828527386,3.4740534579082696,2.3913801807850406,1.4298498328032612,0.7258311019514391,0.3119194123468188,0.10500875176036964,11.004079331202377,10.56634471347247,10.276706126276897,9.945576815742502,9.518673706322238,8.997460420846231,8.361921340588605,7.621816625148188,6.763701556772148,5.7153809101613415,4.463651845618195,3.130176812731401,1.9274758717216731,1.0369583916856395,0.45968402497080746
0.0,11.0,11.0,0.0,120.0,0.0,0.0,0.0,0.0,-107.0,0.0,-45.0,0.0,0.0,0.0,34.27253218749016,17.55503396713325,10.409382760631663,9.664730213070857,9.192998692751333,8.671055821207629,8.026096057043008,7.279103672424968,6.424611906844122,5.501866929876902,4.523813526802186,3.461482494582726,2.373687118238844,1.412259486400913,0.7127152723290571,0.30435586903958606,0.10178816098159853,11.011162864523506,10.573412636576052,10.283758483925977,9.952605897239312,9.525664240291466,9.004386119156296,8.368603598934003,7.62691561095341,6.763523866287848,5.705686568845441,4.44376202914665,3.1045060202679937,1.902962647674597,1.0187312802598736,0.44934121460256155
0.0,12.0,12.0,0.0,120.0,0.0,0.0,0.0,0.0,-107.0,0.0,-45.0,0.0,0.0,0.0,34.27253218749016,17.55503396713325,10.411197996300862,9.666539752874666,9.194802563621845,8.672851213087188,8.027877443656301,7.280856427393132,6.426094064465168,5.50140637214626,4.517945531878037,3.448171953245415,2.3553765723951106,1.3943230322202533,0.6994989352261501,0.2968144029622518,0.09860902882916235,11.018183922909856,10.580418080153134,10.290748358128207,9.959572488552665,9.532592264022254,9.011248284611767,8.375193188924655,7.6317501013693665,6.76273756153091,5.69509264891786,4.422944512183233,3.078131935557853,1.878085681342086,1.0004170763675542,0.43904281331170986
0.0,13.0,13.0,0.0,120.0,0.0,0.0,0.0,0.0,-107.0,0.0,-45.0,0.0,0.0,0.0,34.27253218749016,17.55503396713325,10.412979833686595,9.668315953601944,9.19657315501134,8.674613414494699,8.029625754841897,7.282574394943943,6.4274959866284735,5.500650726417721,4.511457132802573,3.4340903256418476,2.336428751296868,1.3760309538980873,0.6861791783730088,0.28929433048496384,0.09547093129483601,11.025142844550489,10.587361382445605,10.297676087162078,9.96647692863917,9.539458110899767,9.018046939111864,8.381684819266365,7.636297344692829,6.7613035614901404,5.6835588601863485,4.401166180033921,3.0510322309946547,1.852834515719632,0.9820127317895753,0.42878824668188376
0.0,14.0,14.0,0.0,120.0,0.0,0.0,0.0,0.0,-107.0,0.0,-45.0,0.0,0.0,0.0,34.27253218749016,17.55503396713325,10.414728577169837,9.67005912027724,9.198310772339536,8.67634273271701,8.031341287989525,7.2842572730838135,6.428809336338893,5.499571478967435,4.504308799323414,3.419205667245871,2.3168243923404153,1.357374823027558,0.6727540705097854,0.281795511403503,0.09237363472315889,11.032039710914317,10.594242625739653,10.30454175408959,9.973319302584693,9.546261860961215,9.024781760198614,8.388072009034437,7.640532120904,6.759180491050102,5.671043652022315,4.378393598020868,3.023185262874187,1.8271998443555955,0.9635161175042842,0.41857738424648205
0.0,15.0,15.0,0.0,120.0,0.0,0.0,0.0,0.0,-107.0,0.0,-45.0,0.0,0.0,0.0,34.27253218749016,17.55503396713325,10.416444448323913,9.67176947551703,9.200015638935202,8.678039393702877,8.03302425759619,7.285904501597213,6.430024303550867,5.498137433649035,4.496459142231848,3.4034855498090164,2.2965446863592627,1.3383472214174117,0.6592225930374939,0.2743183046740791,0.08931707688264037,11.038874364534463,10.60106165409459,10.311345204425109,9.98009945918635,9.553003357976944,9.031452071878348,8.394346965747788,7.644426590629296,6.756324621551766,5.657504151621864,4.354592934091238,2.9945700127441692,1.8011734606185592,0.9449259812804518,0.40841051334219775
0.0,16.0,16.0,0.0,120.0,0.0,0.0,0.0,0.0,-107.0,0.0,-45.0,0.0,0.0,0.0,34.27253218749016,17.55503396713325,10.418127595338682,9.673447168923756,9.201687905399519,8.679703551332578,8.034674803657534,7.287515223495972,6.431129419537152,5.496314547586183,4.487864877601423,3.386897020380086,2.2755712190002804,1.3189416818336854,0.6455845837904871,0.2668635297962497,0.08630134990906704,11.04564642534798,10.607818089629234,10.318086062365284,9.986817027080239,9.559682224902119,9.038056827518288,8.400500445237801,7.647950136505753,6.752689810488131,5.6428960998793,4.329729889089818,2.9651660422358557,1.7747482185045615,0.9262419118730039,0.39828831557814215
0.0,17.0,17.0,0.0,120.0,0.0,0.0,0.0,0.0,-107.0,0.0,-45.0,0.0,0.0,0.0,34.27253218749016,17.55503396713325,10.419778101670918,9.675092285706858,9.203327658204566,8.681335295893367,8.036292998814956,7.289088234509086,6.432111348859082,5.494065763051932,4.478480794222544,3.36940656520972,2.2538859272997143,1.2991526447996795,0.6318406912054343,0.25943243300979696,0.08332668486138622,11.052355305756084,10.61451134753043,10.324763745744923,9.993471429573564,9.566297877753955,9.044594583594582,8.406521592051305,7.651069197497172,6.748227439690934,5.62717378384166,4.30376963415756,2.93495346049013,1.7479180040058309,0.9074643091044148,0.38821184559590527
0.0,18.0,18.0,0.0,120.0,0.0,0.0,0.0,0.0,-107.0,0.0,-45.0,0.0,0.0,0.0,34.27253218749016,17.55503396713325,10.421395994023777,9.676704854632261,9.20493492762965,8.68293466185647,8.0378788541096,7.290621918449214,6.432954657559847,5.4913508364675,4.468259723515186,3.3509800773147775,2.2314710698597597,1.278975429464933,0.6179923374248543,0.2520266575860685,0.08039343766503193,11.05900022454783,10.621140649926167,10.331377479862116,10.000061898318434,9.572849537901009,9.051063462803834,8.412397759099408,7.653747096769284,6.742886351232753,5.610289964816106,4.2766767548785865,2.9039129034497324,1.720677716195424,0.8885943591950608,0.3781825118303367
0.0,19.0,19.0,0.0,120.0,0.0,0.0,0.0,0.0,-107.0,0.0,-45.0,0.0,0.0,0.0,34.27253218749016,17.55503396713325,10.422981249743804,9.678284855387329,9.20650969512353,8.684501635037186,8.03943232307763,7.292114165909766,6.433641556263303,5.488126165531077,4.457152511143446,3.3315828267866343,2.2083092094320387,1.2584062169145034,0.6040416890913599,0.2446482175900909,0.07750207624684384,11.065580219810125,10.627705038746068,10.33792631029605,10.006587485945179,9.579336242667077,9.057461104756639,8.418114305262392,7.655943863772624,6.736612780100247,5.5921958013024815,4.248415201951899,2.872025524442854,1.6930232573002424,0.8696340147747172,0.36820205901068126
0.0,20.0,20.0,0.0,120.0,0.0,0.0,0.0,0.0,-107.0,0.0,-45.0,0.0,0.0,0.0,34.27253218749016,17.55503396713325,10.424533803711801,9.679832225435936,9.208051900168313,8.686036159208912,8.0409533037717,7.293562273326566,6.434151616966082,5.484344615544339,4.445107989468452,3.3111794332033866,2.1843832070513427,1.2374420445890282,0.5899916347696211,0.23729947457031808,0.07465316869059742,11.072094160929758,10.634203387674537,10.344409114824195,10.013047077757204,9.585756854048611,9.063784602148443,8.423654369689933,7.657616051201161,6.729350282498209,5.572840766027048,4.21894824831357,2.8392729956293072,1.6649515311400462,0.8505859790666245,0.3582725521670197
0.0,21.0,21.0,0.0,120.0,0.0,0.0,0.0,0.0,-107.0,0.0,-45.0,0.0,0.0,0.0,34.27253218749016,17.55503396713325,10.426053554793947,9.681346866428388,9.20956144670979,8.687538142232684,8.04244163810175,7.294962818981618,6.434461462465524,5.479955346030545,4.432072949869034,3.2897338397594558,2.159676227143328,1.2160808107351502,0.5758457680824289,0.22998311670028365,0.0718473722635249,11.078540759778212,10.640634413287477,10.350824614530412,10.019439402575598,9.59211006521424,9.070030419949443,8.428998621601426,7.65871654748556,6.721039658419309,5.5521725564623345,4.18823845277617,2.805637520020376,1.6364604494035973,0.8314536937855925,0.34839636192900664
0.0,22.0,22.0,0.0,120.0,0.0,0.0,0.0,0.0,-107.0,0.0,-45.0,0.0,0.0,0.0,34.27253218749016,17.55503396713325,10.427540371910789,9.682828650222085,9.211038209209212,8.689007461755892,8.04389710764146,7.29631151203581,6.4345444275755685,5.474903638728233,4.417992113840138,3.2672092889673734,2.1341717532663407,1.1943212880137526,0.5616083757701117,0.22270213995311672,0.06908542318251604,11.084918581158199,10.64699668545153,10.357171384183774,10.025763042811864,9.598394404291442,9.076194294772398,8.434124984495527,7.659194385431452,6.711618866868515,5.53013699833565,4.1562476303896485,2.7711018539159915,1.6075489453158087,0.812241330333971,0.3385761509224596
0.0,23.0,23.0,0.0,120.0,0.0,0.0,0.0,0.0,-107.0,0.0,-45.0,0.0,0.0,0.0,34.27253218749016,17.55503396713325,10.428994099774151,9.684277424561197,9.212482038361692,8.690443970525246,8.04531942472998,7.297603010156605,6.434370191551133,5.469130727985529,4.402808101656135,3.2435683000217463,2.1078536143487865,1.1721631455676524,0.5472844299824088,0.2154598309375272,0.06636812700452058,11.091226052582398,10.65328863705645,10.363447861958615,10.032016443839403,9.604608234738246,9.082271111167579,8.439008333827,7.6589945475150865,6.70102293186744,5.506677941757692,4.122936829859622,2.735649339730615,1.5782169943221527,0.7929537839140542,0.32881486108538666
0.0,24.0,24.0,0.0,120.0,0.0,0.0,0.0,0.0,-107.0,0.0,-45.0,0.0,0.0,0.0,34.27253218749016,17.55503396713325,10.430414564334068,9.68569301845587,9.213892766516286,8.691847501347706,8.04670821729551,7.298830700764497,6.433904381471894,5.462573634463042,4.386461397268126,3.218772648151154,2.0807060214584165,1.1496069789969658,0.5328795841920303,0.2082597510639666,0.06369634953956417,11.097461473450412,10.659508573147125,10.369652358561325,10.03819792273004,9.610749751337256,9.088254751162433,8.443620167404204,7.6580577681875495,6.689183837088066,5.481737149743962,4.08826631848932,2.699263949302462,1.5484656414800992,0.7735966702042534,0.31911570173858794
0.0,25.0,25.0,0.0,120.0,0.0,0.0,0.0,0.0,-107.0,0.0,-45.0,0.0,0.0,0.0,34.27253218749016,17.55503396713325,10.431801577968567,9.687075247292704,9.215270212820103,8.693217871714216,8.048063005315706,7.299986440367263,6.4331081467284585,5.455165002863737,4.368890308001881,3.192783346522701,2.05271361529597,1.126654347814773,0.5184001721810448,0.20110572174350683,0.061071008196963365,11.103623023689773,10.665654679521634,10.375783065827727,10.044305676418643,9.616816970521718,9.094137912915206,8.447928248003537,7.656320333301024,6.676030406685534,5.455254179056828,4.0521955752419245,2.661930337901747,1.5182970353018037,0.7541763242687879,0.30948213825738297
0.0,26.0,26.0,0.0,120.0,0.0,0.0,0.0,0.0,-107.0,0.0,-45.0,0.0,0.0,0.0,34.27253218749016,17.55503396713325,10.433154944518616,9.68842391777649,9.216614188171254,8.694554888144749,8.049383166257522,7.3010602459622636,6.4319377052532225,5.446832944158267,4.350030917530575,3.165560631440848,2.023861524628852,1.103307819998807,0.503853209722677,0.19400181028191013,0.05849306369178631,11.109708767396352,10.6717250263305,10.381838060322638,10.05033778482462,9.622807708822963,9.099911889448869,8.451896213710144,7.653713872600691,6.661488166783335,5.427166252749322,4.014683295484778,2.623633914342667,1.4877144651023333,0.7346998011339654,0.299917881389249
0.0,27.0,27.0,0.0,120.0,0.0,0.0,0.0,0.0,-107.0,0.0,-45.0,0.0,0.0,0.0,34.27253218749016,17.55503396713325,10.434474471776285,9.689738840295027,9.21792450753344,8.695858357713519,8.050667893415179,7.3020399391637385,6.430343869451709,5.437500888326457,4.32981703463344,3.137063952229059,1.9941354306548649,1.079571015212886,0.48924640388380725,0.18695231586974884,0.05596351182103206,11.115716629851228,10.677717545040956,10.387815280294229,10.05629218727219,9.628719525595097,9.105566281057044,8.455483135502034,7.650165126048477,6.6454791707498275,5.397408120884926,3.975687421519934,2.5843609520451727,1.4567223889380578,0.7151748761781033,0.29042687802452094
0.0,28.0,28.0,0.0,120.0,0.0,0.0,0.0,0.0,-107.0,0.0,-45.0,0.0,0.0,0.0,34.27253218749016,17.55503396713325,10.43575997022021,9.691019827613392,9.21920098861575,8.697128085842943,8.051916122262714,7.302910716355369,6.428271535435312,5.4270874323397615,4.308180127480324,3.1072519698492025,1.963521657060467,1.055448670239795,0.47458815064137044,0.17996175769040057,0.053483376283455425,11.121644518873177,10.683630151629137,10.393712650656596,10.062166809393586,9.634549808195546,9.111088822041168,8.458643214056238,7.645595875728981,6.6279219659886595,5.365912044966174,3.935165236335489,2.5440986927790483,1.425326569600173,0.6956099236154608,0.2810133718045906
0.0,29.0,29.0,0.0,120.0,0.0,0.0,0.0,0.0,-107.0,0.0,-45.0,0.0,0.0,0.0,34.27253218749016,17.55503396713325,10.437011254329704,9.692266696036185,9.220443452822728,8.698363875727587,8.05312643417286,7.303654651408939,6.425659149867955,5.415506190964375,4.285049244458731,3.0760825581896896,1.9320072664258134,1.030946708471171,0.45988754004098853,0.17303485995109455,0.05105370160741525,11.127490221186875,10.689460643436295,10.39952798035434,10.067959460493917,9.640295609792718,9.11646492213425,8.46132521674014,7.6399226466744325,6.6087313419950675,5.3326076647109115,3.8930735084723795,2.502835612810972,1.3935340696863283,0.6760138776148872,0.2716819191646407
0.0,30.0,30.0,0.0,120.0,0.0,0.0,0.0,0.0,-107.0,0.0,-45.0,0.0,0.0,0.0,34.27253218749016,17.55503396713325,10.438228142444911,9.693479265086532,9.22165172456666,8.699565525198217,8.054296926814661,7.304250119937632,6.422438154310671,5.4026656461793054,4.2603509180184655,3.0435128070766377,1.8995801582236582,1.0060723036437593,0.4451543730635682,0.16617654458798012,0.048675541085510705,11.133251433504718,10.69520671744881,10.405258967738197,10.073667818275863,9.645953520519777,9.121677148525304,8.46347179677015,7.633056162278166,6.58781759882282,5.297421098823427,3.849367527596268,2.460560513908399,1.361353221695615,0.6563971621824178,0.2624368477309062
0.0,31.0,31.0,0.0,120.0,0.0,0.0,0.0,0.0,-107.0,0.0,-45.0,0.0,0.0,0.0,34.27253218749016,17.55503396713325,10.439410470518922,9.694657371252877,9.222825644660336,8.700732836384844,8.055425059004671,7.304671154689047,6.41853242924144,5.388469013736264,4.2340090750455905,3.0094990587860386,1.8662292030969776,0.9808339616499587,0.430399160942687,0.1593919104785836,0.046349955056418486,11.138925786707874,10.700866011237133,10.410903258092617,10.079289509200825,9.651519682591584,9.126704932223962,8.465019267763072,7.624901553929707,6.565086960410791,5.260275771449368,3.804002458025138,2.4172639357996526,1.3287938473011394,0.6367704939827645,0.2532829370715139
0.0,32.0,32.0,0.0,120.0,0.0,0.0,0.0,0.0,-107.0,0.0,-45.0,0.0,0.0,0.0,34.27253218749016,17.55503396713325,10.440558092006501,9.695800867760166,9.223965069424587,8.701865608301956,8.056507429751674,7.304886693811964,6.413857709294478,5.3728140887774325,4.205944915887875,2.973996941362501,1.8319443780652727,0.9552416025878026,0.4156331362027459,0.15268622220825406,0.04407800146941495,11.144510848046972,10.706436098970798,10.4164584332081,10.084822084998276,9.656989612138485,9.131523951709655,8.465896957384986,7.61535793123752,6.540441017336034,5.221091886013423,3.756932934398259,2.3729378202430302,1.2958672758361027,0.6171453393171135,0.24422514908270848
0.0,33.0,33.0,0.0,120.0,0.0,0.0,0.0,0.0,-107.0,0.0,-45.0,0.0,0.0,0.0,34.27253218749016,17.55503396713325,10.44167088058931,9.696909627250285,9.225069872552227,8.702963627961834,8.057539496148204,7.304859733066062,6.408320993078973,5.3555930863320285,4.176076783474508,2.9369614236839547,1.796716923028582,0.9293066506885083,0.40086826029153666,0.14606489540181852,0.04186072861324069,11.15000413017706,10.71191450058218,10.421922020306436,10.090263025466102,9.662358023011224,9.136105508087237,8.466026649823641,7.604318096543741,6.513776384046606,5.179786266202425,3.7081131595668677,2.3275756722284133,1.2625864242551692,0.597533920479018,0.23526861680410818
0.0,34.0,34.0,0.0,120.0,0.0,0.0,0.0,0.0,-107.0,0.0,-45.0,0.0,0.0,0.0,34.27253218749016,17.55503396713325,10.442748731945024,9.69798354355603,9.226139945882577,8.704026653537674,8.058515210451342,7.304546371324455,6.401819947457109,5.336692466427912,4.144320018338794,2.8983468909864993,1.7605395160894262,0.90304213025715,0.3861172303930821,0.13953348121390274,0.039699167876412596,11.155403101048138,10.7172986918561,10.427291501847298,10.095609738167317,9.667618598403916,9.140415816798694,8.46532201003668,7.59166822654385,6.4849843129798055,5.136272198437753,3.65749702381978,2.281172739115528,1.2289658822923146,0.5779492216880932,0.22641863275825494
0.0,35.0,35.0,0.0,120.0,0.0,0.0,0.0,0.0,-107.0,0.0,-45.0,0.0,0.0,0.0,34.27253218749016,17.55503396713325,10.443791564220842,9.699022532240694,9.227175198791493,8.705054385430069,8.059426557440421,7.303894743610164,6.394242309847593,5.315992736558553,4.110586800622337,2.858107244631261,1.7234064694746907,0.8764627674389961,0.37139348493493285,0.1330976498188326,0.03759432652060003,11.16070519472035,10.722586115530524,10.432564326325329,10.100859552803584,9.672763697603454,9.144415209971065,8.463687990918181,7.577287511241334,6.453950262769892,5.09045927841186,3.605038248425042,2.2337262090809253,1.1950220026374867,0.5584049942506816,0.21768063672242616
0.0,36.0,36.0,0.0,120.0,0.0,0.0,0.0,0.0,-107.0,0.0,-45.0,0.0,0.0,0.0,34.27253218749016,17.55503396713325,10.444799316872546,9.700026529571574,9.228175555923613,8.706046419338673,8.060262969939606,7.302843837400552,6.385465291324455,5.293368222964621,4.074785980992062,2.81619603033275,1.6853139480312047,0.8495850975712445,0.3567112072647877,0.1267631727519473,0.03554718044502117,11.165907822990334,10.72777419330839,10.43773791999214,10.106009706762748,9.677783982642085,9.148057244013112,8.461020223469506,7.56104773854275,6.420553418188389,5.042253264761318,3.550690557040987,2.18523543033991,1.160772995898284,0.5389157605740892,0.20906020284200963
0.0,37.0,37.0,0.0,120.0,0.0,0.0,0.0,0.0,-107.0,0.0,-45.0,0.0,0.0,0.0,34.27253218749016,17.55503396713325,10.445771947641743,9.700995489698645,9.229140953107486,8.70700217313442,8.061010597094556,7.301322189959314,6.3753549819616655,5.268686801029328,4.036822903398719,2.772566599511703,1.6462602124183876,0.8224275778172181,0.34208532693060756,0.12053590396514041,0.033558666912973774,11.171008387464324,10.732860338420824,10.442809699177037,10.111057316551422,9.682667946810222,9.151287707811944,8.457204388381976,7.542812810762321,6.384666159971573,4.991555943535813,3.494407879223634,2.135702152699289,1.1262390300386682,0.5194968166388886,0.20056302599006637
0.0,38.0,38.0,0.0,120.0,0.0,0.0,0.0,0.0,-107.0,0.0,-45.0,0.0,0.0,0.0,34.27253218749016,17.55503396713325,10.446709427727026,9.701929380081525,9.230071331530322,8.70792077633218,8.061651396767873,7.299246467064166,6.363765757944387,5.2418095741851785,3.9965992237550414,2.7271723088743896,1.6062458892069023,0.7950107047067071,0.3275315179620927,0.11442175946791502,0.031629677203989626,11.176004291439074,10.737841968091425,10.447777082556563,10.115999327443287,9.687401323975571,9.154043527862179,8.452115565023696,7.522438177233637,6.346153483248113,4.938265007811442,3.436144591006684,2.0851307930828287,1.0914423338948458,0.5001642325127971,0.1921949072640394
0.0,39.0,39.0,0.0,120.0,0.0,0.0,0.0,0.0,-107.0,0.0,-45.0,0.0,0.0,0.0,34.27253218749016,17.55503396713325,10.447611735702138,9.70282817569315,9.230966630595962,8.70880090709177,8.062162020481715,7.296519926686762,6.350539687330373,5.21259049024406,3.95401272991435,2.67996676375227,1.5652742701077438,0.7673571361172824,0.3130661935205369,0.10842669542761556,0.029761049151575708,11.180892950745285,10.74271651501856,10.452637502389546,10.120832430631566,9.691966354629916,9.156251567936637,8.44561755059016,7.499770165235078,6.304872363852666,4.882273957588853,3.375855798313931,2.033528726758562,1.0564073042663626,0.48093485046807255,0.18396173848611677
0.0,40.0,40.0,0.0,120.0,0.0,0.0,0.0,0.0,-107.0,0.0,-45.0,0.0,0.0,0.0,34.27253218749016,17.55503396713325,10.44847885143922,9.703691853223143,9.231826780243017,8.709640556656868,8.062512456920636,7.293030774839567,6.335505927887769,5.180875884148379,3.908957169783155,2.630904111177627,1.523351642536841,0.7394918171200439,0.2987064962554027,0.10255668459604898,0.027953559534011886,11.185671802715554,10.747481436962891,10.45738841347715,10.125552933431047,9.696340881825137,9.15782732253898,8.437562138091357,7.4746451896772435,6.260671072367373,4.823472026011953,3.3134976697265683,1.9809066060878602,1.021160615976745,0.46182628023828426,0.1758694855396374
0.0,41.0,41.0,0.0,120.0,0.0,0.0,0.0,0.0,-107.0,0.0,-45.0,0.0,0.0,0.0,34.27253218749016,17.55503396713325,10.449310752095343,9.70452038730229,9.232651693593152,8.710436694581075,8.062664398323317,7.28865042464322,6.318480106004753,5.146503936922358,3.86132209598564,2.579939389171777,1.4804876537524594,0.7114421089679909,0.28447028366178295,0.09681769091394163,0.02620791631218191,11.190338312823497,10.752134223864642,10.462027298494279,10.130156563598039,9.700497248020742,9.158673505391384,8.427788336909725,7.4468888206356105,6.213388436229628,4.761744138933812,3.2490278258402365,1.9272787087128134,0.9857313341975358,0.4428568909104354,0.1679241703377158
0.0,42.0,42.0,0.0,120.0,0.0,0.0,0.0,0.0,-107.0,0.0,-45.0,0.0,0.0,0.0,34.27253218749016,17.55503396713325,10.450107412867256,9.705313751427706,9.233441260130258,8.711184799445512,8.0625692932931,7.283231673157953,6.29926366006503,5.109304042139047,3.810992737200171,2.527028939383808,1.4366957110207978,0.6832379203119432,0.27037610764681913,0.09121564212681114,0.02452475075816709,11.194889979421491,10.756672402743353,10.46655166834466,10.1346381835456,9.70440096273028,9.158678536512571,8.416121513876353,7.416314686967466,6.162853050627886,4.696970915952746,3.182405793163424,1.8726633172000853,0.9501510282226177,0.4240457988873668,0.1601318511952612
0.0,43.0,43.0,0.0,120.0,0.0,0.0,0.0,0.0,-107.0,0.0,-45.0,0.0,0.0,0.0,34.27253218749016,17.55503396713325,10.45086881532316,9.706071926401398,9.23419533740457,8.711878208382204,8.062166049737082,7.276606812853142,6.277643124696617,5.069096073504366,3.757849908129063,2.47213089120148,1.3919934207930074,0.6549118394666333,0.2564431873553051,0.0857564002396873,0.0229046095876905,11.199324338333701,10.761093541913263,10.470959056054298,10.138991383905365,9.708009111024758,9.157714933693626,8.402372426114647,7.382723193938916,6.108882439097496,4.6290287222894335,3.1135935314248075,1.8170831322653644,0.9144538857245231,0.4054128512685227,0.15249860138168414
0.0,44.0,44.0,0.0,120.0,0.0,0.0,0.0,0.0,-107.0,0.0,-45.0,0.0,0.0,0.0,34.27253218749016,17.55503396713325,10.451594976680695,9.706794929572109,9.234913745675774,8.71250723489932,8.061378363466211,7.268585704540013,6.25338933217224,5.0256895558249886,3.7017699731942075,2.4152057214657856,1.3464030615200335,0.6264992666754705,0.24269137432807172,0.08044573157049192,0.02134794609083733,11.203638902759128,10.76539519376221,10.4752469422004,10.143207864754661,9.711268431915867,9.155637590878207,8.386336114414192,7.345900086218273,6.0512822879353605,4.557789986955154,3.0425562593079944,1.7605656512329897,0.8786766465556587,0.38697877028548927,0.14503046629699337
0.0,45.0,45.0,0.0,120.0,0.0,0.0,0.0,0.0,-107.0,0.0,-45.0,0.0,0.0,0.0,34.27253218749016,17.55503396713325,10.452286042464074,9.707482907849382,9.235596293834687,8.7130580190963,8.060111684865012,7.258953871086117,6.226256534140165,4.978882780903735,3.6426249090501575,2.3562169012359067,1.299952056338225,0.5980385432353982,0.22914112040620951,0.0752892686369694,0.01985511385202512,11.207831259555736,10.769574984518442,10.479412798654225,10.147276728998095,9.714113181076383,9.152282035467834,8.367790603944183,7.30561467879169,5.989845383123002,4.483123176453443,2.969262935890757,1.7031437316609237,0.8428588904678567,0.3687649622998856,0.1377334553666138
0.0,46.0,46.0,0.0,120.0,0.0,0.0,0.0,0.0,-107.0,0.0,-45.0,0.0,0.0,0.0,34.27253218749016,17.55503396713325,10.452942209406071,9.708136061099038,9.236242578304754,8.713510778531761,8.058249567537539,7.247470395075284,6.195981182688701,4.928461702104864,3.5802823961212598,2.29513169835818,1.2526736471576208,0.569571072496252,0.2158134100853181,0.07029246880469144,0.018426364520525363,11.211899261374475,10.773630790128669,10.483454174911254,10.151183562487292,9.716462692208129,9.14746260470391,8.346495296629685,7.261617684251283,5.924350219478749,4.404892439559106,2.8936864345095428,1.6448563349121128,0.8070437215675424,0.3507929423036974,0.130613580459604
0.0,47.0,47.0,0.0,120.0,0.0,0.0,0.0,0.0,-107.0,0.0,-45.0,0.0,0.0,0.0,34.27253218749016,17.55503396713325,10.453563799384485,9.70875471528318,9.236851833425108,8.713837656241259,8.055649695851685,7.233865919312138,6.1622805849894435,4.874198834757438,3.5146060608173957,2.2319220511389832,1.2046074990368043,0.5411414335368069,0.20272969315037412,0.06546058508679524,0.01706183634258216,11.215840817593541,10.777560544151722,10.48736839318919,10.154908878641711,9.718218386890669,9.140970486627106,8.322189243531444,7.213639348470607,5.85456068626608,4.3229590821954735,2.815805559392802,1.585748714790645,0.7712769075262946,0.3330851928353269,0.12367672091136173
0.0,48.0,48.0,0.0,120.0,0.0,0.0,0.0,0.0,-107.0,0.0,-45.0,0.0,0.0,0.0,34.27253218749016,17.55503396713325,10.45415129927133,9.709339360370796,9.237422589211882,8.713999845343679,8.052139417771974,7.217840571141227,6.124851226075732,4.815852086273969,3.4454558775420128,2.1665656103663786,1.155800371392449,0.5127974860111524,0.189911808781669,0.06079862129623041,0.015761549825902662,11.219654048524758,10.78136237539564,10.491152447324287,10.158426364893549,9.719260581781791,9.132571681902137,8.294588824627665,7.161386757511255,5.780224699993871,4.2371816514622,2.735605716092641,1.5258731866067579,0.7356073562827221,0.31566474485943247,0.11692863574344657
0.0,49.0,49.0,0.0,120.0,0.0,0.0,0.0,0.0,-107.0,0.0,-45.0,0.0,0.0,0.0,34.27253218749016,17.55503396713325,10.454705366168428,9.709890648058227,9.237952040374081,8.713943824078862,8.047510794059558,7.199061762484144,6.083366679537618,4.753163534535752,3.3726887633260487,2.099046964867004,1.1063068491845305,0.48459045129634515,0.17738189415946132,0.056311288575456336,0.01452540220160648,11.223337365559871,10.785034676867243,10.49480269428813,10.161700529366286,9.719444904726478,9.12200482944884,8.263385009896059,7.104541005587092,5.701073114787713,4.147416631319814,2.6530801703451474,1.4652897835023249,0.7000871914145893,0.29855511551007313,0.1103749316077262
0.0,50.0,50.0,0.0,120.0,0.0,0.0,0.0,0.0,-107.0,0.0,-45.0,0.0,0.0,0.0,34.27253218749016,17.55503396713325,10.455226785569982,9.710409328748305,9.23843497634164,8.713596507971545,8.041515184920012,7.177161779191404,6.03747502267327,4.685858186709283,3.296159423026716,2.029359085146097,1.0561901241334741,0.45657496604382775,0.1651622794656762,0.05200295945064421,0.013353161651781074,11.226889544659679,10.788576160723496,10.498314306504678,10.16468366277507,9.718598344242913,9.10897880244271,8.228240013545307,7.042754039196117,5.616818641256122,4.053519360025301,2.5682314942297313,1.4040669524533786,0.6647718113689376,0.2817802348247157,0.10402102932720589
0.0,51.0,51.0,0.0,120.0,0.0,0.0,0.0,0.0,-107.0,0.0,-45.0,0.0,0.0,0.0,34.27253218749016,17.55503396713325,10.45571637294185,9.710896101357102,9.238862066061353,8.71285911670638,8.03385741140464,7.151735027390334,5.986795666541193,4.613642745859407,3.215721503803179,1.9575050189853265,1.0055228224289432,0.4288091027095323,0.15327536741557035,0.04787761938632755,0.01224446064247637,11.230309754869916,10.791985852642803,10.501680329979962,10.167311946333966,9.716514914341658,9.093169927315843,8.188783193494396,6.9756451533287995,5.527154822770804,3.95534523584925,2.4810732229719497,1.3422822840753796,0.6297199296020592,0.26536436002176694,0.09787212870315237
0.0,52.0,52.0,0.0,120.0,0.0,0.0,0.0,0.0,-107.0,0.0,-45.0,0.0,0.0,0.0,34.27253218749016,17.55503396713325,10.456174835540985,9.71135136018544,9.239217242773295,8.711599580311036,8.024189562877662,7.122334771363852,5.930915527878302,4.536204417242664,3.1312291197759423,1.883499867242123,0.9543878732617054,0.40135435373325273,0.1417434941235191,0.04393881604569714,0.01119878782063146,11.233597494604545,10.795262961007962,10.50489013697131,10.169500521241192,9.712950906191578,9.074218608574778,8.144606018756456,6.902797107966302,5.431755138964184,3.8527512905743735,2.3916317461790553,1.2800232703617545,0.5949935913686326,0.24933197566261373,0.09193317068409382
0.0,53.0,53.0,0.0,120.0,0.0,0.0,0.0,0.0,-107.0,0.0,-45.0,0.0,0.0,0.0,34.27253218749016,17.55503396713325,10.456602650464792,9.711774834946981,9.239473882183125,8.709643368118911,8.012104556937656,7.08846916992609,5.8693845017215915,4.453209793086552,3.0425388056149107,1.807373062809346,0.9028794118831573,0.37427557605393164,0.1305887674209247,0.04018960679686155,0.010215478530782019,11.236752403427717,10.798406554920602,10.507927017146995,10.171137351412634,9.707619695773758,9.051725074459648,8.095255904469996,6.82375182231537,5.330272324120707,3.7455982166975246,2.299948457116628,1.217388087332548,0.5606581601604628,0.2337076780145638,0.0862087954587292
0.0,54.0,54.0,0.0,120.0,0.0,0.0,0.0,0.0,-107.0,0.0,-45.0,0.0,0.0,0.0,34.27253218749016,17.55503396713325,10.457000049854686,9.712165108494908,9.23958939799142,8.706762704388051,7.99712956918903,7.049596388100763,5.801710235664068,4.364303866384214,2.949511956046201,1.7291709798543273,0.8511037126499101,0.34764088707287977,0.11983288005861344,0.036632505255270106,0.009293705120698423,11.239773970384144,10.801415010612818,10.510764633743218,10.17207577733697,9.700186089570929,9.025243908185844,8.040228705895482,6.738005588086338,5.222337996120777,3.633752936438817,2.2060821855546133,1.154486402483443,0.5267822634721225,0.21851604216626666,0.08070329496254304
0.0,55.0,55.0,0.0,120.0,0.0,0.0,0.0,0.0,-107.0,0.0,-45.0,0.0,0.0,0.0,34.27253218749016,17.55503396713325,10.457367208270552,9.712518923235415,9.239497770675095,8.70266421281912,7.978719396771818,7.00511851226488,5.727352250409167,4.269109249756739,2.8520178176057067,1.648959916612348,0.7991801488718815,0.3215214921894832,0.10949689903381386,0.03326942728133309,0.008432469528151758,11.242661224686003,10.804285207925425,10.51336206426536,10.172125762968827,9.690260201612338,8.994277007450314,7.978959692386538,6.6450037683303105,5.1075627742071035,3.517091917088918,2.110111962978768,1.0914401349424372,0.49343772034467603,0.20378145111708057,0.07542057464366735
0.0,56.0,56.0,0.0,120.0,0.0,0.0,0.0,0.0,-107.0,0.0,-45.0,0.0,0.0,0.0,34.27253218749016,17.55503396713325,10.457704869512266,9.712830202874473,9.239099557034656,8.696975270475665,7.956249843254411,6.95437409122515,5.645715640974311,4.167225819539142,2.749937093274318,1.5668293254938335,0.7472421331669135,0.29599149031655714,0.09960101040804924,0.030101636860461297,0.007630604423016107,11.245412406162348,10.807011306564187,10.515656999414471,10.171043830709953,9.67739071811178,8.958264521352632,7.910812833453016,6.544135041667918,4.985537374318109,3.3955059406810917,2.0121402724728443,1.028383790304017,0.4606996153754341,0.1895277919195096,0.07036419534502619
0.0,57.0,57.0,0.0,120.0,0.0,0.0,0.0,0.0,-107.0,0.0,-45.0,0.0,0.0,0.0,34.27253218749016,17.55503396713325,10.458014490932356,9.713087361620893,9.238247686061502,8.689228317068252,7.929009910284699,6.896628090365269,5.556143911620696,4.058230813002979,2.6431666159008955,1.4828960611908855,0.6954380707799429,0.2711274114181648,0.09016428736894615,0.027129701656982044,0.006886779279171959,11.248026337793812,10.8095844394334,10.517558125173801,10.168523089605161,9.661058307126583,8.916573781664185,7.835067828465184,6.434723324527659,4.855831286763814,3.2689019549003104,1.91229609573383,0.9654672189566834,0.42864508973065263,0.17577880105628757,0.0655369028893291
0.0,58.0,58.0,0.0,120.0,0.0,0.0,0.0,0.0,-107.0,0.0,-45.0,0.0,0.0,0.0,34.27253218749016,17.55503396713325,10.458298505690276,9.713268673192344,9.236728769379235,8.67884386125523,7.89619260687131,6.831059213792757,5.457911529307137,3.9416799881439686,2.5316250267384746,1.3973088675661736,0.6439322648560349,0.24700766834155927,0.08120444179426865,0.0243534277045159,0.006199509547588292,11.250502377555316,10.811989962699815,10.518933483759756,10.164181141393119,9.64066695050744,8.868485020735747,7.750905906705675,6.316021513658885,4.7179973691575965,3.1372126926322705,1.8107393819741022,0.902854181205988,0.3973540959979852,0.16255725448342165,0.06094104264390148
0.0,59.0,59.0,0.0,120.0,0.0,0.0,0.0,0.0,-107.0,0.0,-45.0,0.0,0.0,0.0,34.27253218749016,17.55503396713325,10.458559862224671,9.713333630104488,9.234238286614337,8.66511153797578,7.856882443055071,6.756743370628035,5.35021611008864,3.817110656857956,2.4152602363560276,1.3102533307748874,0.5929055454462046,0.2237119833452898,0.07273750088908869,0.02177181293777963,0.005567171315787565,11.252841884182214,10.81420422376203,10.51959669868898,10.157547978989093,9.615533698782652,8.813173490195307,7.657392627826776,6.1872024538653365,4.571573904947445,3.000403319744646,1.7076653498529462,0.8407236590335256,0.36690863094854764,0.14988493738158104,0.056578350724528714
0.0,60.0,60.0,0.0,120.0,0.0,0.0,0.0,0.0,-107.0,0.0,-45.0,0.0,0.0,0.0,34.27253218749016,17.55503396713325,10.45880049720798,9.71320814318181,9.230348603699971,8.647168749264006,7.810037364306595,6.672632020578584,5.23216992407984,3.684047244913517,2.294059118143005,1.2219573628723985,0.5425556533487351,0.201320641882785,0.06477746964918944,0.019383001771228994,0.004987999869624705,11.255048810825443,10.816187501276332,10.519288433610544,10.148051876317057,9.58487399223045,8.749686467294056,7.5534583433865885,6.047350402457851,4.416089533010719,2.858481030701574,1.6033093052142884,0.779270317794227,0.3373922168174445,0.13778237582667802,0.05244992200425795
0.0,61.0,61.0,0.0,120.0,0.0,0.0,0.0,0.0,-107.0,0.0,-45.0,0.0,0.0,0.0,34.27253218749016,17.55503396713325,10.459019406123303,9.71276182869168,9.224470188703405,8.623977015409837,7.754463272351087,6.577524746723243,5.10279051003466,3.5420100368352787,2.1680598160644897,1.1326970975009623,0.49309735094023754,0.17991354448447586,0.05733597732838763,0.017184245526751008,0.004460064607476209,11.257128454862848,10.817870557023827,10.517651621111172,10.13500162891286,9.547779313880334,8.676912792774626,7.437875348670678,5.895453491717362,4.25107106910181,2.7115067186858792,1.4979517908270719,0.7187047896710897,0.3088892418686784,0.1262685418324239,0.048556165062929285
0.0,62.0,62.0,0.0,120.0,0.0,0.0,0.0,0.0,-107.0,0.0,-45.0,0.0,0.0,0.0,34.27253218749016,17.55503396713325,10.459212085567895,9.711776200259823,9.215808217256933,8.594296665976941,7.6887801216785725,6.4700363450961085,4.9609901838819415,3.3905272921379948,2.0373669645619645,1.0428032164482415,0.4447621981225557,0.1595690017786715,0.05042192152779612,0.015171868842495441,0.003981234196583884,11.259083971905413,10.819132398752194,10.514199867608564,10.117563419122845,9.503183681873642,8.59354216948392,7.3092304306744635,5.730398380780542,4.076055262094612,2.5596089922908964,1.391924110837133,0.6592536527231607,0.28148415243608654,0.11536053063208657,0.044896715243074564
0.0,63.0,63.0,0.0,120.0,0.0,0.0,0.0,0.0,-107.0,0.0,-45.0,0.0,0.0,0.0,34.27253218749016,17.55503396713325,10.459373035191067,9.709902247322857,9.203317659991043,8.556659628291076,7.611379098004768,6.348559771808069,4.805564742394686,3.2291507140365976,1.9021703221484585,0.9526677964370209,0.3977977742672607,0.1403622703511566,0.04404111071251321,0.013341243552323587,0.003549174936429298,11.260912450240985,10.81976886818053,10.508281192901288,10.094731920873475,9.449816855172955,8.498011762872107,7.1658905128831805,5.5509676905135485,3.8906057660377082,2.4030010902544383,1.2856141479538556,0.6011589814431415,0.2552604824666757,0.10507320847386505,0.04147030030701447
0.0,64.0,64.0,0.0,120.0,0.0,0.0,0.0,0.0,-107.0,0.0,-45.0,0.0,0.0,0.0,34.27253218749016,17.55503396713325,10.459499711414162,9.706602871351581,9.18565739183825,8.50933548442745,7.520368553118388,6.211226541998345,4.635183740485553,3.05747546076895,1.7627675647383674,0.8627513196699764,0.35246615637895845,0.12236382695014072,0.03819590718928532,0.011686771756320815,0.0031614304183799746,11.262605056638709,10.819454871452105,10.499043005528396,10.065297536160987,9.386145401678819,8.388440022962039,7.005959316193473,5.355840893893891,3.6943378129251663,2.2420015901203283,1.1794714954813184,0.5446775644286476,0.23029962489733397,0.0954189024420491,0.03827467532113493
0.0,65.0,65.0,0.0,120.0,0.0,0.0,0.0,0.0,-107.0,0.0,-45.0,0.0,0.0,0.0,34.27253218749016,17.55503396713325,10.459586999203854,9.701067438951748,9.161133870124095,8.450273930974996,7.413497751311634,6.055861822753843,4.44838705287247,2.8751686905070724,1.6195935934190209,0.7735899390897494,0.30904064272066184,0.1056376428345152,0.03288481209834249,0.010201884321576855,0.0028155336663200172,11.264152672473665,10.817700821537573,10.485401026731253,10.027806842145278,9.310299953957133,8.262545725821601,6.82721938353396,5.143593619206926,3.4869477027677753,2.0770580553712863,1.074016514795539,0.4900780792710335,0.20667981309708655,0.08640675106168878,0.035306425829217385
0.0,66.0,66.0,0.0,120.0,0.0,0.0,0.0,0.0,-107.0,0.0,-45.0,0.0,0.0,0.0,34.27253218749016,17.55503396713325,10.459602765184455,9.692090082406155,9.127623533306302,8.377003841592884,7.288045458821117,5.879931173099271,4.24359875130686,2.6820130661484707,1.4732534968572273,0.6858009583451886,0.2678018585366274,0.09023895657849149,0.028102122077823432,0.008879061679144666,0.002509009247415533,11.265543258123618,10.813790778579145,10.465998933307468,9.980497832380848,9.219977706523764,8.117552843974597,6.627069110924232,4.912710562295347,3.268264903536649,1.9087777085262772,0.9698413558468716,0.4376398022454638,0.18447412484677173,0.07804251176491052,0.03256125202316687
0.0,67.0,67.0,0.0,120.0,0.0,0.0,0.0,0.0,-107.0,0.0,-45.0,0.0,0.0,0.0,34.27253218749016,17.55503396713325,10.459440283396992,9.677915151979768,9.082464602951848,8.28647208352271,7.140659334320103,5.680467119118602,4.019164336673332,2.4779726552586436,1.3245603229602614,0.6000862641744986,0.2290322305772997,0.0762117788174794,0.023837640222644847,0.007709864188256045,0.002239190903537037,11.266733910540761,10.806686704359254,10.439132847272964,9.921176311100995,9.11229156787932,7.9500703407773505,6.402461346275533,4.661609883981012,3.0383142124906537,1.7379605263488789,0.8676148391106563,0.3876484515659127,0.16374876061233287,0.07032801729588982,0.030033907223208017
0.0,68.0,68.0,0.0,120.0,0.0,0.0,0.0,0.0,-107.0,0.0,-45.0,0.0,0.0,0.0,34.27253218749016,17.55503396713325,10.458862816893852,9.656083199201277,9.022326423645428,8.174832430746454,6.967155609053731,5.453966666809857,3.773407083513319,2.263286599162536,1.1745783225049335,0.5172328380935972,0.1930081470694284,0.06358630277720854,0.02007641507257099,0.006684987254512127,0.0020030735871927755,11.267590511012044,10.794896904752362,10.402617391561556,9.847002679860992,8.983528202060569,7.755921803441694,6.149858398870011,4.388698269230559,2.7973997693234858,1.5656370850202879,0.7680837434131836,0.34039105807124687,0.1445609307575064,0.0632606970974415,0.027717899223675336
0.0,69.0,69.0,0.0,120.0,0.0,0.0,0.0,0.0,-107.0,0.0,-45.0,0.0,0.0,0.0,34.27253218749016,17.55503396713325,10.457427071838628,9.623286734241459,8.94302990871938,8.037184460324275,6.762304201371478,5.196274660197835,3.5047003717047853,2.038598013594719,1.024672289588953,0.4381078722231217,0.1599895639436068,0.05237624088405069,0.016798547241929543,0.005794343210698267,0.001797615925768378,11.267832348921761,10.776357583296251,10.353614578520391,9.754209425022951,8.828805610687217,7.529879801494039,5.86519548382644,4.092473435589651,2.5462172771280525,1.3931097356834548,0.6720701753649861,0.29614922176477276,0.12695645199592137,0.05683309263804887,0.025605204337629084
0.0,70.0,70.0,0.0,120.0,0.0,0.0,0.0,0.0,-107.0,0.0,-45.0,0.0,0.0,0.0,34.27253218749016,17.55503396713325,10.454272459911328,9.575119284136992,8.83916012715599,7.867147626212376,6.5195751659307,4.902521766635442,3.2115926983479524,1.8051281984893732,0.8765595395618598,0.363644100302611,0.1302073866679021,0.04257601294213385,0.013979142509221545,0.0050271706547598384,0.001620149371196864,11.266983784537906,10.748336844436565,10.288415116707883,9.63776700284637,8.64166243416872,7.265283161735237,5.543838323866416,3.771700632039131,2.2860025474933745,1.2219951528765196,0.5804627073804862,0.2551905861742975,0.1109670255173259,0.051032379970786496,0.023686733438775316
0.0,71.0,71.0,0.0,120.0,0.0,0.0,0.0,0.0,-107.0,0.0,-45.0,0.0,0.0,0.0,34.27253218749016,17.55503396713325,10.447686943585555,9.505569750058056,8.703290204696835,7.656079863912695,6.230705451069843,4.5671993862269975,2.893072673603137,1.5648984609602226,0.7323555250354989,0.2948124919721287,0.10384801712064792,0.03415813330046386,0.011588415392086975,0.004372168841279428,0.0014678734193333052,11.264150114419104,10.707134140334029,10.201922563396383,9.490779610951659,8.413532072966168,6.953607444193714,5.180568532985598,3.425700924802614,2.0187252572211807,1.0542625490934172,0.49419942396889593,0.21775776477818898,0.09660727463428212,0.04584000727751242,0.021952572781862027
0.0,72.0,72.0,0.0,120.0,0.0,0.0,0.0,0.0,-107.0,0.0,-45.0,0.0,0.0,0.0,34.27253218749016,17.55503396713325,10.43459139449274,9.406310427981623,8.52492538256751,7.392011349446865,5.884935759438743,4.1843229007990645,2.5490725256503026,1.3210083304713305,0.5945972402922257,0.2325784152191379,0.08103503509969685,0.027071130919903794,0.009591958488892683,0.0038176642461726106,0.0013375727165257961,11.257549258204035,10.64740394348349,10.086615881974597,9.303235055082736,8.132797126922986,6.5841057341152585,4.769740070264463,3.0548032509676153,1.7473309075057282,0.8922521756925286,0.41424036715337487,0.18405484415388,0.08387168466948063,0.041231263784952045,0.02039134255506753
0.0,73.0,73.0,0.0,120.0,0.0,0.0,0.0,0.0,-107.0,0.0,-45.0,0.0,0.0,0.0,34.27253218749016,17.55503396713325,10.409715935918989,9.26532174177162,8.28888622513371,7.05844905154769,5.46821120750261,3.747657822166565,2.1812910706374242,1.0779848710141189,0.4662216751159415,0.17783354652842762,0.06180945310433675,0.021238165181222804,0.007951271158385035,0.0033518051270589417,0.001226791920555756,11.244082322952197,10.561276913520134,9.93122262219821,9.060199531472076,7.782926061196176,6.143348297903116,4.305814087766352,2.661035785336318,1.4760197046080452,0.7386668397273028,0.34152344773797416,0.15423135826341802,0.07273138488897885,0.03717508671286486,0.01899026924791023
0.0,74.0,74.0,0.0,120.0,0.0,0.0,0.0,0.0,-107.0,0.0,-45.0,0.0,0.0,0.0,34.27253218749016,17.55503396713325,10.363783580252893,9.063622032636145,7.971652806054233,6.631916444503575,4.963030342435826,3.251644823323308,1.7944364804641324,0.8421628069225916,0.3504532165523392,0.13130093513344793,0.04610971857732985,0.016556993251325237,0.006624547454473332,0.002962781707517542,0.0011329861206160789,11.218362109503053,10.436188382688373,9.717994113181255,8.739430329440424,7.340019588317194,5.614576535902116,3.784590881058863,2.249188275167692,1.210528830776592,0.5965026163690244,0.2769015531331295,0.12836372196727067,0.0631311506410978,0.03363404763963577,0.017736376424185407
0.0,75.0,75.0,0.0,120.0,0.0,0.0,0.0,0.0,-107.0,0.0,-45.0,0.0,0.0,0.0,34.27253218749016,17.55503396713325,10.28063839756479,8.769652921532044,7.535962018679283,6.077102236970097,4.348410688047338,2.694199954298395,1.398108116629908,0.6219468899796248,0.2505404213011778,0.09341191920335741,0.03375496374992128,0.012901804967324739,0.0055677590807941425,0.002639071633938301,0.001053661418077701,11.170767899436731,10.250231801175492,9.416187679188642,8.305222816988431,6.7702022432017515,4.977952780173447,3.2056849149541806,1.828339792396477,0.9583195846003298,0.4688827197660918,0.22105587285483708,0.10643539014174558,0.05498694420322203,0.030564612272738108,0.016615263670273227
0.0,76.0,76.0,0.0,120.0,0.0,0.0,0.0,0.0,-107.0,0.0,-45.0,0.0,0.0,0.0,34.27253218749016,17.55503396713325,10.129564352822669,8.325691247438368,6.91980759297309,5.3429230166318575,3.601472311571547,2.0824980342396526,1.009500200939068,0.42762201459737464,0.16926562764509281,0.06416505039443819,0.02443670278972665,0.010127541740585215,0.004736044617558459,0.002369706335939325,0.000986754269137179,11.08293418417141,9.961757888193226,8.97171234626365,7.6966192418429005,6.02487922650239,4.2141813114206705,2.5774730732657303,1.4137575337275678,0.728447019474675,0.35874257383985886,0.17438709075117137,0.08831732137942465,0.04818457254370065,0.02791789822031296,0.015612808018203536
0.0,77.0,77.0,0.0,120.0,0.0,0.0,0.0,0.0,-107.0,0.0,-45.0,0.0,0.0,0.0,34.27253218749016,17.55503396713325,9.842863928487832,7.617585266515013,6.012134793405199,4.3579268206311506,2.7104158762539177,1.444448615442525,0.656052542905854,0.27004523289830606,0.10817810606358835,0.04299881793511053,0.017726476708358595,0.008077145699467669,0.004085381406924006,0.0021445595072238726,0.0009305564812627029,10.913171943153504,9.481803174560604,8.274876951557012,6.809755034534483,5.0388164856947855,3.3165028635396703,1.926219797607859,1.0284286012696688,0.5307118980621399,0.2683192406992837,0.13689188795472249,0.07375298994251357,0.04258044133057783,0.02564101976214111,0.014715096132129738
0.0,78.0,78.0,0.0,120.0,0.0,0.0,0.0,0.0,-107.0,0.0,-45.0,0.0,0.0,0.0,34.27253218749016,17.55503396713325,9.231062825878485,6.385492776380978,4.621658052578367,3.050442212547224,1.7166371641387947,0.8486677707250512,0.3740565687051115,0.15722932553890434,0.06666303438327606,0.028745495262243376,0.013107891461877729,0.006591595358919892,0.003574496531523352,0.0019546660568806233,0.0008837092800106642,10.539166244917164,8.58144660514393,7.088275259140341,5.467321672748964,3.7568180201417456,2.325942068484692,1.308752116990553,0.7017234181218615,0.3734998160304624,0.19845555593253983,0.10805391802309974,0.06235423975035347,0.038005744992635565,0.023679270774934404,0.013909100162927046
