Line_number,Fiducial,Easting,Northing,Height,Elevation,tx_pitch,tx_roll,tx_yaw,txrx_dx,txrx_dy,txrx_dz,rx_pitch,rx_roll,rx_yaw,PX,PZ,S0X_time_1.086e-05,S0X_time_3.256e-05,S0X_time_5.426e-05,S0X_time_8.680e-05,S0X_time_1.411e-04,S0X_time_2.279e-04,S0X_time_3.689e-04,S0X_time_5.860e-04,S0X_time_9.115e-04,S0X_time_1.411e-03,S0X_time_2.192e-03,S0X_time_3.418e-03,S0X_time_5.339e-03,S0X_time_8.301e-03,S0X_time_1.338e-02,S0Z_time_1.086e-05,S0Z_time_3.256e-05,S0Z_time_5.426e-05,S0Z_time_8.680e-05,S0Z_time_1.411e-04,S0Z_time_2.279e-04,S0Z_time_3.689e-04,S0Z_time_5.860e-04,S0Z_time_9.115e-04,S0Z_time_1.411e-03,S0Z_time_2.192e-03,S0Z_time_3.418e-03,S0Z_time_5.339e-03,S0Z_time_8.301e-03,S0Z_time_1.338e-02
0.0,0.0,0.0,0.0,120.0,0.0,0.0,0.0,0.0,-107.0,0.0,-45.0,0.0,0.0,0.0,34.27253218749016,17.55503396713325,1.7291510712267413,1.537180850809861,1.4701932317837818,1.4341297809817002,1.3122162145232943,1.1927777847495458,1.1011156850355204,0.9839781097582626,0.9210419899337546,0.8070146843496285,0.6182677511187128,0.4886863241730731,0.25143585397427143,0.19908622623635724,0.2365663768818919,3.281535928012579,2.973516606884266,2.8537533425823565,2.8107043839588592,2.7076417486129825,2.5463146369820047,2.3696410899670832,2.205097275816157,1.9859144294388975,1.7758076083329888,1.497838025002891,1.2279879626911652,0.9850966851612889,0.7501900258857335,0.5461127778361468
0.0,1.0,1.0,0.0,120.0,0.0,0.0,0.0,0.0,-107.0,0.0,-45.0,0.0,0.0,0.0,34.27253218749016,17.55503396713325,1.6233969051987027,1.3561121040739066,1.3307794270558873,1.2795125586653602,1.0917474130871005,1.1129507945712054,0.9779923160898446,0.8649777548719149,0.7362725249316914,0.6588612229165324,0.51914254888299,0.4125469783176973,0.2944568168856733,0.23010315810898613,0.11095707636734628,3.0790338362851344,2.7546480496095507,2.71600471959191,2.613527185658014,2.5172839930940873,2.4082442641139283,2.212011871505991,2.0437348329475253,1.8416238561617715,1.6846246692027118,1.4135673617124207,1.1714290661282405,0.9334543561289244,0.7400328788116534,0.5198486770088269
0.0,2.0,2.0,0.0,120.0,0.0,0.0,0.0,0.0,-107.0,0.0,-45.0,0.0,0.0,0.0,34.27253218749016,17.55503396713325,1.529529765461593,1.122622681555128,1.1640163753179305,1.1198931048425693,1.05221668953601,0.9512259374574901,0.8900266227491342,0.7441823528204252,0.7218068232198873,0.5802034579958467,0.4747596795025062,0.3308432009381209,0.15487524754858728,0.198480562877863,0.11625753083966017,3.1073199334121995,2.629946521176057,2.5287075191385515,2.4790240618656045,2.3287931589183573,2.2433634439443613,2.055926300768909,1.8659109443411361,1.724998313301579,1.5465390072686256,1.319054206964336,1.097087615699097,0.8960296373849627,0.668742844515312,0.46301425443385874
0.0,3.0,3.0,0.0,120.0,0.0,0.0,0.0,0.0,-107.0,0.0,-45.0,0.0,0.0,0.0,34.27253218749016,17.55503396713325,1.5842728715432932,1.1273023832255655,1.0395761970082282,1.0112848807073358,0.9985808053492283,0.9335145547252925,0.799237171527879,0.7223683057000613,0.6257271713027452,0.5533848506985638,0.3936713757700854,0.4021958967037845,0.251531747170456,0.1742155896420825,0.08359897084600729,3.0471725448077054,2.4765862519443496,2.373150206897699,2.2765818023304245,2.1873714773575963,2.030968048241734,1.886292785353081,1.7482314447597438,1.6207980836890719,1.4259301232723485,1.2381663816726534,1.0489875580419665,0.802456253616093,0.6894392927751226,0.4484465279287732
0.0,4.0,4.0,0.0,120.0,0.0,0.0,0.0,0.0,-107.0,0.0,-45.0,0.0,0.0,0.0,34.27253218749016,17.55503396713325,1.547444975237677,1.0249031676873268,0.9728016980597644,0.9534612268989168,0.8415706232967508,0.803556507877076,0.6715913395805448,0.697192849881714,0.5487061932265006,0.44853124239208003,0.4269616280170656,0.33673720387765077,0.19881890252971482,0.22224758375600037,0.11063028840682962,3.085736521939721,2.3556127241564946,2.2000885457975112,2.1179053697970214,2.0116995255437846,1.9032061353756669,1.7794929265558068,1.6541431872818444,1.5193148424844765,1.3423869207315628,1.1560802116855786,0.9836658051453171,0.7911045225980338,0.5833435510241609,0.46463563133286284
0.0,5.0,5.0,0.0,120.0,0.0,0.0,0.0,0.0,-107.0,0.0,-45.0,0.0,0.0,0.0,34.27253218749016,17.55503396713325,1.5126618653330326,0.9534085283572462,0.8691719728828159,0.8437163361619502,0.7535896688638485,0.754324116273731,0.709624789040414,0.5636375548238063,0.5214176611112081,0.4932987143557661,0.37669377521412756,0.321427411794183,0.2848525310703386,0.15507099638313898,0.14101012477994612,3.105367410677363,2.2745352875679012,2.0661764743338096,1.947228792932926,1.8631617883582334,1.751854635520549,1.6748930256060268,1.550896583356316,1.3569803137504324,1.2719930931789287,1.083540308875184,0.9227976964424579,0.7682376933753459,0.5941967704403679,0.44271662994338384
0.0,6.0,6.0,0.0,120.0,0.0,0.0,0.0,0.0,-107.0,0.0,-45.0,0.0,0.0,0.0,34.27253218749016,17.55503396713325,1.5540313645139305,0.9785029020690131,0.7930684667180448,0.7574069831947556,0.745267569854374,0.5983700643916327,0.654707563568126,0.5932816232895056,0.5499480741128181,0.40624128703510387,0.39705113876334935,0.3043664086462677,0.21048890325054867,0.19001665397137876,0.07010536822320375,3.1594535258073,2.196924507900933,1.948489219361451,1.8417305970171147,1.7864367493391942,1.6528189753360176,1.5101839091306457,1.4567705607616197,1.3363200200544934,1.1854872500559042,1.04724972050979,0.8394496256720706,0.701577391946022,0.5253013858360616,0.4336195143599738
0.0,7.0,7.0,0.0,120.0,0.0,0.0,0.0,0.0,-107.0,0.0,-45.0,0.0,0.0,0.0,34.27253218749016,17.55503396713325,1.6001821510869971,0.8707390720262309,0.7481488098090713,0.6870084323639425,0.7102368139253673,0.6118685334319067,0.5895826555704956,0.46380327149230205,0.5393167806325265,0.35510264129637165,0.24736810149713337,0.28709889296431235,0.19699525867886206,0.13035473948554116,0.1246305547802039,3.1939244425186986,2.187938280054353,1.8558387343534193,1.709513762177633,1.676149642519777,1.567570394769906,1.4381699999283228,1.3698578417959932,1.2613767974092394,1.135320311313055,0.9700303111099285,0.8215308003364745,0.6574105841463908,0.47858399872807267,0.37355260236715443
0.0,8.0,8.0,0.0,120.0,0.0,0.0,0.0,0.0,-107.0,0.0,-45.0,0.0,0.0,0.0,34.27253218749016,17.55503396713325,1.6114394581324092,0.9558118590408017,0.7263838617139048,0.690708473764557,0.5394117617001972,0.5480114629402368,0.48848809531864523,0.4980972875565049,0.4754554343674966,0.338145016681404,0.28258808327355056,0.20661703163821196,0.16472260207519707,0.16020690483544398,0.2167110994648283,3.2714729970254646,2.147978578329366,1.818227736841994,1.6498655159202864,1.572616155227321,1.4863924215170887,1.3732295141797184,1.2575206591862467,1.1717308319352941,1.0211225986120964,0.9011713242930565,0.755433253585276,0.6522133587014055,0.45301031151040994,0.3931876243281724
0.0,9.0,9.0,0.0,120.0,0.0,0.0,0.0,0.0,-107.0,0.0,-45.0,0.0,0.0,0.0,34.27253218749016,17.55503396713325,1.6456170304653246,0.9320800060567678,0.719477704341349,0.6000311371885175,0.5161959671623157,0.47831223030536285,0.49694994106220913,0.4499648599073765,0.3347907662758276,0.2769597316029345,0.2137534569633202,0.301121779108116,0.21831783249053,0.1194859978962525,0.09910866575714566,3.2686483032219114,2.114104451766823,1.7817117833177571,1.5343237843716342,1.443228739301698,1.3652290028378469,1.2809043223735428,1.1824641238104803,1.0802369179662783,1.0001203788887112,0.8682125311799109,0.7121542244754303,0.5934234055993809,0.4513131432636202,0.3350515089474603
0.0,10.0,10.0,0.0,120.0,0.0,0.0,0.0,0.0,-107.0,0.0,-45.0,0.0,0.0,0.0,34.27253218749016,17.55503396713325,1.6685872351658542,0.8497738976782455,0.6845803764855802,0.5658251253849519,0.4869990308753769,0.41263757815113744,0.44096784109124454,0.41341630464910556,0.3585202734101884,0.2920811196778712,0.2712876657308297,0.14429491056901123,0.16272710208478536,0.1727499735040136,0.06454575209747114,3.30322581209843,2.178556214561037,1.7798568225211415,1.518027280459544,1.417068526954459,1.2796130121103741,1.1660917504371615,1.1121278523204128,1.0378039974610906,0.9594375788699742,0.8122088154725894,0.7010649474263196,0.5548390878561269,0.4637083137033649,0.3248523291616657
0.0,11.0,11.0,0.0,120.0,0.0,0.0,0.0,0.0,-107.0,0.0,-45.0,0.0,0.0,0.0,34.27253218749016,17.55503396713325,1.7382665977718663,0.8964176318898808,0.6191996582458122,0.5625080368421911,0.47098664095029513,0.44799566548604125,0.4244935174131132,0.35905557976113506,0.26517374878778566,0.33430586955619257,0.24127034601561778,0.21304445199908953,0.12308088777541099,0.10761371713849069,0.022175455617760235,3.345535467520786,2.178331990184785,1.7432986442629272,1.5158247251064607,1.3292178514726054,1.214169388689973,1.094502970684866,1.0397964810567315,0.9419075040799414,0.8623241049775573,0.7848691188979292,0.676471068513532,0.4967047948289259,0.4145530893579476,0.3280424377553026
0.0,12.0,12.0,0.0,120.0,0.0,0.0,0.0,0.0,-107.0,0.0,-45.0,0.0,0.0,0.0,34.27253218749016,17.55503396713325,1.7149809213756853,0.9771757992714954,0.6569592208958669,0.5198298736894453,0.5131926530267695,0.4051844292195915,0.384689747690911,0.3609858022918147,0.2969512331422939,0.2998994386369714,0.2068918887536604,0.06839180637966835,0.1275492843171983,0.1013000922176191,0.06466438539821656,3.35875860641366,2.230647445914397,1.6978606340281797,1.450854115369437,1.2385312252579153,1.1526756995968062,1.074578457249308,1.0071649341783604,0.8977821661977138,0.8217082070749288,0.7433759422193758,0.5876572644237354,0.48516838044834304,0.4044059441781906,0.30341896195308066
0.0,13.0,13.0,0.0,120.0,0.0,0.0,0.0,0.0,-107.0,0.0,-45.0,0.0,0.0,0.0,34.27253218749016,17.55503396713325,1.7056646377701914,0.888220447996269,0.6804681066215952,0.46441713382587063,0.38303938899179474,0.37660216464614193,0.29644616813109953,0.2734510919896269,0.2658913674333116,0.22364016534214498,0.19587361424643476,0.09525739781306919,0.19440972314835234,-0.00598659504751195,0.08275727093482527,3.4393763692061925,2.228546958426082,1.721769695603459,1.4031763192239204,1.188752083041431,1.108029494216071,1.0049825613965215,0.9414918718562554,0.8821479727785317,0.7830509948904664,0.7111647104935218,0.5820376866606785,0.4663107537674571,0.42811976545198893,0.2956858872697007
0.0,14.0,14.0,0.0,120.0,0.0,0.0,0.0,0.0,-107.0,0.0,-45.0,0.0,0.0,0.0,34.27253218749016,17.55503396713325,1.6872151119021914,0.9444328658597528,0.646836158493239,0.5106284013427302,0.4358033025309694,0.37496594959132534,0.336394323891714,0.2918288284023743,0.26817804587437394,0.20284889710414822,0.22450069148731566,0.2051555833594565,0.150636711732074,0.11589289206656142,0.0588259642394216,3.4431193103859012,2.2866712037801955,1.7541170279847942,1.3724782238111755,1.1785035996461553,0.9949681360335016,0.9565991846839155,0.9047987743361148,0.8362494291554391,0.7661986939706414,0.6735206775342722,0.5510483351341008,0.4995268227403307,0.3656542497583164,0.2768133951668232
0.0,15.0,15.0,0.0,120.0,0.0,0.0,0.0,0.0,-107.0,0.0,-45.0,0.0,0.0,0.0,34.27253218749016,17.55503396713325,1.745213088973827,1.0146371910354395,0.6631414088261602,0.4823691803813871,0.3868549217398388,0.3756890044641575,0.17924162360153645,0.2815023581926325,0.24009862094107284,0.22848875887361425,0.2059915161060615,0.15243925598644564,0.10089559006102247,0.09646730155778475,0.10810755240084405,3.4780113992945974,2.3295818906888517,1.7537435803203665,1.3711260322613763,1.0786541309199953,0.9665036031411559,0.8638879805303563,0.8277876114158945,0.7584495752285223,0.6905051397683549,0.6468018694407276,0.5480129426673871,0.41126408636128864,0.3405939372049147,0.2522730070675049
0.0,16.0,16.0,0.0,120.0,0.0,0.0,0.0,0.0,-107.0,0.0,-45.0,0.0,0.0,0.0,34.27253218749016,17.55503396713325,1.7775304271438022,0.9343220808145615,0.7184984644135614,0.44047336049341523,0.3301464667893048,0.3074951596410487,0.2859955363781165,0.3357321779893389,0.23777346668532914,0.2145243710505243,0.13005106011329973,0.12702158567701288,0.14427646605998157,0.12303477444834177,0.0626960981009283,3.5672873340901528,2.3654032842556054,1.7587644144428738,1.3482651445087361,1.0776147394795677,0.9898504015789963,0.8223370883037868,0.7499029842661673,0.7165617078821892,0.6789629359442202,0.5775336465333003,0.4695275410164304,0.3814639729160339,0.3412777041271427,0.27481405553373356
0.0,17.0,17.0,0.0,120.0,0.0,0.0,0.0,0.0,-107.0,0.0,-45.0,0.0,0.0,0.0,34.27253218749016,17.55503396713325,1.8061684354119176,0.9789880863794691,0.5969008307011012,0.49589415733857717,0.28080486002194754,0.34300993649038847,0.22842518756745764,0.3084504415368949,0.21917015311903487,0.09778388600460787,0.2187211736434849,0.10651476469709169,0.09792448106441476,0.04874659605094385,0.09175290480129897,3.6220134572071037,2.342976957052938,1.7629806928315284,1.393180085566222,1.1094248466406922,0.9173018274685184,0.8443539648141982,0.7371237455279517,0.7113150486286467,0.6186424574596509,0.5501532084367493,0.48117728451065295,0.3910742603389803,0.3124844416043452,0.27694465946978597
0.0,18.0,18.0,0.0,120.0,0.0,0.0,0.0,0.0,-107.0,0.0,-45.0,0.0,0.0,0.0,34.27253218749016,17.55503396713325,1.8763191684195597,1.0493849869621532,0.7355199503410148,0.4507834133961245,0.41701665928646664,0.24371676718993981,0.23617903795634881,0.19731882234856207,0.20657803200172736,0.13774256332862245,0.08793684845488606,0.14363021813390292,0.05404257641143779,0.1334266673916161,0.06443966570048577,3.6489426097591826,2.351200337574744,1.780967334515836,1.3424663491590396,1.053471903431058,0.8571744827254806,0.7764651553292495,0.6923798275943736,0.6778304114339758,0.6240387128683563,0.5083426488405949,0.4446213787444679,0.38082566262866235,0.311897297952728,0.2165655573893893
0.0,19.0,19.0,0.0,120.0,0.0,0.0,0.0,0.0,-107.0,0.0,-45.0,0.0,0.0,0.0,34.27253218749016,17.55503396713325,1.8610456175987204,0.9519725357372354,0.6795010661912968,0.46877043175303706,0.3030181095287913,0.10929148795286917,0.2699634230593579,0.18561523763980653,0.132423921556435,0.2135339031543951,0.14664098111567186,0.10479643395055797,0.05185810215589851,0.05576305487769747,0.04786868773827586,3.6996305558955838,2.418816373884801,1.7588320225215544,1.3517598705065101,1.0336849471220462,0.8141567147892178,0.7227376211912918,0.6414130913125785,0.6309469689779512,0.5680326036364416,0.5287374369012873,0.42410298256067624,0.37989064929610655,0.2873841532589702,0.2308418084673765
0.0,20.0,20.0,0.0,120.0,0.0,0.0,0.0,0.0,-107.0,0.0,-45.0,0.0,0.0,0.0,34.27253218749016,17.55503396713325,1.934772681954617,1.0331793765991213,0.7033100039212187,0.5015530349673375,0.26017233778127297,0.24746685669053636,0.13025599463398474,0.17384576501103186,0.16301360505460516,0.19461199468409285,0.10970701123249735,0.11556923303103424,0.060387975802902304,0.07012390021555437,0.11025634186256714,3.7357469419538223,2.409047249052937,1.8248121352562237,1.3722218132827135,0.9947570364918409,0.769188323686645,0.6995072934389385,0.6304401811374093,0.605391905302306,0.5238889787075366,0.44950412588831684,0.4179785089470809,0.3621285785975368,0.30739225533355174,0.20491984641396443
0.0,21.0,21.0,0.0,120.0,0.0,0.0,0.0,0.0,-107.0,0.0,-45.0,0.0,0.0,0.0,34.27253218749016,17.55503396713325,1.9466080421397658,1.035676341711425,0.665090699663829,0.43399834883309485,0.2736169595309389,0.24913101469982943,0.2559435855398857,0.1597638223639214,0.1223819045928082,0.10597050303124435,0.10422941740183389,0.06263371030797567,0.09064717533478078,0.07231319336242316,0.028887656230770418,3.7031550683776553,2.46183783759639,1.849439935936576,1.3581689564576584,0.9692191028237875,0.7871180338734918,0.6456009400152649,0.5834446254456742,0.53960681664736,0.5356903915915036,0.4762176256320977,0.3969922727386016,0.3142608252558668,0.2754389658122375,0.19224277599418266
0.0,22.0,22.0,0.0,120.0,0.0,0.0,0.0,0.0,-107.0,0.0,-45.0,0.0,0.0,0.0,34.27253218749016,17.55503396713325,1.9648321299532956,0.9917821994943744,0.7174475012810827,0.4611244803978496,0.33264475589304193,0.17067901904039845,0.15169618691094783,0.09592925719732481,0.09846211441676753,0.13536109748472971,0.08052664284248874,0.12141509458757063,0.0553574708171654,0.03431318976054093,0.04126882032210609,3.8087318046936782,2.4925002875732916,1.881198088958475,1.4119848252624496,0.9912727564343713,0.737245521154481,0.6231766863761603,0.6060022292891833,0.5348860890511884,0.4986732644216502,0.4230460933482381,0.35123241000782834,0.35186705523998685,0.24286982283306618,0.18333804912233798
0.0,23.0,23.0,0.0,120.0,0.0,0.0,0.0,0.0,-107.0,0.0,-45.0,0.0,0.0,0.0,34.27253218749016,17.55503396713325,1.9837336656701348,1.070232208052338,0.7422723127756162,0.5167216819763024,0.2923116064987015,0.16129190624588,0.18770279024211958,0.18758278340574258,0.14563917270866888,0.13591703646721706,0.0820013024927385,0.05037497130260906,0.12220769480186225,0.07572693489415042,0.05913845919346521,3.8391075518055326,2.5079054948189485,1.8978065587600432,1.4045617049064625,0.9635080221218318,0.740282074651182,0.5968642638900389,0.571835437201746,0.508717046986828,0.4504449485278255,0.4154512252761711,0.359531190778892,0.27379348310147666,0.2821004853228481,0.22244737054133185
0.0,24.0,24.0,0.0,120.0,0.0,0.0,0.0,0.0,-107.0,0.0,-45.0,0.0,0.0,0.0,34.27253218749016,17.55503396713325,2.0301075983687307,1.0244671903215257,0.7833701537926907,0.48589489731514096,0.2650571311585983,0.20623362918167795,0.193346869287651,0.1145061089548713,0.11519299040208987,0.11073990462372825,0.1221411839463468,0.0581066746582979,0.05530921119273929,0.07357412347739188,0.04421779661839123,3.9142110841292768,2.5205835756257025,1.9138769618357696,1.4225490448902742,1.0247257637838127,0.70033909476843,0.6078353739494924,0.519260636127,0.49670395022573777,0.44579356939185266,0.3673736811494913,0.35007624159433465,0.2783728370636449,0.23722744923390052,0.17612359286601237
0.0,25.0,25.0,0.0,120.0,0.0,0.0,0.0,0.0,-107.0,0.0,-45.0,0.0,0.0,0.0,34.27253218749016,17.55503396713325,2.0435185113518206,1.0858786808185446,0.7218870950592807,0.4742550169804142,0.289452644344576,0.16968115117762905,0.19660903085759512,0.15879176604143996,0.09902119263195532,0.0928884805432879,0.03288052487313091,0.02246420304548969,0.11826467283264266,-0.006335665300571905,0.09888320724109352,3.97462864042291,2.551777231934423,1.9808986334050072,1.3800932174036344,0.9870088086295008,0.706603751190652,0.5811981721024165,0.5497078311824474,0.43436335405370635,0.4209331673501154,0.36655608711671595,0.33812756689358425,0.27331256586295727,0.23061192749713705,0.17918642029760365
0.0,26.0,26.0,0.0,120.0,0.0,0.0,0.0,0.0,-107.0,0.0,-45.0,0.0,0.0,0.0,34.27253218749016,17.55503396713325,2.028306667990626,1.0513926905296893,0.7298953695005193,0.41558517027613506,0.3682696405280511,0.24548165591803184,0.12727046034271178,0.1555191956996696,0.08553378965408061,0.10467548656301107,0.06672569064111193,0.06467677444883921,0.051772155429314404,0.07117381544423634,0.001667250152472391,4.017323989496271,2.5494991357116756,1.9603580703940593,1.4199997139130263,1.0225792250229062,0.7680105575102958,0.5263889094674481,0.491596583158835,0.47937950069266555,0.42405273264221294,0.34545968279046646,0.32245897354654707,0.24607766684924667,0.2190116338220253,0.13828866931093436
0.0,27.0,27.0,0.0,120.0,0.0,0.0,0.0,0.0,-107.0,0.0,-45.0,0.0,0.0,0.0,34.27253218749016,17.55503396713325,2.124468902913297,1.04387574792374,0.7981989199541143,0.48635584320325687,0.37451307718751886,0.19990201287226722,0.17898715546248462,0.0841856013108814,0.06289425370482811,0.10203713239098006,0.052339231150187585,0.07099094412142082,0.054345293945677595,0.033059263052609346,-0.01998479810819192,4.031473725541398,2.61845386976396,2.02430866890699,1.4403053217455726,0.9998790575771754,0.6649835479175175,0.5624077603996174,0.4081876142122114,0.417302472552899,0.40348226696638684,0.3520691971751919,0.30172048470637625,0.2902124118325429,0.19838869520984817,0.15754778821689147
0.0,28.0,28.0,0.0,120.0,0.0,0.0,0.0,0.0,-107.0,0.0,-45.0,0.0,0.0,0.0,34.27253218749016,17.55503396713325,2.118509518932545,1.1942664693682028,0.8051401352839934,0.49885294230175586,0.3027595010915131,0.1937538066288238,0.10533799872524495,0.171945004213011,0.03831278379771448,0.1192151366855347,0.12041369218929682,0.022669208067024917,0.010626017889123422,-0.020858577627559695,-0.03077558332176391,4.098412492931666,2.644902761426482,1.9672216812262966,1.4566442993406428,1.0111623230364073,0.7255849283524087,0.5224056249733204,0.46160424454053167,0.42279803912997715,0.3783977497850624,0.3168597618512744,0.35473030880078754,0.27905174081150275,0.2217050294594258,0.1648477623303999
0.0,29.0,29.0,0.0,120.0,0.0,0.0,0.0,0.0,-107.0,0.0,-45.0,0.0,0.0,0.0,34.27253218749016,17.55503396713325,2.134975706610935,1.1788315344703904,0.7448222260202515,0.47458311334725745,0.36266364040509463,0.11446024018718325,0.10541799380686387,0.10206727302166559,0.07725433631855574,0.07942826290845084,0.07459996119839721,0.05097977098276177,0.0723454668716669,0.07382511324026986,0.04411308991209192,4.153542985718254,2.6299044708254153,2.060728780903867,1.5306931296402315,1.0019033625622835,0.6534137346170118,0.51130848781103,0.4696248149496728,0.3934119026868049,0.3453849442498863,0.30596951733699657,0.2623786144618589,0.27357732178001926,0.13750636353735465,0.15611282522532172
0.0,30.0,30.0,0.0,120.0,0.0,0.0,0.0,0.0,-107.0,0.0,-45.0,0.0,0.0,0.0,34.27253218749016,17.55503396713325,2.1912459209603985,1.1482158243662874,0.833494312823435,0.5180473394485394,0.35894427663169953,0.24285367586394457,-0.0008264678583748963,0.04135547251660026,0.06850195376992174,0.1126762235885024,0.019572462321303122,0.04710400438307811,0.12218585677270016,0.055860414859964715,0.06427806217961356,4.162912493005196,2.7232904689315807,2.0627099708628824,1.5121219223699403,1.022010133971247,0.6896456624072186,0.47078777174905895,0.40209008079799424,0.3592165173431314,0.35633320680911335,0.26796713894734364,0.21288758268996702,0.2260924741535126,0.1863283022799478,0.1518386583339394
0.0,31.0,31.0,0.0,120.0,0.0,0.0,0.0,0.0,-107.0,0.0,-45.0,0.0,0.0,0.0,34.27253218749016,17.55503396713325,2.2375144730388103,1.1848550533603133,0.7651951679995721,0.5554212488826961,0.26123090010329825,0.16926930536238285,0.12564711280906363,0.10862310527380581,0.07676607594848599,0.02857734761012979,0.019124891189559012,0.06173769927965893,0.030001106656492922,-0.008279362060810022,0.07299208681670635,4.230145207667082,2.7325773814870646,2.0376693902524035,1.5493721298734142,1.0328986145529284,0.7062354607201975,0.5022584495488738,0.3963396965568754,0.36646659900170026,0.3429823654290849,0.29003681982855656,0.26097685060754405,0.2221145581670289,0.2133868133304955,0.14124573235656446
0.0,32.0,32.0,0.0,120.0,0.0,0.0,0.0,0.0,-107.0,0.0,-45.0,0.0,0.0,0.0,34.27253218749016,17.55503396713325,2.241977824736904,1.1613869209948957,0.7427249328349551,0.4568773343371523,0.3259745074430413,0.2064271352051922,0.12934355838380912,0.12684383372823732,0.09896592935926334,0.05442808184580797,0.04377599522169892,0.10564590328882165,-0.0028190416992381756,-0.01317989545909068,-0.009229774713019834,4.280353206322456,2.7592994283239265,2.1030956456362135,1.5286344030733012,1.036343384397274,0.7116906918602104,0.4626087932663898,0.38677532790112396,0.3298401636389996,0.2939683724155546,0.30773435101168184,0.2656991107091787,0.22888460121522547,0.17951725825233497,0.1519911071004552
0.0,33.0,33.0,0.0,120.0,0.0,0.0,0.0,0.0,-107.0,0.0,-45.0,0.0,0.0,0.0,34.27253218749016,17.55503396713325,2.295038972819057,1.208377711566118,0.7825996519002459,0.4980493762425954,0.3553952693927278,0.2298335488142146,0.14180010148096617,0.07477784012573649,0.0730249729236168,0.10474481992431468,0.09909617089299061,0.04229917347382559,0.03373532393465273,-0.009931026687451494,0.03433112023447861,4.260648509010546,2.753702785510803,2.0779868827096863,1.5540660532733748,1.0908051345747634,0.7124166613983851,0.4746088439262686,0.40519105853558957,0.33214476958165284,0.3155282283864737,0.2772636733587797,0.21012665967296187,0.18385266704709716,0.15683641515544688,0.15129509715227696
0.0,34.0,34.0,0.0,120.0,0.0,0.0,0.0,0.0,-107.0,0.0,-45.0,0.0,0.0,0.0,34.27253218749016,17.55503396713325,2.1820130306785694,1.1935911966048707,0.8130809237939868,0.5370865945386424,0.3612264478443652,0.1952705003497955,0.12658854529906705,0.12903292218597218,0.017548424058534434,0.07804438454758966,0.05202877523545629,0.03928422981501501,0.0018894398560233769,-0.030472198500025284,0.06519095905717101,4.3278823096435355,2.7670103934844885,2.1360222500150066,1.5459824449593227,1.0424526050984257,0.6915590969081442,0.4844773853570024,0.33890307074524767,0.33426692363135035,0.2756454505736154,0.25890854738332836,0.18631487363738758,0.2181955653179572,0.15139613182489986,0.15635276941512025
0.0,35.0,35.0,0.0,120.0,0.0,0.0,0.0,0.0,-107.0,0.0,-45.0,0.0,0.0,0.0,34.27253218749016,17.55503396713325,2.3296499735216933,1.2137198232053747,0.7963621437381987,0.49818034142678413,0.35112032204806504,0.2045410168652869,0.14902181526251945,0.10047667010209926,0.0917626836115958,0.0866652272137109,0.04614533480182873,0.07841374528737748,0.0218346040861465,0.03587052204221615,0.023217218006094404,4.395909865171142,2.8337762414121084,2.166990146199512,1.5696045113890167,1.0938979664692223,0.6676024936393198,0.41823513392803924,0.36549921694908477,0.31537504939270516,0.284663914710137,0.22247323578859718,0.22718153542051034,0.16618188565973344,0.1624928688111484,0.11107469459124254
0.0,36.0,36.0,0.0,120.0,0.0,0.0,0.0,0.0,-107.0,0.0,-45.0,0.0,0.0,0.0,34.27253218749016,17.55503396713325,2.3908453181474285,1.2250600456968725,0.8429187078898227,0.4862916772730231,0.24886851343304267,0.2096915194100479,0.11958423493045114,0.119343249059042,0.10650524062109243,0.04355861513245225,0.05627012148717118,0.0506359898312331,-0.014240109665744183,-0.008232094542233524,0.013233264671985705,4.428009384886791,2.866892740626749,2.153179841463853,1.5882588086306821,1.0870785698311538,0.7148992326609487,0.4730425638461608,0.35835145577678595,0.30401759749790175,0.24898142067832796,0.21877981111934203,0.22531801646907743,0.1812671649330785,0.1511559710523538,0.11936790255008027
0.0,37.0,37.0,0.0,120.0,0.0,0.0,0.0,0.0,-107.0,0.0,-45.0,0.0,0.0,0.0,34.27253218749016,17.55503396713325,2.414264990787635,1.339471107144818,0.8575093549300586,0.5848645005541466,0.32339000488735253,0.12282198947022727,0.0870080530513874,0.07086884023600876,0.04438134782065699,0.07711962244631201,0.05075570170470216,0.028495033798564884,0.016404339812925165,0.015120027909081814,0.0055924863662721695,4.474386487077516,2.9575265847162493,2.2019768621689266,1.603616696809001,1.1061901759788664,0.7039659585401076,0.46784801629638967,0.2964525562031224,0.3158815321911226,0.28316627750321943,0.22363528833999238,0.19896001647402223,0.1845492800688934,0.14172656313660706,0.09741482984054267
0.0,38.0,38.0,0.0,120.0,0.0,0.0,0.0,0.0,-107.0,0.0,-45.0,0.0,0.0,0.0,34.27253218749016,17.55503396713325,2.3713615985016685,1.2569614763297396,0.8502658832031096,0.5852186093006487,0.33065742312635715,0.16913934706591913,0.04968763634465635,0.07105801515122825,0.05838184173649936,0.07241467066238684,0.13236935823519194,0.029589871636470512,0.07932884789663885,0.007469740413631833,0.0530607409234601,4.513424913386107,2.9083961086581405,2.2772134070218497,1.5799458190416151,1.0665455039880403,0.7323109926073328,0.45281656541158916,0.3379576234054547,0.2951648351339607,0.23632645682684686,0.19742935374963916,0.18520170748277195,0.17254232636414776,0.11794821834409418,0.1278306906328106
0.0,39.0,39.0,0.0,120.0,0.0,0.0,0.0,0.0,-107.0,0.0,-45.0,0.0,0.0,0.0,34.27253218749016,17.55503396713325,2.482516887225031,1.2782298596815729,0.8080455717531724,0.6232087643871325,0.2601884352151813,0.16107529203136917,0.10866882603887427,0.04775385635600264,0.10067591449154303,0.11718965573142501,0.03961195034559028,0.046840161448136214,0.026915398287193068,0.06968802164452967,-0.025206084954919012,4.583074234666657,2.9248258863956114,2.2204388689313546,1.6172175389878891,1.1415008793572743,0.7195881504670162,0.4856224345424569,0.3067132519311668,0.3057502853327359,0.17357692690127446,0.1959636378801,0.21811362937843407,0.1544097011555942,0.11343871503986364,0.12127824489424383
0.0,40.0,40.0,0.0,120.0,0.0,0.0,0.0,0.0,-107.0,0.0,-45.0,0.0,0.0,0.0,34.27253218749016,17.55503396713325,2.47749262644786,1.2544670583231479,0.8688294522351263,0.6032048985591718,0.3352992894229664,0.1970934889313416,0.09493419773888265,0.01607838479296729,0.05688441699950081,0.02188036649449214,0.04562819150029738,0.05392601462693519,0.025987635628988204,0.0014011268083211556,0.06214747814130295,4.5756525500092025,2.9700266334792613,2.2298952708956707,1.6219293813460633,1.1382386091920393,0.7239098745724089,0.48475009865833535,0.3224678883571182,0.2501731605174841,0.21528867625550085,0.2491792944549791,0.20196447723274372,0.16079476438604112,0.16519469403036938,0.09983682147436497
0.0,41.0,41.0,0.0,120.0,0.0,0.0,0.0,0.0,-107.0,0.0,-45.0,0.0,0.0,0.0,34.27253218749016,17.55503396713325,2.563496412611333,1.263077029657528,0.879711417363486,0.5892423111890994,0.45000646586860865,0.17393491957684665,0.12549912529597002,0.0760849845417796,0.07429960888448456,0.005514275454873631,0.055304540195813,0.05037982295193007,-0.021090703425424014,0.01082052761673005,0.06956608832916174,4.6292537182603475,2.9734384951819752,2.299979971534617,1.6748169927370413,1.1709982724476178,0.7365038414127152,0.46516783535690864,0.35135427644404,0.2620175736714276,0.22658953768748297,0.20057314126668963,0.21528725677986016,0.15293167783560443,0.12125887182656142,0.12810882381739172
0.0,42.0,42.0,0.0,120.0,0.0,0.0,0.0,0.0,-107.0,0.0,-45.0,0.0,0.0,0.0,34.27253218749016,17.55503396713325,2.566727049995233,1.401956587344568,0.8867638836357614,0.5726797949798746,0.36396182420367745,0.19894687838094235,0.027402158492170647,0.08900832456087637,0.11068358532167172,0.02620399958674123,0.023918977906057626,0.01760520391624855,-0.0030177572108334126,0.0018932528218737303,0.09997573826898978,4.681708452180481,3.031725693313968,2.3258804983078702,1.694543180720834,1.1740005174059256,0.7190789530054057,0.4961943373210194,0.2903459386456895,0.24709756229224641,0.18094959302293995,0.18084746594946538,0.15128718395444787,0.14674543988198407,0.12880451201465837,0.12412969654204412
0.0,43.0,43.0,0.0,120.0,0.0,0.0,0.0,0.0,-107.0,0.0,-45.0,0.0,0.0,0.0,34.27253218749016,17.55503396713325,2.5973115950281676,1.4376757632519888,0.869272096234225,0.5929154015973291,0.35532466331243373,0.24349349813617746,0.16423114606835593,0.07888721036543558,0.04860619989514893,0.046975438178426365,0.012117185557661149,0.06732922749641582,-0.043538659109744665,-0.015980281356691252,0.011331834238419398,4.734157410553424,3.06830309498671,2.281235580671267,1.6959607854279857,1.1968082670180176,0.7414734803208529,0.45374274421985344,0.32686123004206974,0.23852828005072846,0.17014065311462157,0.20461921038800415,0.1557868634403591,0.15336449514125233,0.1155281866247688,0.09360177550734107
0.0,44.0,44.0,0.0,120.0,0.0,0.0,0.0,0.0,-107.0,0.0,-45.0,0.0,0.0,0.0,34.27253218749016,17.55503396713325,2.596827565963883,1.3618455587315823,0.9331193629331607,0.598175435868764,0.4003395760865378,0.1522804467841448,0.10498137529632633,0.08812682572286987,0.011278440956243654,-0.023193663680599615,-0.006346736043919644,0.04413299997586847,0.036526414574540055,0.025138895288205114,-0.01029205868670703,4.797796457660406,3.0540198492714827,2.33067888815313,1.7166994628698269,1.1216277994127772,0.7585167522324863,0.45165175203982216,0.28708700155690153,0.1898840370837885,0.22555177363683024,0.1915141126659778,0.1567708723509894,0.15029069295863645,0.1550398874741435,0.1127430571195251
0.0,45.0,45.0,0.0,120.0,0.0,0.0,0.0,0.0,-107.0,0.0,-45.0,0.0,0.0,0.0,34.27253218749016,17.55503396713325,2.6976417800307275,1.3780533743693144,0.9330355079212778,0.5713922718930404,0.3586950548275375,0.21868824701304054,0.1468757822387209,0.059767475271271596,-0.03138682805734441,0.030623265762856348,0.018145784038815074,-0.008203840301889746,0.04057958858279079,0.0479544271101921,0.044741684396941865,4.816111989820258,3.0798877007800223,2.3821247671187216,1.7556174685317898,1.2068535108008054,0.7589094367240012,0.49239787762349824,0.2803122021853917,0.22266033749287562,0.20474003076296854,0.15916920445659408,0.15625674777428986,0.1015660214460688,0.11021264221498978,0.11498801724523712
0.0,46.0,46.0,0.0,120.0,0.0,0.0,0.0,0.0,-107.0,0.0,-45.0,0.0,0.0,0.0,34.27253218749016,17.55503396713325,2.7156988664070436,1.4034374924656483,0.9081726348983159,0.5667077785385394,0.357040179413779,0.22844369568163386,0.12395765916620165,0.10514165737771917,0.059824248687835854,0.05707040890485075,-0.00022800766566106329,0.044752080632790806,0.04943261104532401,0.038424980380518024,0.026165680547442706,4.8929911013297405,3.134666073293466,2.3428591901846856,1.7716318938850404,1.1955868161280012,0.7243406921841261,0.5139616264090956,0.29391986804259124,0.24374717161551335,0.2053339111319833,0.17602944492218642,0.15783810190182615,0.11182020121200764,0.1320809586588722,0.054740473116763215
0.0,47.0,47.0,0.0,120.0,0.0,0.0,0.0,0.0,-107.0,0.0,-45.0,0.0,0.0,0.0,34.27253218749016,17.55503396713325,2.7456740783233027,1.4253414825784323,0.9768074948502335,0.5967822143218648,0.3635804760114412,0.30481573715854227,0.09665238694077515,0.04908000286242267,0.003997012694375017,-0.004014592055234009,-0.016475476133533812,0.03307760674975941,0.04540642006383248,0.05015497318194322,-0.03643186899895254,4.934225149195562,3.147606927982819,2.3746516709849788,1.7690191291337531,1.2114270275111312,0.7279445260646437,0.4066933317049907,0.24953278746003413,0.23728595956390858,0.15461840016776854,0.16562621937619237,0.1404915417014164,0.14414728736516674,0.07901964904153344,0.10980000899657619
0.0,48.0,48.0,0.0,120.0,0.0,0.0,0.0,0.0,-107.0,0.0,-45.0,0.0,0.0,0.0,34.27253218749016,17.55503396713325,2.799244728242041,1.5085228341696268,0.9921827427425165,0.613265050803113,0.3517095489825191,0.22426530518253282,0.0785112463315396,0.06591682882389269,0.02221721926638267,0.027046214562204424,0.05707921934528609,0.032601651576277625,0.023493778994789747,0.010605767063024192,0.026861183560058413,5.005299228189823,3.200655042822871,2.3916831563560352,1.7988113056980963,1.2033934225399212,0.7586949712805549,0.5035373528530621,0.3050226603296997,0.1712064772856034,0.20666436156760523,0.16515253668215954,0.14661168256433654,0.11880550422138046,0.11436913814733944,0.0748708165178566
0.0,49.0,49.0,0.0,120.0,0.0,0.0,0.0,0.0,-107.0,0.0,-45.0,0.0,0.0,0.0,34.27253218749016,17.55503396713325,2.8003206914346226,1.4989631364775988,0.9871805708297995,0.7042926655036386,0.36198639145551215,0.1356279592764817,0.10432395071881806,-0.063629946544735,0.01554210251783969,0.04796647246053698,0.046243831307091254,0.000905980595757222,0.049158938638122096,0.027912938641942886,-0.01564156041165298,5.069133244107805,3.2630931928953357,2.404261272825704,1.818744433444014,1.216232862527309,0.7779143693976305,0.47324375831224036,0.294041708391868,0.20267882888028693,0.12691524024217934,0.15671245514318266,0.15254238251077465,0.08666934885895092,0.078770975786589,0.07227403346247548
0.0,50.0,50.0,0.0,120.0,0.0,0.0,0.0,0.0,-107.0,0.0,-45.0,0.0,0.0,0.0,34.27253218749016,17.55503396713325,2.8880503363730594,1.4940771930573056,0.9746678393468133,0.684637417568412,0.3478339184758841,0.2386557064946654,0.10355537010802845,-0.012787689047262157,0.054843373979142566,-0.038350800228774524,0.08838861714977134,0.008411753178848373,0.04786303799156544,0.022084390169462682,0.06099365756401091,5.118542329626285,3.280718594719327,2.5030464001427375,1.79707166150971,1.2400779437095721,0.7819866388490303,0.4853707370912687,0.31523532170282864,0.19472121632635192,0.16997968955690498,0.14687380399751562,0.11841883766358845,0.09360488701589029,0.11413873577048246,0.0462498265391704
0.0,51.0,51.0,0.0,120.0,0.0,0.0,0.0,0.0,-107.0,0.0,-45.0,0.0,0.0,0.0,34.27253218749016,17.55503396713325,2.957472737369042,1.5100834365738565,0.9669649218611444,0.5538136197001134,0.4442904783165562,0.1866474841912601,0.09630963015039673,0.09906164914493623,0.1060329694840296,0.03297181665410607,0.027900109963728173,-0.023520212332276413,-0.02961808285869774,0.007169901630565024,0.030913918723226227,5.156877816252513,3.3096699482494465,2.4686895110717004,1.7898801597641918,1.2570152765812936,0.8291838083368448,0.46937955707583934,0.3551156697549094,0.20818234367784805,0.15754556408832887,0.14379768725499037,0.11554079803811922,0.10023107057601882,0.08554908346908947,0.07917727816443483
0.0,52.0,52.0,0.0,120.0,0.0,0.0,0.0,0.0,-107.0,0.0,-45.0,0.0,0.0,0.0,34.27253218749016,17.55503396713325,2.958783207554063,1.507866055180741,1.0079218312203864,0.6457265778284765,0.3868443315665133,0.2618210236402481,0.1356435517076822,-0.004000517787547703,0.006194963186321935,0.020259558127278813,0.030937760309931835,0.010595579457783874,0.056790475598483096,0.009819012797693365,0.01807478350980151,5.190309656604311,3.3250234208067595,2.488236521882096,1.8472251210120216,1.223187681679819,0.7575084809188029,0.4843058448720752,0.2945307369776281,0.165686325145743,0.13041845955443415,0.13918775754763166,0.15707756809367843,0.14996542844534108,0.11992641328365855,0.04678496812871279
0.0,53.0,53.0,0.0,120.0,0.0,0.0,0.0,0.0,-107.0,0.0,-45.0,0.0,0.0,0.0,34.27253218749016,17.55503396713325,3.031527568576331,1.53509136076588,1.0295618679395868,0.6976116464507004,0.32944480508849416,0.24081049275104582,0.10002459904118124,0.026908508171083652,0.026806158590687253,-0.03795449066666779,-0.002695671660317877,0.05112472323088747,-0.05774879070027851,0.030156313216146216,-0.0171340894370101,5.2594889308311386,3.345070488959894,2.5068486632018043,1.8305342769009698,1.266327145524421,0.8178232620061582,0.5089454047333102,0.3357348087205655,0.22388072711038356,0.12423222141697532,0.07690065755100255,0.1341832159730404,0.14676770920761428,0.10352682936622173,0.03306390324054462
0.0,54.0,54.0,0.0,120.0,0.0,0.0,0.0,0.0,-107.0,0.0,-45.0,0.0,0.0,0.0,34.27253218749016,17.55503396713325,3.093326657703977,1.569467062305395,1.046687226459629,0.6409977610740493,0.3770931689208834,0.23750072546787995,0.10251460174865255,0.01634764775983752,0.08226544893423801,0.0031577787038110927,0.03368169998202888,-0.0022086225114560758,-0.007701062497913202,-0.034001254678640236,-0.025870978963198427,5.322122635973235,3.40070183118883,2.532159913668861,1.8942517183418865,1.2997445607483926,0.8058261754036923,0.48649871778165077,0.26162989890469135,0.19256939534689924,0.13940507397228152,0.11172363379216044,0.1415417801838592,0.10179570403831878,0.11880400686738082,0.06984641939951593
0.0,55.0,55.0,0.0,120.0,0.0,0.0,0.0,0.0,-107.0,0.0,-45.0,0.0,0.0,0.0,34.27253218749016,17.55503396713325,3.160550137210589,1.608857113411672,1.0217652406568332,0.6022021206914263,0.35276313686158234,0.2178111087214092,0.09872485415270622,0.05675064473132683,0.0025941285635506656,0.016989525921472636,0.0037770539820235205,0.04920079710766716,0.01817229728360458,-0.061066157759876005,-0.007762742993534681,5.378875198229164,3.44482738714013,2.574365518285003,1.8624877168108611,1.2733528413598079,0.8044245933317877,0.45679344038065184,0.27739700505328374,0.1970658972732676,0.12860073079735798,0.10964540571738196,0.11264165416650793,0.07018405278546043,0.06926463068245266,0.021146221605960976
0.0,56.0,56.0,0.0,120.0,0.0,0.0,0.0,0.0,-107.0,0.0,-45.0,0.0,0.0,0.0,34.27253218749016,17.55503396713325,3.1980366230034636,1.6375129784193219,1.0932459921335118,0.7036996340070467,0.4117794826492878,0.1900552895805374,0.0865914660343083,0.06806359970939105,0.07429317606033231,0.06062436834269479,0.08352100944939204,0.10420450236168353,0.11878825274690206,0.02100687349433123,0.062133644514674506,5.433637325200181,3.47899614624716,2.595571392633547,1.910932433623948,1.3094534868248269,0.7955652508275455,0.4322815646016416,0.28660424236420656,0.18092385447181145,0.1583114027851803,0.12137561356866061,0.12932856287786954,0.09187559119557598,0.08685013411272344,0.03852477522352793
0.0,57.0,57.0,0.0,120.0,0.0,0.0,0.0,0.0,-107.0,0.0,-45.0,0.0,0.0,0.0,34.27253218749016,17.55503396713325,3.206205029588001,1.6550119985516776,1.0782084410730783,0.6649555839023845,0.4149798585472711,0.18110406387897665,0.10106180350530805,0.06933917273019984,-0.017071484871650437,0.06394878890114128,0.06563879026239336,-0.046762174880606355,-0.00913509875950607,0.06661173847387666,0.05870590447824815,5.459704785480639,3.461685880975267,2.644272927000519,1.9109478757484608,1.306073527147444,0.83615504497158,0.5015273379490562,0.2983894580083753,0.19246930563072367,0.15300484178534338,0.09174140132938322,0.08761774873433874,0.06445082402479131,0.09624400375732922,0.024721274351623926
0.0,58.0,58.0,0.0,120.0,0.0,0.0,0.0,0.0,-107.0,0.0,-45.0,0.0,0.0,0.0,34.27253218749016,17.55503396713325,3.260590549474513,1.6735053777833535,1.0601244473033649,0.652614999908407,0.3487828820460683,0.2138200476421504,0.12919305098182834,0.08639215308755807,0.03905226143372489,0.03363197584878899,-0.003421890901224408,-0.006725898926257769,0.0077219680018912875,0.037296680882315726,0.027505517600531656,5.533117955531068,3.5135251205202196,2.693779567907429,1.920697164885727,1.3266029948486755,0.8593892435678864,0.4790927273380301,0.2534180695941615,0.20660576422492027,0.13713442263029416,0.10855886570526085,0.0604457163051156,0.035536492205218956,0.08342434951119364,0.057206188048985994
0.0,59.0,59.0,0.0,120.0,0.0,0.0,0.0,0.0,-107.0,0.0,-45.0,0.0,0.0,0.0,34.27253218749016,17.55503396713325,3.3054270144068334,1.649584725160029,1.0421989393658646,0.7256503423552063,0.37372807692811877,0.22551358414792672,0.16293472479195592,0.008298500147071078,0.07339932958896894,0.038678042385668826,0.09329443590593847,0.0184816514596775,0.022698965706762653,-0.07510164626794114,0.014764208040253184,5.581831603926249,3.541141276348833,2.6384887282094565,1.9667128349810499,1.2988105029745638,0.8543507615319234,0.5159669186742457,0.3162366643177752,0.1895688964380879,0.12045434338094903,0.12238218140737375,0.09779056339234223,0.11380072997497659,0.0741751072038107,0.0835939424920536
0.0,60.0,60.0,0.0,120.0,0.0,0.0,0.0,0.0,-107.0,0.0,-45.0,0.0,0.0,0.0,34.27253218749016,17.55503396713325,3.2997511504901444,1.6651564507590018,1.1152619016878988,0.6590075693798286,0.36932434710653184,0.21426732478339716,0.1281824727137144,0.04809485312942171,0.028575485441678525,0.013914400021619016,0.056472120865664735,0.0114296184247498,0.018982634149506083,0.03494542177103152,-0.007742538789998914,5.649789771589608,3.620440485706803,2.665429616351345,1.965399649789864,1.3545625886368051,0.8519356659821136,0.5147093605876585,0.301692246783,0.1845349846347922,0.10026185655282487,0.07516837170782104,0.06596429515917958,0.08572249532615965,0.04265010740665505,0.06244425494884702
0.0,61.0,61.0,0.0,120.0,0.0,0.0,0.0,0.0,-107.0,0.0,-45.0,0.0,0.0,0.0,34.27253218749016,17.55503396713325,3.3336761922399223,1.723948284265633,1.0407891409879717,0.7378331828612955,0.35808963735267496,0.204964658463832,0.1828644215680975,-0.00880123303667276,-0.026651891099123096,0.040419225987990096,-0.009121730345201876,0.04279003881552915,0.028987669874696167,-0.03335499606872422,0.008379428812177325,5.708817269418976,3.6199633989537676,2.692711833844023,1.9635227302059692,1.3199532889758994,0.8428040370698655,0.4937397047199386,0.3125640378012321,0.20140721099726178,0.14390644556597745,0.0957015798565947,0.09077362509142856,0.07564224166009398,0.06944531389797615,0.08112790680311292
0.0,62.0,62.0,0.0,120.0,0.0,0.0,0.0,0.0,-107.0,0.0,-45.0,0.0,0.0,0.0,34.27253218749016,17.55503396713325,3.448709236252519,1.7001688282357272,1.1258100500349262,0.6817684626636523,0.363041445199212,0.21206725127946194,0.07138768430316485,0.027939382680620684,0.033000946582201644,0.08733916558509176,0.009075639018106589,0.015305397027226606,-0.0016726103770136978,0.001704151338729934,0.011877956132513887,5.713452965645721,3.6874955282327893,2.73816152097521,1.9758525376695082,1.343962682392876,0.8475239687753233,0.5361230072253925,0.34290745434667563,0.19203730898775256,0.11018822823939316,0.12531397316074727,0.09368870406517114,0.06558783054648204,0.06811494907502195,0.06606198742687353
0.0,63.0,63.0,0.0,120.0,0.0,0.0,0.0,0.0,-107.0,0.0,-45.0,0.0,0.0,0.0,34.27253218749016,17.55503396713325,3.5610231383543023,1.7153061779122012,1.165887457129004,0.7440566397796016,0.4188545539222796,0.2303121436654109,0.086376525020825,0.11518129250030185,0.03573218986421614,0.036513851984965824,-0.0007297690396314664,0.030917416758107833,-0.0193374368605576,0.05154915035150098,0.07783120381223926,5.839819526893695,3.6797214355605328,2.707297163275317,2.0347115398228364,1.3831530620574521,0.8896556306911207,0.5319011195088795,0.3248735616156603,0.19082124070934586,0.1734314387788724,0.11669483802000093,0.0949939435891189,0.05682879283122534,0.10138736655845709,0.07907660808551081
0.0,64.0,64.0,0.0,120.0,0.0,0.0,0.0,0.0,-107.0,0.0,-45.0,0.0,0.0,0.0,34.27253218749016,17.55503396713325,3.602754741623139,1.7876557264142474,1.1539257663953892,0.6832087617773692,0.4622938491823641,0.22173670184174457,0.10938842656181245,0.09071251416712559,0.035260878267046485,-0.010391029360261619,0.016235221290027257,0.03705251078198847,0.012504304245426924,-0.03893874852611447,0.0363932402584837,5.839221761551538,3.7546191745784534,2.775427915010765,2.0232744423059557,1.37634598249357,0.9049077327179276,0.485332810480842,0.35525050823448223,0.19861869561499598,0.08242793414959138,0.06620631697971498,0.07708936667133766,0.06574577832222145,0.08542861436437997,0.05008802005188541
0.0,65.0,65.0,0.0,120.0,0.0,0.0,0.0,0.0,-107.0,0.0,-45.0,0.0,0.0,0.0,34.27253218749016,17.55503396713325,3.5505512340389442,1.8289773351081506,1.1996594944895325,0.7057051243880333,0.4586182075772184,0.24604185662535227,0.11300957030917837,0.061806980304737136,0.0013772057212237745,-0.0429886984644514,0.04225183077026698,-0.008930764703610365,-0.0203428543060262,-0.06160345646545154,-0.05461828059886756,5.949301652021121,3.768402345851126,2.772078159363756,2.0439581520934746,1.3628226767027811,0.867563712014008,0.5054236293663148,0.3208413089432133,0.16928106964478087,0.11296522707929357,0.08710140543443753,0.08524487351989662,0.10037756519898966,0.08192237334794268,0.07084717993773851
0.0,66.0,66.0,0.0,120.0,0.0,0.0,0.0,0.0,-107.0,0.0,-45.0,0.0,0.0,0.0,34.27253218749016,17.55503396713325,3.624218316902011,1.7877937319233002,1.1991987628707383,0.746015892739858,0.4800304007960906,0.2857980927823891,0.11499498259607337,0.05531100182976392,0.0017031694744520966,0.017121251156273564,-0.022772924037926263,-0.009697521761344844,0.036492483091635886,0.0008461320154826519,0.012983100588834173,6.019481641301452,3.80644549831892,2.8678906461089952,2.0527593426005555,1.411606917765695,0.8744622995187444,0.5345868430676918,0.31310890971528854,0.16027195863392574,0.1518358063172716,0.08796607357295153,0.10474169405496493,0.06364821266103432,0.09967968940649403,0.015385815065868766
0.0,67.0,67.0,0.0,120.0,0.0,0.0,0.0,0.0,-107.0,0.0,-45.0,0.0,0.0,0.0,34.27253218749016,17.55503396713325,3.7523610432209713,1.8024780090687078,1.1880000690893036,0.7362733465607707,0.43422182886018496,0.1871447467670881,0.03585571456810356,0.11408971144673583,0.06429871628820184,0.031098226703160113,0.021463810310361268,-0.0023250680323075625,-0.022673986880159758,0.017004481734950408,0.044073522130363064,6.017352538628918,3.8218435872175367,2.8492377041730905,2.0292580367436783,1.3923629671226851,0.884845930808877,0.5305305640496194,0.3698489149028062,0.15498189137544535,0.13569767353406914,0.0494352224849986,0.09300259303380937,0.061769074239736495,0.09157428232924891,0.05595933244002383
0.0,68.0,68.0,0.0,120.0,0.0,0.0,0.0,0.0,-107.0,0.0,-45.0,0.0,0.0,0.0,34.27253218749016,17.55503396713325,3.7961268630140084,1.8444899266587043,1.2632013110146283,0.7192065408580719,0.45279489486264746,0.2933859214266683,0.0766374802138404,0.049730954989849016,0.037767276191952956,0.06407265385315808,0.020778450565751765,0.013963634462037756,0.050536298033415236,-0.004176864899814368,0.014414299383922687,6.084762142264765,3.874334640956768,2.854452765275232,2.0733796175986523,1.4003793445553578,0.9124169924317718,0.6034542477096595,0.2874987437037411,0.18793851810445372,0.12543517643881177,0.06625271151769647,0.09214392662557774,0.0807552984189047,0.053208263700673254,0.012321480602114937
0.0,69.0,69.0,0.0,120.0,0.0,0.0,0.0,0.0,-107.0,0.0,-45.0,0.0,0.0,0.0,34.27253218749016,17.55503396713325,3.8414862170963264,1.835607425446962,1.2214905958884077,0.798503184768656,0.49047396740631327,0.23066257665920478,0.07332472100703719,0.008003695363241851,0.07389474180617857,-0.05611144298152593,-0.02467059739052363,0.0464532264964264,0.0019958276525108166,0.025792395888927892,-0.03951964588383333,6.174853700349949,3.9257058810139904,2.8920594864732583,2.1630744648693856,1.4257752609535825,0.9121367345083229,0.5340652309745518,0.3246578653239569,0.21026460577621736,0.11099653865344315,0.05388464822279307,0.07574170394564558,0.07770011271365646,0.028453450170490037,0.03536824797296217
0.0,70.0,70.0,0.0,120.0,0.0,0.0,0.0,0.0,-107.0,0.0,-45.0,0.0,0.0,0.0,34.27253218749016,17.55503396713325,3.861932660279288,1.8971461166980248,1.2808681572293488,0.7675741690248279,0.4313519138698536,0.20142715987843476,0.12232975342277859,0.06372082824366812,0.041407509543118726,-0.11269710109033582,-0.013473408016036033,0.06525697341661924,0.007985779387165878,0.0019463936867333796,0.02000913307314606,6.2047963162472755,3.9672636544308317,2.920904849554655,2.133264377456138,1.433109281344447,0.893897990168876,0.5210683134753284,0.31432974217327136,0.1694564498449157,0.10277869223850854,0.07276712495450485,0.059565504023893046,0.08360427433874976,0.046434107454666404,0.020554956293182474
0.0,71.0,71.0,0.0,120.0,0.0,0.0,0.0,0.0,-107.0,0.0,-45.0,0.0,0.0,0.0,34.27253218749016,17.55503396713325,3.973941752403583,1.9494055963356363,1.2303916469312826,0.743944993555134,0.4690296356009289,0.27808217537310187,0.1280732755393432,0.08612572433048475,-0.04458564600654448,-0.018698478610213766,0.024649592602758435,0.02483672420000451,-0.022774268368790533,0.027965046467396767,-0.025188737578805607,6.287405948984752,3.9851940065954317,2.9465656867771486,2.153261748339337,1.4588469960433648,0.9263941158543137,0.5535013271742851,0.3236870706939396,0.1860468319503213,0.1263705034993065,0.07201817900694177,0.07345100101222939,0.05041691544144149,0.05161379646377142,0.03229867025680155
0.0,72.0,72.0,0.0,120.0,0.0,0.0,0.0,0.0,-107.0,0.0,-45.0,0.0,0.0,0.0,34.27253218749016,17.55503396713325,4.037297371270339,1.9237302035101607,1.2504658697546966,0.7892943554645838,0.4584380567814361,0.2526779164034235,0.14604496072498724,0.03620687317753815,0.003493377281840692,-0.04215990765104288,-0.009026707274131358,0.02109127413646266,0.02804658828683546,0.04651027932732275,-0.02510800940836836,6.375619289992159,3.9948111448082306,2.9805150115191315,2.1806616764579467,1.5096440031859992,0.9357710752594364,0.5906978369526398,0.3228051700845176,0.18356458187209077,0.13560395627672006,0.09187226521953798,0.06525833387911276,0.08248492881530743,0.058280738762983356,0.0438196492448142
0.0,73.0,73.0,0.0,120.0,0.0,0.0,0.0,0.0,-107.0,0.0,-45.0,0.0,0.0,0.0,34.27253218749016,17.55503396713325,4.058513188138768,1.9945392070142833,1.2586933303126513,0.8334266669492344,0.4187455648121066,0.2338153317567198,0.12235024032857038,0.020314346039874635,0.03819669392868896,-0.011987190750787278,0.004970511895742027,0.0015199251898148636,0.006168610705489673,0.010332171278084987,0.01237052972687359,6.417559203562985,4.041623846862617,3.0037233003978208,2.186058998739842,1.5067836705582636,0.9064318600125568,0.5468876701170197,0.291495127168349,0.15519667744015195,0.12553455335430405,0.08041519577989793,0.05496226419623227,0.024655290627686982,0.04343108775895422,0.015262895980201193
0.0,74.0,74.0,0.0,120.0,0.0,0.0,0.0,0.0,-107.0,0.0,-45.0,0.0,0.0,0.0,34.27253218749016,17.55503396713325,4.117429066587443,1.9534441802914784,1.2887701766262465,0.8293769512555506,0.4125074762168132,0.23164276681725982,0.15028841753842034,-0.012965107871069366,-0.032588150800848,-0.023500158965270333,-0.0028088853257489856,0.04066976197936476,-0.05470548768635029,0.010688538735132414,0.002939351585363966,6.433843639395733,4.086598129201742,3.0493963457598188,2.2313112565462716,1.4934571176709541,0.9455531715798885,0.5786324993032486,0.3116822067219288,0.16815995744505063,0.10274090099557034,0.09881040294057374,0.07453962383459706,0.07976300083504131,0.012274439059644732,0.05463827439748392
0.0,75.0,75.0,0.0,120.0,0.0,0.0,0.0,0.0,-107.0,0.0,-45.0,0.0,0.0,0.0,34.27253218749016,17.55503396713325,4.1560311718874035,1.9923205575915388,1.2982871937540792,0.8020884932118315,0.5585913899959376,0.2810853437238262,0.1394106750407897,0.05456508197680421,0.05217496360376969,0.02447698115980302,0.08296826345172928,-0.019112382977234204,0.061236550985940524,0.054607557906321526,-0.0005522754956037539,6.508264300183735,4.169978026912019,3.1041706670740865,2.2316238968626654,1.4572162218552276,0.9170992943198113,0.562472147220344,0.3534851487008972,0.20094723439379691,0.11835474861204366,0.087880185890411,0.07431166282874674,0.0830792768859834,0.0390415673621846,0.010835685891470652
0.0,76.0,76.0,0.0,120.0,0.0,0.0,0.0,0.0,-107.0,0.0,-45.0,0.0,0.0,0.0,34.27253218749016,17.55503396713325,4.3317260949363146,2.04707557445784,1.2643859087725644,0.8515301293541586,0.4344212637202453,0.27789725076159383,0.11562239018513744,-0.034001333745259536,0.038271966204101865,0.04619179794015881,-0.0234335561307992,-0.015062541793029264,0.036933799593652186,0.020344663268905237,0.04815290475828942,6.621110282109226,4.155309903415173,3.084435841086116,2.2376779868052843,1.4878455646521134,0.9766408955994562,0.556337160422358,0.35187984870250266,0.1871523982385129,0.10881276774445818,0.07226887193355074,0.057581332813873606,0.07774534009834491,0.07482525071420866,-0.0014031554908659136
0.0,77.0,77.0,0.0,120.0,0.0,0.0,0.0,0.0,-107.0,0.0,-45.0,0.0,0.0,0.0,34.27253218749016,17.55503396713325,4.338684727176734,1.9997762252182596,1.324840349889182,0.8106548286068966,0.42447068519007386,0.21957772159510214,0.14453977151542768,0.13614534212045826,0.006481765990328091,0.035690023035369174,0.05725893552500462,0.03067560663375372,0.08304009878882372,-0.018152535996109352,-0.037238540797318344,6.644777201404366,4.2102131688162965,3.112836360525667,2.2579473523543485,1.4946802638951375,0.9317775519909878,0.5632150676185412,0.34514329217081785,0.18610681951712837,0.09331412903219133,0.10232127801231036,0.05170348343661128,0.07092099898878579,0.022684132257585945,0.06004032617801393
0.0,78.0,78.0,0.0,120.0,0.0,0.0,0.0,0.0,-107.0,0.0,-45.0,0.0,0.0,0.0,34.27253218749016,17.55503396713325,4.408634723790089,2.1622787760264295,1.328213615579943,0.8579730141096444,0.504242006893521,0.29289505792268605,0.15137355813405554,-0.000578129970815279,0.0053075083002989965,0.04522876801943262,0.050282287414468226,-0.018612221674917204,0.03984040704065028,0.029027283856122632,0.059291866349661285,6.712605924400624,4.2478808664421095,3.108175275611971,2.2567116939915604,1.49459676347906,0.9850879522502577,0.5474227483128863,0.35303269098609047,0.19838986594957106,0.11687074961483437,0.06076870326906003,0.050712586859090664,0.0387404850923181,0.04796352172025016,0.07682630172913463
