Line_number,Fiducial,Easting,Northing,Height,Elevation,tx_pitch,tx_roll,tx_yaw,txrx_dx,txrx_dy,txrx_dz,rx_pitch,rx_roll,rx_yaw,PX,PZ,S0X_time_1.086e-05,S0X_time_3.256e-05,S0X_time_5.426e-05,S0X_time_8.680e-05,S0X_time_1.411e-04,S0X_time_2.279e-04,S0X_time_3.689e-04,S0X_time_5.860e-04,S0X_time_9.115e-04,S0X_time_1.411e-03,S0X_time_2.192e-03,S0X_time_3.418e-03,S0X_time_5.339e-03,S0X_time_8.301e-03,S0X_time_1.338e-02,S0Z_time_1.086e-05,S0Z_time_3.256e-05,S0Z_time_5.426e-05,S0Z_time_8.680e-05,S0Z_time_1.411e-04,S0Z_time_2.279e-04,S0Z_time_3.689e-04,S0Z_time_5.860e-04,S0Z_time_9.115e-04,S0Z_time_1.411e-03,S0Z_time_2.192e-03,S0Z_time_3.418e-03,S0Z_time_5.339e-03,S0Z_time_8.301e-03,S0Z_time_1.338e-02
0.0,0.0,0.0,0.0,120.0,0.0,0.0,0.0,0.0,-107.0,0.0,-45.0,0.0,0.0,0.0,34.27253218749016,17.55503396713325,4.602926328535479,2.679218654973915,2.2312166385276395,1.7955954348852916,1.257672065400578,0.7477935215279522,0.37656880880273524,0.15052090689297898,0.07873606443607387,-0.021607478346216395,0.006381378534899533,0.04580860301552284,0.022807099111034367,-0.00727175273879773,-0.0022394445481177905,6.9130119081945125,4.9328892030574725,4.278206118927135,3.6426091416552318,2.9493741024167055,2.135773490407571,1.3435490920091593,0.729240871740648,0.36352812372231075,0.15002674144244715,0.03528537186593064,0.04777383373782913,0.038338768801261136,-0.0025495867923058858,0.01105898610629931
0.0,1.0,1.0,0.0,120.0,0.0,0.0,0.0,0.0,-107.0,0.0,-45.0,0.0,0.0,0.0,34.27253218749016,17.55503396713325,4.496977480364633,2.6531395148960493,2.198383774239572,1.7722677506270943,1.4299116714913829,0.9356254678536506,0.5239276942488329,0.18662888968124894,0.07544378627975022,0.029207863482007042,0.0025096650896903883,-0.03168120044345428,-0.012299505658224298,-0.0063100816454995335,-0.06711444812827803,6.960154425529317,4.939941747327577,4.309016537602896,3.7520149181929443,3.113843459949362,2.351985462865559,1.549773132887388,0.9410548402333788,0.462773344718563,0.253207112189149,0.0804718385504212,0.01712768171334486,-0.031795091509999374,-0.014204179430270535,0.03862639091015266
0.0,2.0,2.0,0.0,120.0,0.0,0.0,0.0,0.0,-107.0,0.0,-45.0,0.0,0.0,0.0,34.27253218749016,17.55503396713325,4.591764058094909,2.6850394336891634,2.2264541934438244,1.8728434364029962,1.4266371384475807,1.0376061218727723,0.5863219473025365,0.2721848895723187,0.1439863910883343,0.0479445971901383,-0.03933176758861047,0.020034391523751003,-0.004666772751888281,0.04778337168955695,-0.027751963866650596,6.947463236681846,4.938868963247994,4.358861809210179,3.826465333173757,3.2257116396290426,2.5096483033483112,1.7407749095831881,1.0980143858214495,0.5988008672586348,0.2978510584182578,0.12657019359254867,0.05707342058197718,0.017624948130380645,0.001039887956712165,-0.026347758626101093
0.0,3.0,3.0,0.0,120.0,0.0,0.0,0.0,0.0,-107.0,0.0,-45.0,0.0,0.0,0.0,34.27253218749016,17.55503396713325,4.5661357788419865,2.7796112067279464,2.269961590085441,1.8576777622578213,1.4906286601969891,1.1119444604488287,0.6779737694859179,0.3773203646738482,0.148047356587539,0.10991537267906899,0.05076822147288439,-0.018136924278663917,-0.020545899385088287,-0.03125746950495492,0.04996184565798714,6.9161201679131095,4.957398790154885,4.34514133340706,3.8227944336791913,3.250765991966739,2.604166950120696,1.9049921313767515,1.2899955965076313,0.6930952778089675,0.3720019897825124,0.17258522920031677,0.0503943350282526,0.013885911243040793,0.0030467385926880065,0.005832805058667666
0.0,4.0,4.0,0.0,120.0,0.0,0.0,0.0,0.0,-107.0,0.0,-45.0,0.0,0.0,0.0,34.27253218749016,17.55503396713325,4.589940068974199,2.6722183587814468,2.3128948595813186,1.9860988475006902,1.511967121868213,1.143225619473422,0.7502951011190321,0.4001920823916682,0.2383512673826318,0.11190724980297981,0.08382367387325611,0.016104349032772833,0.11109941982469121,0.0031346925359545916,-0.007794514509517386,6.96123077996223,5.010581226550277,4.403694484572887,3.899803012490138,3.345845148798072,2.7056540949484296,2.032298388092925,1.3433574187161779,0.8057521865381925,0.40256594981186516,0.20022195768423923,0.08899456464491143,0.013905850763230664,0.01280216297504564,-0.0046707408454968215
0.0,5.0,5.0,0.0,120.0,0.0,0.0,0.0,0.0,-107.0,0.0,-45.0,0.0,0.0,0.0,34.27253218749016,17.55503396713325,4.57445689520614,2.736387961857723,2.2666549615195932,1.873568326347935,1.5560811961415382,1.1132837858077576,0.7844474454702565,0.492988756180499,0.2108074125555234,0.1525757129473451,0.019979628542966116,0.0018759457696130733,0.0001962754093845086,0.012855469527925103,0.01089704801579179,6.990779526969073,5.024339153714259,4.476466363820893,3.9190748671187876,3.3411481544658046,2.801563154806937,2.1272849758111705,1.531709772039512,0.8919376015749892,0.5137798908494668,0.2440548074223712,0.07218576092528027,0.028394110602083463,-0.0092985937210861,0.020299184494781287
0.0,6.0,6.0,0.0,120.0,0.0,0.0,0.0,0.0,-107.0,0.0,-45.0,0.0,0.0,0.0,34.27253218749016,17.55503396713325,4.480398699705148,2.745408944165917,2.288217642133957,1.890339251334257,1.5645922406256474,1.1789514359075877,0.8736350633371318,0.4592239359630731,0.2842353149656119,0.10567036926939917,0.0135842536349495,0.02248622328305104,-0.00038884771417684646,0.06020139861722435,-0.044991252305776414,6.982946951469541,5.080055520789807,4.482224326949474,3.988256684977157,3.4124234046604562,2.8279618866246254,2.2180770188934464,1.5350612448729255,0.9481294722872478,0.5935806807045654,0.26169512757529095,0.14594669073881955,0.03389877516955133,0.0350656610919391,-0.004557307384949741
0.0,7.0,7.0,0.0,120.0,0.0,0.0,0.0,0.0,-107.0,0.0,-45.0,0.0,0.0,0.0,34.27253218749016,17.55503396713325,4.644974302898816,2.8444901001935796,2.4357597614623354,1.9814730891769796,1.5262434971854772,1.1474631796012886,0.8843121140323518,0.5480874620889066,0.2818215746321589,0.19918293796741457,-0.007523706597210113,0.008148043670431813,-0.004709680748895728,-0.01638560730223709,0.003994546802448455,6.992682479961404,5.095942031142575,4.504461847313803,3.980174246953469,3.4232008418808837,2.898105449288999,2.2800028788246123,1.614759719113545,1.0287428549795337,0.626329925272448,0.31635462963580047,0.1364775242835556,0.07080436019455186,0.0561927251682632,-0.015737581820806465
0.0,8.0,8.0,0.0,120.0,0.0,0.0,0.0,0.0,-107.0,0.0,-45.0,0.0,0.0,0.0,34.27253218749016,17.55503396713325,4.73142081568951,2.8227801354675908,2.4288472497106492,1.9708330567951429,1.5966612048395388,1.2378632618133554,0.820069585276898,0.5814580895195594,0.2951524218344286,0.17657127614917117,0.08167552172101891,0.044610240893594846,-0.03364000750954521,-0.013463242777351817,-0.01451909379510354,7.006782594390861,5.110127568507208,4.488939200196394,4.0088386512738685,3.446972608948737,2.9438660358445956,2.2881543422234016,1.6800287617510101,1.1094411885367983,0.6889692602678203,0.3276076140284073,0.1556369588225326,0.08392759937330303,0.05103778862558707,0.012327895638218544
0.0,9.0,9.0,0.0,120.0,0.0,0.0,0.0,0.0,-107.0,0.0,-45.0,0.0,0.0,0.0,34.27253218749016,17.55503396713325,4.623153565452807,2.872035353229723,2.3750261959567283,1.9991186421392135,1.6421729537580498,1.2103600952452622,0.9232099493450524,0.700483438538243,0.33785593525610996,0.14675966068255147,0.07521973898051318,0.022179680285098195,0.03777986590476709,-0.0342699952603645,-0.023807908463010237,6.989459336267549,5.1397221814790335,4.547197748587667,3.989746462818205,3.5219546015486296,2.9868445717019947,2.3581974761729207,1.711390990569655,1.178594313034064,0.6871409897598926,0.37253367242494223,0.17994906393607674,0.10040388876436929,0.003456796633673438,0.0018755886527556708
0.0,10.0,10.0,0.0,120.0,0.0,0.0,0.0,0.0,-107.0,0.0,-45.0,0.0,0.0,0.0,34.27253218749016,17.55503396713325,4.72876989891185,2.9000516519790986,2.4589095129480714,2.062631013952301,1.6351039583595188,1.2560827746181764,0.882646377118099,0.596043395980826,0.35365035755351903,0.18409163724436747,0.12186155175812108,-0.0773657805526858,-0.03216606671840095,0.0013392111008465966,0.010019093667740267,6.98376173245808,5.140107705272649,4.597147890509174,4.074574096048994,3.527314995628547,2.954654877031485,2.399594322352119,1.7162845509305933,1.239091505345427,0.7798383201517383,0.42978599583270943,0.1804170036183075,0.051940528961403526,0.019206294217442903,0.010685789984127576
0.0,11.0,11.0,0.0,120.0,0.0,0.0,0.0,0.0,-107.0,0.0,-45.0,0.0,0.0,0.0,34.27253218749016,17.55503396713325,4.589440099276969,2.9251975536771115,2.4268425129377484,2.0570820987619496,1.603548394159403,1.2702763849431522,0.8917216005631317,0.6852561627341145,0.40410273946609254,0.18510221116110104,0.0814007262553018,0.10217494675563937,0.03556959831454663,-0.010962173856241994,-0.03705955864349161,6.935902016389817,5.199953914293321,4.59081319115567,4.14222003235003,3.5636046831914414,2.9814214328318376,2.4064242754623772,1.8223689123083096,1.2584044071351665,0.7985706651009365,0.47037776414403637,0.20411528341057594,0.059154256436818924,0.004760208248949772,0.009318356327113232
0.0,12.0,12.0,0.0,120.0,0.0,0.0,0.0,0.0,-107.0,0.0,-45.0,0.0,0.0,0.0,34.27253218749016,17.55503396713325,4.6327237983413,2.91751201213662,2.4090230263606087,2.0754016369256636,1.6667728241078872,1.333110665255528,0.9671224689730921,0.6021083178425045,0.35171655141877045,0.27260537060840573,0.10124946380909916,0.032147741912189304,-0.008426990589099157,-0.01222783584651804,0.0013233208029396508,7.045059900018307,5.256203598057225,4.623448087441969,4.179020650370258,3.5585588126963765,3.032246554546221,2.4259356382633346,1.8772014404726867,1.3208797679273248,0.8482693821758245,0.48339736853772797,0.2769932620716059,0.11408543730271106,0.04603511952294499,0.021382755045145096
0.0,13.0,13.0,0.0,120.0,0.0,0.0,0.0,0.0,-107.0,0.0,-45.0,0.0,0.0,0.0,34.27253218749016,17.55503396713325,4.631593989205113,2.9958354670744445,2.502333719923668,2.079138320905101,1.636935095966167,1.279728932962836,0.9889851506940776,0.6462007100008127,0.4266925325369144,0.21312784435051732,0.04505317230191255,0.036804894688013096,-0.04405453531608862,0.026465592315708428,0.08781501424898454,7.0252944412239025,5.2760658043632835,4.670459133571397,4.11857391564505,3.6118707282363265,3.013725902619189,2.4150589152269,1.8909854315438546,1.3564642081747005,0.854026158617974,0.5030943911327985,0.22157690476233852,0.15932164471574334,0.04514377236381519,0.0012304657591086388
0.0,14.0,14.0,0.0,120.0,0.0,0.0,0.0,0.0,-107.0,0.0,-45.0,0.0,0.0,0.0,34.27253218749016,17.55503396713325,4.65223650028326,3.0088550920655766,2.536933782107353,2.0700761866775883,1.724546379371356,1.31954672256401,1.0300639252579296,0.6666364073318106,0.4104384719765379,0.21990839352557198,0.08146526385491984,-0.005304586575618685,-0.0289481741505168,0.022521193049799125,-0.015578356456573692,6.977194270883808,5.239759126602543,4.697924148874463,4.220690730394287,3.6598370723608746,3.0220384252895474,2.4620624862046445,1.8926740253524938,1.3762580003768419,0.9220555205034666,0.5254857940275328,0.27266037553862726,0.09192172744817037,0.03606233412821594,0.0350622413066876
0.0,15.0,15.0,0.0,120.0,0.0,0.0,0.0,0.0,-107.0,0.0,-45.0,0.0,0.0,0.0,34.27253218749016,17.55503396713325,4.6819153781541685,3.067261599120294,2.5180079666733284,2.1224684469917516,1.7541878420773598,1.2909403869315481,0.9334494115168338,0.6354017509304752,0.47999421569159734,0.2170846325397634,0.13051823954833552,0.09345396335221423,-0.04244180507292121,0.01705015234666728,0.0063176385571361675,7.057849891695355,5.337326768653478,4.673012080823119,4.219489186388248,3.609308605113055,3.1417744545643536,2.47388736209168,1.9014756043413206,1.3708482329755831,0.9384231504489776,0.5276531836756903,0.30182015908092796,0.12805005738471412,0.058638857198673164,-0.0031100701721344624
0.0,16.0,16.0,0.0,120.0,0.0,0.0,0.0,0.0,-107.0,0.0,-45.0,0.0,0.0,0.0,34.27253218749016,17.55503396713325,4.704016888510109,3.0504030922893772,2.592332039820557,2.0879600171815214,1.73660475258978,1.3305129899636052,1.025633316622528,0.6501656092549156,0.44546154906278707,0.23272121007589194,0.1553495306683606,0.05780649368151711,-0.04586663819900057,0.05899364485295386,0.07759993301044353,7.056928317965167,5.355487326447732,4.736656399718561,4.242863501467969,3.714976021435215,3.135236114613564,2.504672607902014,1.9466556680941882,1.4199105598307198,0.957405276192665,0.5876754447344824,0.2977622441775149,0.1514282481790721,0.06716635878988822,0.03227596247885224
0.0,17.0,17.0,0.0,120.0,0.0,0.0,0.0,0.0,-107.0,0.0,-45.0,0.0,0.0,0.0,34.27253218749016,17.55503396713325,4.7369553977199566,3.1105489074152746,2.586577981240542,2.187569773506151,1.7671336343831436,1.3204808536651034,0.9821292917896052,0.737357726431548,0.4860948726952589,0.2254508446172022,0.16786448034324658,0.1474016585620796,0.06858817124673575,-0.011622536453960563,0.024678069391900193,6.996025514973268,5.323154578173537,4.735389172932419,4.239059758527761,3.700698821895739,3.102108394738888,2.5452022202636733,1.9237829050868487,1.4554646343059106,0.9925790456186542,0.6048131985935546,0.3173818439197024,0.15969236181894333,0.038245339002623044,0.025732160731637074
0.0,18.0,18.0,0.0,120.0,0.0,0.0,0.0,0.0,-107.0,0.0,-45.0,0.0,0.0,0.0,34.27253218749016,17.55503396713325,4.712246818618864,3.097000684149467,2.616391451155703,2.190550703962451,1.7931247631991873,1.3996933389221666,1.0207203655175001,0.7138155645976288,0.4311384895614011,0.27697001636363755,0.14894942316580997,0.05249471103076511,0.07005009588135858,-0.052249534191699025,0.023845953506744354,7.0545223592137765,5.396661990866198,4.840541460930271,4.310941534377704,3.730836030149825,3.1726207090057437,2.5087774630122097,1.934883026081509,1.453813173885067,1.0118842510383437,0.6360530500508369,0.32148525752692825,0.1580039332034528,0.06958927327482302,-0.00247291779890689
0.0,19.0,19.0,0.0,120.0,0.0,0.0,0.0,0.0,-107.0,0.0,-45.0,0.0,0.0,0.0,34.27253218749016,17.55503396713325,4.714463140817195,3.1289213315078817,2.685319040322067,2.2443633419853333,1.7949648846019541,1.4229575555806948,1.0627694376219767,0.7173883275905348,0.4510517153238699,0.27155416008819744,0.1386941647233995,0.10115638334340707,0.036467438876841646,0.006704248233995478,0.056686470454346195,7.023540731330637,5.40373823256247,4.873560002831644,4.353260365003746,3.733612731862883,3.1474894394914332,2.57110039076123,2.0120671679039974,1.481517346060567,1.0596210520061615,0.6271104039843296,0.35281374622159634,0.15497295108848272,0.06608611119767004,0.02555350518667933
0.0,20.0,20.0,0.0,120.0,0.0,0.0,0.0,0.0,-107.0,0.0,-45.0,0.0,0.0,0.0,34.27253218749016,17.55503396713325,4.749618373624523,3.180988924578144,2.654855429096203,2.2657208300071523,1.910909554374187,1.4766568314215605,1.0301961398240285,0.7565664902292419,0.5421310630930967,0.3626924502704195,0.194547486956119,0.07121713332954346,0.038731021417525505,-0.0011367315846929071,-0.03049214131132887,7.088200984103534,5.502425265954954,4.888477250968021,4.350311505924064,3.803792053755789,3.1454883266946867,2.602879514684758,1.976487294874599,1.5059515089392388,1.0585486800524468,0.645726624101715,0.373036960441708,0.1846940035449659,0.12019556336698087,0.02083506655367715
0.0,21.0,21.0,0.0,120.0,0.0,0.0,0.0,0.0,-107.0,0.0,-45.0,0.0,0.0,0.0,34.27253218749016,17.55503396713325,4.678675859536831,3.1735992561144095,2.7427085644889746,2.306852724950733,1.8490338241635664,1.4196965183495573,1.0742190515006231,0.760721668045466,0.44626905395005095,0.3163973268683604,0.12917115761463233,0.08332862005082872,0.0164537955631122,0.023825276254077682,0.034158918969341596,7.095096330233707,5.57128962921478,4.887011837081844,4.4014152526905335,3.8373529974204375,3.20169722498563,2.5760323288426736,2.023152069131641,1.513687274139954,1.0228986726579303,0.7222432292639621,0.41227732226909775,0.1485156327062339,0.03996560231322478,0.0037193205314172834
0.0,22.0,22.0,0.0,120.0,0.0,0.0,0.0,0.0,-107.0,0.0,-45.0,0.0,0.0,0.0,34.27253218749016,17.55503396713325,4.760521674739558,3.23280814888304,2.734942056927759,2.3636347817474865,1.8558538161628295,1.449589757302062,1.0824975825335061,0.7400507674169057,0.4368045089128023,0.31026232011606025,0.19341388141245747,0.03347190920140653,0.050188827675188126,0.06452718388417598,-0.02812305780541987,7.0956842674828104,5.494792159144,4.974516690584606,4.424270262141964,3.8362929040657425,3.2483186249265468,2.6325300227501964,2.030317285613993,1.5320608126036455,1.0913205189716035,0.6902142639713055,0.38413240438340895,0.16241689246739613,0.023864453770859988,0.0446318395268379
0.0,23.0,23.0,0.0,120.0,0.0,0.0,0.0,0.0,-107.0,0.0,-45.0,0.0,0.0,0.0,34.27253218749016,17.55503396713325,4.78310628105932,3.2723344866739437,2.76821571635583,2.2679783569099747,1.9410749973474257,1.5360707211169191,1.0256042858935013,0.7319723970866261,0.4099559274781291,0.273603185610707,0.1806185831498491,0.10062413597319357,0.012900608627027306,-0.015472479228603404,0.019552377532672655,7.114194759304895,5.529622701980814,4.989546008701897,4.428347882854865,3.897239693052749,3.214446090163412,2.621051340011929,2.017522634682107,1.5137802037521513,1.102384691928413,0.708658700516504,0.4276699476894596,0.1946857265852266,0.11663962313288279,0.03486880010993094
0.0,24.0,24.0,0.0,120.0,0.0,0.0,0.0,0.0,-107.0,0.0,-45.0,0.0,0.0,0.0,34.27253218749016,17.55503396713325,4.772070272496027,3.2316712012077766,2.826380522846005,2.374986466380744,1.949285596973677,1.4685822750646005,1.084407708285756,0.7501770807722034,0.4905282649724756,0.33731209679843777,0.17925805543858364,0.08173168481316202,-0.0013030630662252823,0.03382100235985944,-0.008735637449035109,7.126088669492167,5.6047481106817765,5.070168776427401,4.525293847425837,3.8792400382543835,3.2555814778788807,2.657117397100407,2.0492586290233383,1.5458700564220724,1.0476608940533085,0.7079830945223812,0.42378889169448014,0.19866682210766795,0.0865644430302328,0.04043522944360213
0.0,25.0,25.0,0.0,120.0,0.0,0.0,0.0,0.0,-107.0,0.0,-45.0,0.0,0.0,0.0,34.27253218749016,17.55503396713325,4.808628940285312,3.332125960146101,2.8203357200041914,2.3831326108349455,1.9038777618803069,1.5212209272990267,1.1151721358866662,0.7599061804320146,0.5332154345753765,0.3123182429038231,0.16538460830021784,0.13041891020847227,0.03222016133890249,0.05113601478545777,0.032009307944238036,7.165480987241046,5.6478835530449,5.055887713299117,4.5320385156108625,3.9293470345205517,3.292814034667305,2.6686661452885723,2.034152461802245,1.5623435259080125,1.1019761167053566,0.7022587011153203,0.4066371250239905,0.18123443115743448,0.09569406340856372,0.055016899760898914
0.0,26.0,26.0,0.0,120.0,0.0,0.0,0.0,0.0,-107.0,0.0,-45.0,0.0,0.0,0.0,34.27253218749016,17.55503396713325,4.7939276204564925,3.306224560803589,2.9089087226155512,2.3482218833747632,1.95249631806882,1.5282497764990086,1.0995010182436296,0.7407205557665251,0.5466015881247682,0.2339023676267921,0.1749649479415193,0.0824783111765195,0.03950874701663354,-0.014613167845077633,-0.04169498266468618,7.132121697916963,5.671535062777491,5.102644316417176,4.543419340552022,3.931146577366704,3.2954828768976228,2.6777613598878087,2.0497261683352486,1.548389169179415,1.0986064127624928,0.749668994722857,0.4579516390240053,0.26366340757328594,0.13129168373297564,0.035335011922260545
0.0,27.0,27.0,0.0,120.0,0.0,0.0,0.0,0.0,-107.0,0.0,-45.0,0.0,0.0,0.0,34.27253218749016,17.55503396713325,4.850431463657129,3.3274357794330784,2.819652045951647,2.4532670053235104,2.0337021251034058,1.5831234780620491,1.0586290070214384,0.776890485371284,0.4813718032060855,0.3249931724813417,0.16829760754171758,0.09396144497972614,0.016262318158980778,-0.018770574531373926,0.03443218841800553,7.173873807229635,5.695257649709987,5.132222593765614,4.558806800273645,3.9686815187071782,3.3270204890950117,2.6842285339441734,2.098574809399266,1.534970499701984,1.13730246565117,0.7333707505257361,0.4529126827009627,0.23755313790971969,0.13006732635569118,0.03702203019051619
0.0,28.0,28.0,0.0,120.0,0.0,0.0,0.0,0.0,-107.0,0.0,-45.0,0.0,0.0,0.0,34.27253218749016,17.55503396713325,4.833918842408472,3.4609132145494654,2.966125505900652,2.4518764307051395,1.9660708183398756,1.5618758090316638,1.1081632822282776,0.8107656718544936,0.5608520846406045,0.32831949777644853,0.21927272288873853,0.12855805141029256,0.06763992642429029,-0.04019058196700056,-0.0002002668752720425,7.201390155204363,5.731212646431365,5.1426889576503925,4.602181510189401,4.030395296702591,3.3757401717506523,2.707433076787768,2.107985098274909,1.6054709542177499,1.1176533171565501,0.7348326874685035,0.4782175938395263,0.23064404947468442,0.1537514992485049,0.07633263585791386
0.0,29.0,29.0,0.0,120.0,0.0,0.0,0.0,0.0,-107.0,0.0,-45.0,0.0,0.0,0.0,34.27253218749016,17.55503396713325,4.815077914856987,3.3605846802014794,2.90804623210921,2.501780146697444,1.9996187408111055,1.5057097174459981,1.071256457722022,0.8151266373657854,0.5335150330312383,0.32628579406898794,0.18480743575537503,0.07592357579787806,0.11059237956659304,0.005808466216773209,0.03427054504347947,7.210464361684711,5.76084064154615,5.20751039113294,4.652530238637516,4.040318230867483,3.4149482515288563,2.739855531556773,2.1445497706812944,1.628938212102409,1.1019473903220574,0.7441621582982844,0.428237036993055,0.2139049479505666,0.09152643453878256,0.04708000385524289
0.0,30.0,30.0,0.0,120.0,0.0,0.0,0.0,0.0,-107.0,0.0,-45.0,0.0,0.0,0.0,34.27253218749016,17.55503396713325,4.937449376107741,3.5343209671847897,2.9949232915353545,2.521541903400371,2.0443400467152495,1.6037116710867738,1.0878797754374228,0.7391097214200819,0.5187475805649436,0.3098801032502131,0.21064897497123386,0.044453202936937684,0.006914092225686987,0.05328070843164501,0.05723144330216514,7.254882852495604,5.855926778833485,5.270601828642745,4.708844036010939,4.038436843320187,3.3938257158741663,2.734492094685856,2.118335968886558,1.5743561178045757,1.116461647427507,0.7649912784333345,0.4819463729548426,0.24471403754557608,0.1125664987780824,0.03784249555393213
0.0,31.0,31.0,0.0,120.0,0.0,0.0,0.0,0.0,-107.0,0.0,-45.0,0.0,0.0,0.0,34.27253218749016,17.55503396713325,4.957112308403199,3.5263034520806,2.9431763088533542,2.6446005018498413,2.0694717101291116,1.597605898895083,1.164149276080399,0.8136426154442674,0.5369377609571917,0.34707716378369924,0.28347924378869044,0.08399247283990441,0.037983464136468435,-0.013513046127107024,-0.023045735227352874,7.303268739642633,5.881864495405215,5.298252079104757,4.72529878869176,4.102170732043677,3.4274568649977515,2.7695330132925307,2.1612602651057817,1.600525137178054,1.1624588315739666,0.7482193017853659,0.44972720590368875,0.2642525549295504,0.1181530243019928,0.06544977697460615
0.0,32.0,32.0,0.0,120.0,0.0,0.0,0.0,0.0,-107.0,0.0,-45.0,0.0,0.0,0.0,34.27253218749016,17.55503396713325,4.958896661639587,3.6293853023903617,3.0871006593899994,2.5988832610702346,1.9864801236569798,1.62486077338522,1.1418882107620565,0.8000101219936245,0.49360839061161593,0.32528288056391713,0.20559291113700767,0.13236900541306057,-0.03456031574524018,0.003220810456033573,-0.038744912995107475,7.252526434963968,5.895720084760414,5.352060953213793,4.7400884380749755,4.11856418538754,3.4607320521591247,2.7410870194353865,2.1504816796241992,1.5931306918757457,1.1561694617495242,0.8074997722226628,0.4835897889735008,0.29788415714904737,0.10464287199409815,0.0631828785457867
0.0,33.0,33.0,0.0,120.0,0.0,0.0,0.0,0.0,-107.0,0.0,-45.0,0.0,0.0,0.0,34.27253218749016,17.55503396713325,5.019184850813907,3.5946175493480714,3.150287142590299,2.624071244910968,2.0459092227823836,1.5950522858748497,1.1829647559789194,0.8529125058903422,0.5750147736102068,0.33545183079688967,0.15756693876997785,0.03805690416134967,0.024290125504481,0.0037522203058831718,0.03373394892113654,7.320132952956356,5.979418087796331,5.400819094699391,4.812621192976172,4.180185347247777,3.5192882158765877,2.797470233056116,2.245703151244184,1.6458602347460667,1.1756707946367597,0.7993962885170794,0.48221536123992675,0.26192518397365694,0.11986151125013278,0.058603008304975286
0.0,34.0,34.0,0.0,120.0,0.0,0.0,0.0,0.0,-107.0,0.0,-45.0,0.0,0.0,0.0,34.27253218749016,17.55503396713325,5.000301645759735,3.6238760510690797,3.1249552369182965,2.645550073509633,2.093312278975822,1.5651299043386504,1.1844879164510547,0.7910720403186158,0.5610074363333664,0.34180463260827054,0.17190501033613473,0.08624333568312748,0.004541926554800534,0.03830699476603156,-0.04132524821158743,7.35168751645927,5.98451260629074,5.391704912083949,4.819752609607584,4.198846807282917,3.4650020760561024,2.8673901495140295,2.174060068662998,1.6295974040052872,1.1848720675072877,0.7884325605592839,0.5337930873850735,0.27662759869597353,0.1035716792653614,0.04416543426028953
0.0,35.0,35.0,0.0,120.0,0.0,0.0,0.0,0.0,-107.0,0.0,-45.0,0.0,0.0,0.0,34.27253218749016,17.55503396713325,5.103369623679622,3.6496252880699886,3.1441694789841743,2.738885201669061,2.1598257465460167,1.5922401460074866,1.1773972338642023,0.8401465635137179,0.6135630164113195,0.31171996138406166,0.2002033690731634,0.0956349104962958,0.012544545259905414,-0.025818287956102238,-0.044661756534041204,7.303577676859001,6.0090179118141105,5.446576633924777,4.875177188907403,4.19412358366398,3.5524741975608998,2.8816403344466672,2.189879940317989,1.652280469344954,1.1983195546697012,0.839002071803735,0.5303692427118116,0.27919082094172337,0.12374512813261625,0.07064985578637453
0.0,36.0,36.0,0.0,120.0,0.0,0.0,0.0,0.0,-107.0,0.0,-45.0,0.0,0.0,0.0,34.27253218749016,17.55503396713325,5.122506367571577,3.702617421250735,3.1867173955671353,2.627983872023467,2.1724443272552745,1.6502944139305014,1.217187712910047,0.8486400951459594,0.5689582171722093,0.3873639992405204,0.21632087709342923,0.10878047164780309,0.10248383666376103,0.01795703632851872,-0.005805758058001714,7.389123820214816,6.059801011798636,5.466132154943664,4.9383432114566315,4.2544227354517785,3.6097862578844646,2.8940053812604805,2.2539053996278846,1.636359755890079,1.2260340332666086,0.7718724423602341,0.4607648473773769,0.2892471789219424,0.12537420908637106,0.061228111381317944
0.0,37.0,37.0,0.0,120.0,0.0,0.0,0.0,0.0,-107.0,0.0,-45.0,0.0,0.0,0.0,34.27253218749016,17.55503396713325,5.173109017154726,3.7837374504651238,3.259857769219974,2.739055910361736,2.236718884395159,1.6394867890003293,1.2164853376468632,0.8627012934477734,0.6006516244884508,0.3527501101944014,0.20250195993320316,0.11043902321428928,0.06151815528320175,0.0017182322095043619,-0.027815131580590433,7.410341636914755,6.127225800402902,5.517473649350305,4.969578536987156,4.31944308567068,3.5802785053245345,2.885044468968368,2.223038545695508,1.6677319111597693,1.193044024548578,0.8206979119871456,0.5201964846274797,0.28849584419959506,0.11837069432322328,0.06626182772817402
0.0,38.0,38.0,0.0,120.0,0.0,0.0,0.0,0.0,-107.0,0.0,-45.0,0.0,0.0,0.0,34.27253218749016,17.55503396713325,5.157146613723782,3.796719613355343,3.2998289338715336,2.767198596804665,2.2783564984097753,1.7169024484023032,1.2168664397749456,0.9021810923411344,0.5984449630097052,0.33405697039144455,0.19783500579656443,0.11704215354198289,0.06310099584495653,0.0685240600058552,0.019570152950524784,7.500358167648217,6.150795141659663,5.580600261012994,5.0131317632255215,4.307466047550632,3.634554145240893,2.9488244845516247,2.2621747449704093,1.6747513421104807,1.192546767922209,0.7818835412189912,0.509467513278771,0.33769981739147537,0.15108931332222958,0.07791262194284466
0.0,39.0,39.0,0.0,120.0,0.0,0.0,0.0,0.0,-107.0,0.0,-45.0,0.0,0.0,0.0,34.27253218749016,17.55503396713325,5.257131355681141,3.889464777334737,3.308400217308977,2.819251196672783,2.3003085523903275,1.7149669428167953,1.2747630517031263,0.8758935630535326,0.5596848560671789,0.31519593199450485,0.24346700089961665,0.14363527904687048,0.05894598568473803,0.00774653990623691,-0.04655880620668346,7.519849554557491,6.167141102862157,5.598647398363654,5.073126787910873,4.342079555081121,3.646484091942862,2.9005626265511135,2.2457116643428185,1.7057989457627902,1.2133643137046182,0.8652219133951528,0.4982315355832107,0.2939951163258077,0.14776166704337762,0.044559244798314246
0.0,40.0,40.0,0.0,120.0,0.0,0.0,0.0,0.0,-107.0,0.0,-45.0,0.0,0.0,0.0,34.27253218749016,17.55503396713325,5.261013693979173,3.918737418356209,3.3168379695824393,2.8702631631777504,2.2530033717392053,1.7370269677542503,1.2307836571361095,0.8245160455526479,0.5315814626966899,0.3731796836301081,0.1806758206809387,0.12383121739256922,0.0625987259395925,0.05204751797171721,-0.039271744266127194,7.527432381778295,6.232646502050391,5.685635630599492,5.084713554934516,4.406209433642435,3.679753600378795,2.8950697871900104,2.2433726691354,1.7152706660717207,1.2004517191643487,0.844629820520394,0.4919580330948055,0.3154921592899325,0.16191401950053225,0.07683376219840535
0.0,41.0,41.0,0.0,120.0,0.0,0.0,0.0,0.0,-107.0,0.0,-45.0,0.0,0.0,0.0,34.27253218749016,17.55503396713325,5.2943385565687935,3.932074198460915,3.3910831605171925,2.8932752869132172,2.270620797613836,1.8122365272961831,1.3140410278425776,0.9246516615899438,0.6030370549549929,0.3092532858488108,0.21728676430294103,0.14014119707291517,0.03312649469040733,-0.01108977841670002,-0.041173641620755666,7.523731203380993,6.310699857051801,5.71319409823966,5.1466862128944495,4.424685387849109,3.6993716404803187,2.982208096717786,2.2695490686089905,1.731963606942884,1.2400597192071896,0.8031424740004579,0.5273036630597531,0.2959306685603617,0.1600510559884162,0.09014957736085943
0.0,42.0,42.0,0.0,120.0,0.0,0.0,0.0,0.0,-107.0,0.0,-45.0,0.0,0.0,0.0,34.27253218749016,17.55503396713325,5.299602067637816,3.977551723689005,3.4861188430316274,2.7988653388752986,2.332740081488349,1.7854819301231497,1.280406364322813,0.8976940145263402,0.5482620013508598,0.37887265640603673,0.1928901404622431,0.09119194371642507,0.02209324062359943,-0.00199247053830532,0.01694762871948303,7.656761734774339,6.384680499801,5.790527714575567,5.096832933544141,4.485051918506219,3.7151351814441957,3.00703749846826,2.270961662034402,1.7335092185709458,1.2096983808899424,0.8051888765991252,0.5427946277164175,0.34562399388780196,0.164368947349596,0.08169402623143689
0.0,43.0,43.0,0.0,120.0,0.0,0.0,0.0,0.0,-107.0,0.0,-45.0,0.0,0.0,0.0,34.27253218749016,17.55503396713325,5.445311679443275,3.998548121216907,3.486660610990854,2.88038385873844,2.340587491349051,1.793459000127597,1.3718023460375295,0.8970095675185431,0.5948318702581785,0.34683109512385196,0.2103343544777995,0.13656687960755642,0.049848592768520134,0.012532134983061764,0.008084137489903793,7.5931839398162095,6.350246651560249,5.766466028622501,5.194757517517588,4.47771781198764,3.7505045078305734,2.9982474920336726,2.3066034018530788,1.7211682817588518,1.1913810383789474,0.8304767023809785,0.5127393274675797,0.292195426716707,0.18369196069333454,0.08341728907701056
0.0,44.0,44.0,0.0,120.0,0.0,0.0,0.0,0.0,-107.0,0.0,-45.0,0.0,0.0,0.0,34.27253218749016,17.55503396713325,5.351716448590407,4.0848749917338525,3.4972018844150266,3.01206361543416,2.3717048214228202,1.8510954712291554,1.312088639975474,0.8746638424794325,0.5780942934487745,0.29852318013012896,0.21652584541913453,0.125971071799553,0.04607483877912323,0.045996358085176395,0.03244498269066215,7.684783039857967,6.484229533307377,5.824302522312869,5.227996927417299,4.522612033117352,3.8010564854802427,3.0041223437787408,2.3203201954898867,1.7177270123007218,1.2405177762327455,0.8364281721200634,0.5188256690905042,0.24703710589939284,0.14881330072012017,0.02543530101368062
0.0,45.0,45.0,0.0,120.0,0.0,0.0,0.0,0.0,-107.0,0.0,-45.0,0.0,0.0,0.0,34.27253218749016,17.55503396713325,5.452073241923219,4.142811459173608,3.5842610968912836,3.007199815764703,2.385241350826557,1.8598382776205171,1.2585001678090657,0.8799532385677878,0.5208958010830343,0.3377973617326651,0.21354200335678017,0.06761744339908599,0.05903183642252517,-0.03939086213204683,-0.021946956434630224,7.676733168753825,6.549599718952005,5.860443805095745,5.262300436849352,4.584345111195121,3.84481132131707,3.022913144965007,2.3645500987702675,1.7360716997512136,1.2311227779520637,0.8644027489934013,0.5339739967634711,0.3072011689157001,0.19898944664121343,0.07890056616312982
0.0,46.0,46.0,0.0,120.0,0.0,0.0,0.0,0.0,-107.0,0.0,-45.0,0.0,0.0,0.0,34.27253218749016,17.55503396713325,5.572502312736224,4.269545727904154,3.646268954798907,3.0755288504499663,2.406701840040538,1.862797808326328,1.3558526481434645,0.9609444756990098,0.5410402147463165,0.33876377184249384,0.2915324172713171,0.12378929192921082,0.055106600617755463,0.024000657482398907,0.026179577288941713,7.769213740817875,6.573695715331227,5.921578679593353,5.354310365629702,4.63172109155244,3.83015460205905,3.0888474048492647,2.376132870855044,1.8140555613279719,1.2784218682521291,0.8263885133091368,0.5129462187288767,0.2619216962743127,0.18220276771348642,0.05749518303250283
0.0,47.0,47.0,0.0,120.0,0.0,0.0,0.0,0.0,-107.0,0.0,-45.0,0.0,0.0,0.0,34.27253218749016,17.55503396713325,5.571954865558228,4.263147057025455,3.600176583858031,3.09820086288319,2.4548214743169092,1.8475080505713968,1.3665951392804756,0.9037054938133599,0.5852969821497743,0.378324752865121,0.2202006600979567,0.12478516013376523,0.09705220628322021,-0.0037977920959621873,0.00951294262668164,7.760384746146199,6.6029021982177785,6.01305000103012,5.35708382802045,4.652239969030991,3.9395348432141932,3.1210287003350308,2.36638846648399,1.7719477277418485,1.2480407170319963,0.8422544226362467,0.546115336086747,0.3182990401794287,0.16917478443179024,0.10258224212397934
0.0,48.0,48.0,0.0,120.0,0.0,0.0,0.0,0.0,-107.0,0.0,-45.0,0.0,0.0,0.0,34.27253218749016,17.55503396713325,5.601690226663952,4.329631531375781,3.699081652336514,3.1687806473693865,2.5751204907816296,1.8828622378778552,1.423403635179532,0.9403744959735518,0.6136922979715264,0.3926565167691545,0.227605474374251,0.08430104823002241,0.0561317430621015,0.017913678323175638,0.002016665849281965,7.823688440738133,6.649890916171945,6.043907478470278,5.391957026445861,4.709431805204235,3.931120107610702,3.112826795295798,2.4040300095648544,1.778046100128998,1.2698256700708754,0.8478847400014776,0.5516479111619559,0.2846878220244411,0.14818519963564455,0.06818176400297324
0.0,49.0,49.0,0.0,120.0,0.0,0.0,0.0,0.0,-107.0,0.0,-45.0,0.0,0.0,0.0,34.27253218749016,17.55503396713325,5.614264244881705,4.380884955253122,3.7223762500884385,3.144997569305573,2.5317801578252714,1.9542621963025926,1.4029324159557963,0.9444027273068976,0.6110764813576895,0.3758870930416043,0.23937850370134314,0.18309192070136615,0.02538304088132179,0.018858153254669635,-0.0427907308869587,7.938491063694155,6.674390488264251,6.115362722055022,5.406812543335961,4.692869984245346,3.9372729463094713,3.1110078952157365,2.4517236402552527,1.7876418386173478,1.3192082179612086,0.8631129267889188,0.508465009000092,0.2867359919846929,0.17993198296704163,0.09872146974218873
0.0,50.0,50.0,0.0,120.0,0.0,0.0,0.0,0.0,-107.0,0.0,-45.0,0.0,0.0,0.0,34.27253218749016,17.55503396713325,5.7035832388565275,4.393678824287158,3.7840773210211354,3.1721084253758365,2.6070472868817807,2.0047184286975073,1.4083928356234876,0.8883824523372092,0.6044731633147304,0.4073253231936509,0.22122932207043444,0.11916987469194268,0.030531425948055527,0.032959046647517865,0.0629283685631172,7.9225799516125495,6.74592013221927,6.114794972840224,5.462005578137567,4.780366539250278,3.987881614104972,3.183668178111884,2.4344117710345743,1.828704444923783,1.3088461774138647,0.8279311634137141,0.536521336145629,0.31293789591158916,0.1856332169002965,0.09000238844463956
0.0,51.0,51.0,0.0,120.0,0.0,0.0,0.0,0.0,-107.0,0.0,-45.0,0.0,0.0,0.0,34.27253218749016,17.55503396713325,5.764956696366316,4.399864325061945,3.799160130221553,3.1580730848137324,2.566466845154067,1.947178456480581,1.430845587294579,0.9956964789844358,0.6260013561517686,0.387146647286355,0.30114453962407844,0.13520850444962196,0.0641313756352262,0.07201582660159413,0.012746984039348371,7.978853615990529,6.805057448985566,6.194239099494358,5.526651738908854,4.7876089497995835,3.9754707028413363,3.2175453240139764,2.4406817040479574,1.8099586194552952,1.2541155951548262,0.8582954346168788,0.5820330284101831,0.33931208081166586,0.1633789039295334,0.07297691537933354
0.0,52.0,52.0,0.0,120.0,0.0,0.0,0.0,0.0,-107.0,0.0,-45.0,0.0,0.0,0.0,34.27253218749016,17.55503396713325,5.8478929459040065,4.533820484161435,3.8983780416939293,3.3342087708894534,2.601552901770306,1.9625778909236904,1.384661498377438,0.9474399041145116,0.7170765263100176,0.437772039124097,0.25104105717719166,0.15883950289412618,0.037780860781492995,0.010201784401102115,0.05502894671735038,8.027934434140686,6.861797072753396,6.274188852047798,5.551019754736865,4.85715809600071,4.038969336845527,3.198527180331977,2.4612573460215925,1.8330123384594934,1.2799041164008937,0.8855006855128968,0.5365725593896801,0.3364122621563777,0.15150781794272983,0.07152148330437595
0.0,53.0,53.0,0.0,120.0,0.0,0.0,0.0,0.0,-107.0,0.0,-45.0,0.0,0.0,0.0,34.27253218749016,17.55503396713325,5.928788843465082,4.593963772738068,3.9024246483296703,3.3730288122441605,2.6861066430286415,1.9941714115967637,1.46033545594429,0.9398097078882989,0.7013413050723241,0.36447562852417237,0.29094332595237277,0.16010256609285745,0.063341473322396,-0.04366069968619369,-0.030088383273936516,8.072483669191957,6.918026524126913,6.282457610486907,5.582683996678344,4.921151314972595,4.065547502664623,3.2398041382809715,2.4484131878835136,1.8453355311376534,1.2789246202955173,0.8579005548947859,0.5544407211678,0.36329642103992377,0.21454604708382258,0.05228776509240007
0.0,54.0,54.0,0.0,120.0,0.0,0.0,0.0,0.0,-107.0,0.0,-45.0,0.0,0.0,0.0,34.27253218749016,17.55503396713325,5.9956584269771716,4.690500065634953,4.04674316905126,3.3702600138711842,2.6856892731141198,2.078137277688398,1.5008719678132194,1.0311500970479401,0.6105819774197525,0.37616099388694296,0.20995025272303547,0.12627115249764537,0.08156010365807512,0.05237175389702175,0.02457659013311625,8.141080404598089,6.983448158531851,6.360482513557675,5.689639256425494,4.932942370152556,4.13320879933118,3.2533468058702355,2.4841236200223875,1.8530179533279874,1.294667744721569,0.902095108805947,0.5193049527290907,0.3328405521130929,0.1846915194682755,0.06550889786655545
0.0,55.0,55.0,0.0,120.0,0.0,0.0,0.0,0.0,-107.0,0.0,-45.0,0.0,0.0,0.0,34.27253218749016,17.55503396713325,5.976295202099586,4.7109361920080906,4.046399333161626,3.440670508572448,2.746433856420936,2.0554661041203524,1.4892045754537238,0.9558327423730804,0.6229587515022565,0.3919047943506105,0.29678131581215517,0.07145392321239753,0.07883223890566358,0.04777854990065489,-0.05578783285581733,8.192446583175599,7.05784589332899,6.3883745422826514,5.730986225234354,4.931175829017573,4.069774570554482,3.2155412450192395,2.504074861682587,1.864277369294666,1.302410410626217,0.8874369476768343,0.5757271372232363,0.3581113428350191,0.18777849955752943,0.1282214898023591
0.0,56.0,56.0,0.0,120.0,0.0,0.0,0.0,0.0,-107.0,0.0,-45.0,0.0,0.0,0.0,34.27253218749016,17.55503396713325,6.175764695722531,4.832107701928628,4.055133979216463,3.4476178959951,2.728339326489961,2.136715961786913,1.4693914854835382,1.0202634224342018,0.6418283186317845,0.40450750244338846,0.21794771667631935,0.1276105902665067,0.09829657863548877,0.05265378994231765,-0.05377902991976494,8.217712287000202,7.116095639439573,6.441565065103964,5.81718805376891,4.985840128446716,4.134090416103901,3.320262833923368,2.518788132952717,1.8508049751366278,1.3085212519690725,0.9018507133028372,0.5675324526934931,0.35361502171173953,0.16387546331393263,0.10792502346147528
0.0,57.0,57.0,0.0,120.0,0.0,0.0,0.0,0.0,-107.0,0.0,-45.0,0.0,0.0,0.0,34.27253218749016,17.55503396713325,6.202524119193715,4.8385284941248035,4.115214839590072,3.5478919123410066,2.795652493191114,2.130768484208372,1.4576650626254892,1.0178023139105625,0.6225430483562485,0.4186846733784223,0.22615538704399374,0.03235170092365966,0.0033660641924924614,0.027727161177562295,0.012432279684532761,8.295602993585582,7.141055783211992,6.505392092659395,5.797712077409989,5.033780367647753,4.218019231358317,3.3271023025778965,2.5341905183380575,1.8843560155819727,1.3698209912944517,0.8587449453135023,0.5937567137350424,0.3527675907819236,0.2130318438407518,0.11720245774797697
0.0,58.0,58.0,0.0,120.0,0.0,0.0,0.0,0.0,-107.0,0.0,-45.0,0.0,0.0,0.0,34.27253218749016,17.55503396713325,6.276969785982707,4.950750869973154,4.222888680735289,3.473981205168686,2.8038422275605552,2.162215462135881,1.552206183269749,1.0063035147548607,0.6180048227844026,0.43373799064355056,0.2749480812154529,0.13232477581651694,0.07151846799011571,0.02585681005476085,-0.016879781707658824,8.359585744141876,7.231763606976538,6.535718420303729,5.912668568938582,5.070634923858376,4.164182781121631,3.382278327908269,2.5377721860540485,1.8691290871216775,1.317489729616126,0.8868690197353023,0.5677064912870373,0.3058163129775885,0.187931535087733,0.09153430704624493
0.0,59.0,59.0,0.0,120.0,0.0,0.0,0.0,0.0,-107.0,0.0,-45.0,0.0,0.0,0.0,34.27253218749016,17.55503396713325,6.2893362606944505,4.96881928533942,4.327495647736018,3.599491414010552,2.9149994050478343,2.1888476218641397,1.5669900003669088,0.9596455109805317,0.7011186695083573,0.3954523797894022,0.2294922996751295,0.12767344003795367,0.06577883140907607,0.06141180576013894,0.014505328272470579,8.485122936092395,7.287768078932787,6.620691800232625,5.971287882571929,5.103792948186674,4.231243323136726,3.4433092557220366,2.575636585272014,1.9017376911071096,1.3773180567221512,0.894909180491203,0.5447992569732286,0.3066228359971525,0.18656568287876213,0.11884367420593236
0.0,60.0,60.0,0.0,120.0,0.0,0.0,0.0,0.0,-107.0,0.0,-45.0,0.0,0.0,0.0,34.27253218749016,17.55503396713325,6.43108739781028,5.01533430149271,4.311474115502482,3.630464878638873,2.909593919052424,2.1843900443608586,1.519320585082622,1.0525437160000404,0.6513537692487271,0.39210685336845164,0.24082752784778727,0.12481215585936697,0.04612273886135711,-0.014952563878722479,-0.03317643824941028,8.484953355728557,7.342778363764344,6.685703970054068,5.954285147129193,5.162507019629176,4.271149931946977,3.392242492078115,2.6198274169095583,1.9256476882528297,1.3386492861531576,0.9195975202791644,0.595577912087835,0.31792500273907864,0.2037241528824377,0.12065754717233883
0.0,61.0,61.0,0.0,120.0,0.0,0.0,0.0,0.0,-107.0,0.0,-45.0,0.0,0.0,0.0,34.27253218749016,17.55503396713325,6.508958112760737,5.101522598788495,4.3610042513809235,3.724296069853417,2.9533843074929833,2.2513001571419244,1.53529236952869,1.038002922050358,0.666221688162275,0.4374536037839899,0.23885874749383104,0.09642891843675382,0.06660245280087594,0.023625767407237055,0.02157896593544116,8.528725378001923,7.445078535413661,6.717838871491768,6.020615073593324,5.253305880050695,4.307905053271219,3.4402205272252915,2.6507865377965683,1.957581367501257,1.3661186715393812,0.8808107939056286,0.5258131738173019,0.3709520259917956,0.17282760981217846,0.0628734972624541
0.0,62.0,62.0,0.0,120.0,0.0,0.0,0.0,0.0,-107.0,0.0,-45.0,0.0,0.0,0.0,34.27253218749016,17.55503396713325,6.690796790124336,5.119914466801879,4.457948957600896,3.6711965592107183,2.986274420474308,2.242535968270899,1.6224584878610755,1.0651583153520328,0.6880193520491859,0.39863157267792926,0.2342359618244697,0.15790640950710463,-0.01965210094163365,-0.002010671036928608,-0.011261881374137826,8.66495853744846,7.4503779449088325,6.793177016045015,6.086301738735622,5.294389236590848,4.3351875339388615,3.4308693131791674,2.6268087618806417,1.9848028177560142,1.3716136697159065,0.9089617885726513,0.5786136591058847,0.3269574722315587,0.1701653359533466,0.10766731198800303
0.0,63.0,63.0,0.0,120.0,0.0,0.0,0.0,0.0,-107.0,0.0,-45.0,0.0,0.0,0.0,34.27253218749016,17.55503396713325,6.7510337349845875,5.293271614151642,4.515801902817611,3.7415733197999157,2.9894426164855044,2.3313887240735816,1.4952069391911316,1.139861967518424,0.6875345851158978,0.4087075447259432,0.2466067810332462,0.12200330117120799,-0.025004671729839376,0.008711263648575815,0.03800944086528585,8.724476852281,7.506565671139607,6.845320292327461,6.094894962592928,5.290920165915578,4.425361146820827,3.4879528457682385,2.646252596949162,1.913244764040722,1.3737960866709102,0.8974204050306568,0.5721241469617087,0.3263929552903901,0.16770369946208932,0.0904059760507637
0.0,64.0,64.0,0.0,120.0,0.0,0.0,0.0,0.0,-107.0,0.0,-45.0,0.0,0.0,0.0,34.27253218749016,17.55503396713325,6.751789141862119,5.397728544163363,4.516109333801405,3.803659052135226,3.0203184804296903,2.2306190612012857,1.639279965018307,0.9922535413688299,0.6760064894576381,0.43765016638629,0.2822212321286562,0.07683092070493114,0.05524607690634781,0.019524983480431815,0.05815209779309828,8.800489821770856,7.5755239389085895,6.888343828670153,6.167931060952717,5.272515559157401,4.443355251061795,3.5337053797683255,2.7022888665726033,1.9466272296367952,1.423059018936696,0.8870883071166461,0.5511503750796166,0.3714688716860113,0.17500967879432663,0.09500774101333494
0.0,65.0,65.0,0.0,120.0,0.0,0.0,0.0,0.0,-107.0,0.0,-45.0,0.0,0.0,0.0,34.27253218749016,17.55503396713325,6.879238596591932,5.430875432286408,4.659708284535078,3.859834118357779,3.0781231476585913,2.2126144865867476,1.6564222994653226,0.9954327168570271,0.7149140795079981,0.4369247278952895,0.2957138853812237,0.1878228148299794,0.09678009687711837,0.06366131904406669,0.023641419530668173,8.811917797615632,7.638609982286254,6.9561332412965875,6.283814303507793,5.390901474042952,4.464027641615017,3.5400562772528543,2.700892675965738,1.9711468654373563,1.3996744104884637,0.8898169056024245,0.5637265218463767,0.30574016325653225,0.20542944987385187,0.10990765755328566
0.0,66.0,66.0,0.0,120.0,0.0,0.0,0.0,0.0,-107.0,0.0,-45.0,0.0,0.0,0.0,34.27253218749016,17.55503396713325,6.996197119869684,5.487028627005093,4.752785737240421,3.9057047372000238,3.1001836370593177,2.39533361823267,1.559548897299682,1.1685703290596483,0.7634599723141453,0.4599274496188686,0.25237079109178917,0.16168673923206883,0.007675536771520872,0.04207891631905766,0.060378384368225124,8.92483188141492,7.7207657332648,7.03880377813904,6.278450067069524,5.412485045821097,4.482496808569579,3.592220205551169,2.6931487384797843,1.9605648167880372,1.413830625833219,0.9037950926556195,0.5637342856410809,0.352605404884803,0.16868330757478334,0.11882649924582527
0.0,67.0,67.0,0.0,120.0,0.0,0.0,0.0,0.0,-107.0,0.0,-45.0,0.0,0.0,0.0,34.27253218749016,17.55503396713325,7.058596125413381,5.647749448108146,4.7617619781535305,3.978862141176059,3.0939912123111837,2.393663350007919,1.725349502804294,1.1008522386582356,0.7554938138000388,0.4407819935182007,0.21673025287898856,0.14975009732107072,0.07676221200514596,0.004028278515472498,0.07406184746290963,8.98156169327455,7.809973433995114,7.097643024926577,6.366803457490094,5.495793492871384,4.541751292269348,3.6309021610269987,2.730144094256214,2.016558554313206,1.416642991791793,0.9633491310796324,0.5586700501417329,0.337119651737597,0.21129747956897735,0.10346184564386657
0.0,68.0,68.0,0.0,120.0,0.0,0.0,0.0,0.0,-107.0,0.0,-45.0,0.0,0.0,0.0,34.27253218749016,17.55503396713325,7.125221296125807,5.6477169107289384,4.810651239554653,3.9828328755519125,3.2715696530017286,2.3610500744968363,1.6814097362351488,1.118166945274791,0.7417904593621377,0.37756660181320056,0.2346760864617145,0.15125149342274125,0.06480459617135226,0.02312711208223882,0.019025426782383073,9.078313906333735,7.8604300636093365,7.130681136410804,6.393637051394633,5.511836437330519,4.574250572195396,3.6219034838973214,2.7116752375310855,1.9896888687752026,1.4159245902626891,0.9289977744206355,0.5496276852656291,0.37262701285872474,0.16916749695908959,0.11535557660610167
0.0,69.0,69.0,0.0,120.0,0.0,0.0,0.0,0.0,-107.0,0.0,-45.0,0.0,0.0,0.0,34.27253218749016,17.55503396713325,7.279227200091716,5.687931538113455,4.857915475819355,4.093790791781888,3.3165644569150503,2.466623309205632,1.673747429096979,1.174206152204538,0.6529699669058041,0.45083127970197684,0.24992936079678338,0.16307284346295967,0.10784548843027553,0.1221575491001579,-0.09007587117028704,9.093736742166634,7.971067019334639,7.250220666147364,6.484554684094212,5.507804035434367,4.664035154777492,3.65483998681866,2.8215942456332694,2.026362980224406,1.4278538830452217,0.9593917169656498,0.5826833103347357,0.30521032424310446,0.21176094214249855,0.09788435629507583
0.0,70.0,70.0,0.0,120.0,0.0,0.0,0.0,0.0,-107.0,0.0,-45.0,0.0,0.0,0.0,34.27253218749016,17.55503396713325,7.40275361271619,5.81442225673668,4.985047917811953,4.170260055645104,3.2733805986657183,2.412671962887649,1.6843519010490222,1.1831839926323022,0.734411863549438,0.39999237227661216,0.3140738406800828,0.17639030866874472,0.01270222377641711,0.0615208100120578,-0.030583439316162146,9.156706318885808,7.995499533372457,7.272250571622616,6.49166822059995,5.618540858533944,4.66410645022038,3.664580513974149,2.791588085074278,2.028708991077763,1.3864734166824908,0.9429272604585556,0.5712353119772898,0.3617853333730785,0.1856362549058133,0.08824218026084302
0.0,71.0,71.0,0.0,120.0,0.0,0.0,0.0,0.0,-107.0,0.0,-45.0,0.0,0.0,0.0,34.27253218749016,17.55503396713325,7.440724562622066,5.848721113477189,5.02455863993199,4.125580430789125,3.34545146719279,2.4315526134660876,1.7394193426667452,1.20923757356523,0.7540514528964718,0.4434108154417008,0.19867841671645936,0.14613647579694972,0.06876514479481491,-0.04656470993717612,0.04908822648935447,9.306070255383853,8.11565287593899,7.35210049421682,6.618037779038785,5.68404232785933,4.685063216380142,3.7092332133009336,2.812139011046783,2.0440444872915675,1.4698804152380507,0.939903566139371,0.5875481334210652,0.35529456025291795,0.23513847016986503,0.11721967039424722
0.0,72.0,72.0,0.0,120.0,0.0,0.0,0.0,0.0,-107.0,0.0,-45.0,0.0,0.0,0.0,34.27253218749016,17.55503396713325,7.590183824312457,5.97482647009925,5.107869298017504,4.24707919940321,3.4055557778421104,2.5062915435534605,1.7449581444173439,1.1754350328628311,0.7375373064056505,0.3950849855972863,0.2339835158868916,0.1552849926213753,0.024032263122328104,0.055467566654559874,0.02150676888992036,9.40528082850042,8.173582289375847,7.402441289347475,6.623401879449493,5.715514627808654,4.724199075372444,3.757477559088194,2.835441672106062,2.04424689181438,1.4137973797739176,0.945090352915115,0.5786549322863084,0.3939805956231035,0.18152771917118485,0.13307206110247705
0.0,73.0,73.0,0.0,120.0,0.0,0.0,0.0,0.0,-107.0,0.0,-45.0,0.0,0.0,0.0,34.27253218749016,17.55503396713325,7.707840167405541,6.129469259353349,5.21047336575849,4.376150461286974,3.366617099415507,2.4952024233285672,1.8085873437766276,1.1484512229916992,0.7805419404388377,0.47214801101173576,0.25255533431611027,0.1655471900522546,0.044300601234304446,0.06735134803624149,-0.018060697426214155,9.477784723971773,8.239195456964813,7.416958306930569,6.6561982331038365,5.773429401679214,4.82296838441776,3.7595394234535227,2.8731237362697173,2.1027111274413355,1.4647241701726412,0.9295088064648428,0.625075158874261,0.3168587206098302,0.21772201983646103,0.07833650917225839
0.0,74.0,74.0,0.0,120.0,0.0,0.0,0.0,0.0,-107.0,0.0,-45.0,0.0,0.0,0.0,34.27253218749016,17.55503396713325,7.798474938197588,6.195912910345896,5.3169549512582135,4.396471638777309,3.4787808844010133,2.588134137840099,1.7523731565292382,1.1869444453548126,0.7958122261049093,0.44463717175759065,0.27667793698597354,0.08356421338486411,0.08264536365531527,-0.00019379885642026307,0.03949089436847461,9.501937965741986,8.322003240773636,7.537525141575254,6.808395853155446,5.823811743198102,4.892596769329109,3.8317418676444652,2.8448861689518323,2.107438993996062,1.4220376849698402,0.9727902369164864,0.6020250338035114,0.3182356721293017,0.21581222680216447,0.0740870503393135
0.0,75.0,75.0,0.0,120.0,0.0,0.0,0.0,0.0,-107.0,0.0,-45.0,0.0,0.0,0.0,34.27253218749016,17.55503396713325,7.888951486185983,6.233613923102598,5.335256197602784,4.4868407797503425,3.502830878525671,2.643640560783623,1.8161084638658629,1.2526575765346517,0.7575317133362104,0.5021647369105391,0.2954609341933816,0.11580486814370042,0.004907574057096298,0.002651761580675309,0.029937220042817902,9.568592776389968,8.377386787066975,7.638658508316184,6.799235273733232,5.853179119958929,4.8605137879258375,3.8313703606381555,2.9299562689570497,2.1301208571575194,1.4799358357219317,0.9638693337614876,0.6159089660643574,0.34292619074752084,0.17377293808475164,0.09147982105977741
0.0,76.0,76.0,0.0,120.0,0.0,0.0,0.0,0.0,-107.0,0.0,-45.0,0.0,0.0,0.0,34.27253218749016,17.55503396713325,8.02941486201416,6.333065185280308,5.416023411237565,4.522986925190881,3.505052724467811,2.7282744073786502,1.8756092805061484,1.252496217714699,0.7822174528525414,0.45067048872331494,0.2934729569071083,0.08377477481261605,0.14962545906440505,-0.013692777002613142,0.07295691540449459,9.707633989981613,8.438841591717315,7.64516531160341,6.878501168916501,5.92702987761579,4.904039078039806,3.8261693625739546,2.9331769153351366,2.104457442354543,1.4814237093487232,0.9594055153869011,0.6188289470942063,0.38136291768501385,0.20991244701472436,0.11277155498406224
0.0,77.0,77.0,0.0,120.0,0.0,0.0,0.0,0.0,-107.0,0.0,-45.0,0.0,0.0,0.0,34.27253218749016,17.55503396713325,8.200882239749074,6.424215227291444,5.524850977718635,4.554454977623861,3.615884428843483,2.78491323685339,1.8040963176356002,1.289811814515034,0.773263815722904,0.40719318782416425,0.2767432173772446,0.10446547599367223,0.14102541479622788,0.05235014532893523,0.036637461757876355,9.787924420546542,8.527459200872574,7.767248851195669,6.921960968732268,5.9961530323588725,5.003808946204571,3.8684746850411877,2.9545559988772054,2.1193607325241834,1.483222197351764,0.9918717082399993,0.6352929373096569,0.36733610160836266,0.20554272482010416,0.05377170421329286
0.0,78.0,78.0,0.0,120.0,0.0,0.0,0.0,0.0,-107.0,0.0,-45.0,0.0,0.0,0.0,34.27253218749016,17.55503396713325,8.291010948508575,6.519167279833691,5.612314657863967,4.6474819776638245,3.676291512249784,2.713451674588449,1.8993322457645005,1.2747844201718372,0.7233039609929189,0.46487663285190933,0.29798350894973513,0.16422507974688624,0.09424444545543827,0.053416263907491573,0.0019855868065855424,9.847396502124976,8.632194696583948,7.860851051278971,7.0288638098199385,6.0536500532808635,4.9652066084212665,3.9157975855046803,2.99866903458509,2.151804504966607,1.508864541037266,1.0006811748259106,0.5912771180039954,0.35887181253471284,0.2274439699063709,0.09713114167509167
