Line_number,Fiducial,Easting,Northing,Height,Elevation,tx_pitch,tx_roll,tx_yaw,txrx_dx,txrx_dy,txrx_dz,rx_pitch,rx_roll,rx_yaw,PX,PZ,S0X_time_1.086e-05,S0X_time_3.256e-05,S0X_time_5.426e-05,S0X_time_8.680e-05,S0X_time_1.411e-04,S0X_time_2.279e-04,S0X_time_3.689e-04,S0X_time_5.860e-04,S0X_time_9.115e-04,S0X_time_1.411e-03,S0X_time_2.192e-03,S0X_time_3.418e-03,S0X_time_5.339e-03,S0X_time_8.301e-03,S0X_time_1.338e-02,S0Z_time_1.086e-05,S0Z_time_3.256e-05,S0Z_time_5.426e-05,S0Z_time_8.680e-05,S0Z_time_1.411e-04,S0Z_time_2.279e-04,S0Z_time_3.689e-04,S0Z_time_5.860e-04,S0Z_time_9.115e-04,S0Z_time_1.411e-03,S0Z_time_2.192e-03,S0Z_time_3.418e-03,S0Z_time_5.339e-03,S0Z_time_8.301e-03,S0Z_time_1.338e-02
0.0,0.0,0.0,0.0,120.0,0.0,0.0,0.0,0.0,-107.0,0.0,-45.0,0.0,0.0,0.0,34.27253218749016,17.55503396713325,1.6862160532749328,1.5169545315556654,1.4558627793591965,1.3905569713138002,1.3104807492336272,1.2170837198925388,1.1083369877039657,0.9889103984612978,0.8635800170440231,0.7313917983190449,0.594756883061905,0.460455556178543,0.3369391190734882,0.23258068396870915,0.14542391326058188,3.2468508837943877,2.9985726960296772,2.9087186968430543,2.8119206201317493,2.6918192554532103,2.5494059615400495,2.380013533693014,2.1889110133117105,1.9816495837058608,1.7540905919258172,1.506911103952409,1.2485937946225727,0.9925812203125978,0.7561572590850728,0.5358004154679609
0.0,1.0,1.0,0.0,120.0,0.0,0.0,0.0,0.0,-107.0,0.0,-45.0,0.0,0.0,0.0,34.27253218749016,17.55503396713325,1.5969569300137942,1.3681162392540678,1.310441326013157,1.251210888366401,1.1795006067488685,1.0963845110236656,0.9998630248902188,0.8939084178879302,0.7825946835625015,0.6649198464000077,0.542866116406429,0.4223386502708583,0.31083983520002195,0.21597892586745562,0.13609453724546755,3.1356234329829515,2.7888186614631585,2.699920487049626,2.6085829663174027,2.4969074773479405,2.365497149339685,2.209806777709538,2.0344869512905235,1.844437660449717,1.6356761708477379,1.4086084196624906,1.1707720491981886,0.9342903757470291,0.714970092365775,0.5094160948585215
0.0,2.0,2.0,0.0,120.0,0.0,0.0,0.0,0.0,-107.0,0.0,-45.0,0.0,0.0,0.0,34.27253218749016,17.55503396713325,1.5489169292811749,1.2418803697647232,1.183699575358665,1.1292040476698666,1.0645192772269527,0.9901831360982241,0.9041739342425318,0.8098556227909728,0.7106973199346021,0.6056633897911974,0.49637481903477865,0.3879807595995095,0.287147126993015,0.20078728537456253,0.1274773330683017,3.0810926270279198,2.6071417678153366,2.5121816976694995,2.4246543083674683,2.3201363263479244,2.198406881868571,2.0549106161620903,1.8937103710495526,1.7191073802844867,1.527257358329138,1.3183315765823649,1.0990308021887252,0.8802998222901,0.6766074468738963,0.48467147522710835
0.0,3.0,3.0,0.0,120.0,0.0,0.0,0.0,0.0,-107.0,0.0,-45.0,0.0,0.0,0.0,34.27253218749016,17.55503396713325,1.5301475287556736,1.138452778536014,1.0735069432483442,1.022118619021579,0.9632856870966796,0.8964679322261009,0.8195300106904339,0.735297184068602,0.6467137739205121,0.5527217692454252,0.45463767244611897,0.3569565805054134,0.2656066770145515,0.18686862026163656,0.11951008469501778,3.0670114877161385,2.4572142417313527,2.344590407691378,2.2582067691585928,2.1595830322670704,2.046355749431866,1.9137235726784192,1.7651756119293047,1.6044571413744484,1.4278463970385753,1.235311456818532,1.0328109441339304,0.830235308287879,0.6408403397737273,0.4614458455920776
0.0,4.0,4.0,0.0,120.0,0.0,0.0,0.0,0.0,-107.0,0.0,-45.0,0.0,0.0,0.0,34.27253218749016,17.55503396713325,1.5301644192383745,1.0576835634097617,0.9786556116154559,0.9280206232715479,0.8739177637485338,0.8135447305474514,0.7444592767651992,0.6689961487312633,0.5896405158247356,0.5053205513030862,0.4170958138025979,0.3288946642951677,0.2459941966460351,0.17410066671097366,0.11213662961634806,3.0787161219996433,2.341097215833344,2.1975762328102,2.10779350868361,2.013579518796424,1.9077792193058911,1.7848327880376922,1.6476394177711549,1.4994218143257882,1.3365654308085948,1.1588621932784977,0.9716116131747365,0.7837595732577005,0.6074609049342212,0.4396286138942171
0.0,5.0,5.0,0.0,120.0,0.0,0.0,0.0,0.0,-107.0,0.0,-45.0,0.0,0.0,0.0,34.27253218749016,17.55503396713325,1.5414173246721075,0.998006370836469,0.8984962111516701,0.845446811591879,0.7948418366789687,0.7399812277334591,0.677711644475397,0.6098972094565631,0.5386171922806554,0.46279199503489726,0.38326407630591236,0.30346992268662454,0.2281115395594686,0.1623742749795209,0.10530621679132111,3.1055987021185865,2.2575242386009347,2.072133128119644,1.972564137987478,1.8806992011796342,1.7813012194736104,1.6669900485880857,1.5400005716236613,1.4030558640309283,1.2526331355097333,1.088371271502063,0.9149835029320972,0.7405683057827074,0.5762802379492986,0.41911836825515897
0.0,6.0,6.0,0.0,120.0,0.0,0.0,0.0,0.0,-107.0,0.0,-45.0,0.0,0.0,0.0,34.27253218749016,17.55503396713325,1.5590449183460393,0.9566317671736058,0.8324071709570275,0.7733428756319455,0.7247521252253454,0.6745628236084898,0.6182217004639967,0.5570971265156331,0.4929040115535548,0.424558816947215,0.352720276472594,0.2803972625751396,0.21178335748295504,0.15159186949266015,0.0989729374454012,3.14084663433531,2.2025670656832657,1.968748525438086,1.85219383959296,1.759769704854575,1.6657127494417314,1.5590910058777927,1.4412822844200182,1.3145186764222168,1.1753530865582862,1.0232908953763602,0.8625230002797346,0.7003865790955902,0.5471264788918498,0.39982203266600963
0.0,7.0,7.0,0.0,120.0,0.0,0.0,0.0,0.0,-107.0,0.0,-45.0,0.0,0.0,0.0,34.27253218749016,17.55503396713325,1.5801417562789721,0.9302226815825728,0.7794677161074466,0.7109270374698553,0.6625828924779514,0.616257412611492,0.5650784513671409,0.5098204432081235,0.4518630398329801,0.39012065124762907,0.32509619538545276,0.2594261684387121,0.1968542180881004,0.1416661034112382,0.09309521976864549,3.180409498674222,2.1710682993939114,1.886843212907055,1.7466053631973626,1.6498895528920727,1.5599559630251947,1.4601574887299953,1.3506168857798284,1.2330618106774598,1.104103624631113,0.9631304472115109,0.8138670440596789,0.6629657045834204,0.5198431051561802,0.38165410651880255
0.0,8.0,8.0,0.0,120.0,0.0,0.0,0.0,0.0,-107.0,0.0,-45.0,0.0,0.0,0.0,34.27253218749016,17.55503396713325,1.6030696030847207,0.915480255909363,0.7384084641695965,0.6575364412131968,0.6074778797374156,0.564188041838314,0.5175006246749424,0.46739944771859276,0.4149426779402582,0.35904272067021287,0.3000699658928758,0.24033608134524223,0.18318611711142943,0.13251868176929038,0.08763538012486219,3.2220196776223675,2.157794373398034,1.8248064438976521,1.6556557549432072,1.5504093726967445,1.4631153748960963,1.3693224013481118,1.2672325129155513,1.1580179194576146,1.0383290164432306,0.9074498961078054,0.7686886105518032,0.6280804511970073,0.49428741000277837,0.3645359793169047
0.0,9.0,9.0,0.0,120.0,0.0,0.0,0.0,0.0,-107.0,0.0,-45.0,0.0,0.0,0.0,34.27253218749016,17.55503396713325,1.6269522422629004,0.9094846402470973,0.7077244955958171,0.6125152457490719,0.5587496348006331,0.5176117337473217,0.4748163970451054,0.4292575878416949,0.3816647280624356,0.33094632840046184,0.27735962958155147,0.22293244898533093,0.1706563272122352,0.12407933081477335,0.08255922432434605,3.2644764354152858,2.158081912040325,1.7803364109643733,1.5789329871849036,1.4608673156297687,1.3744131397388968,1.2858169358346938,1.1904415854820782,1.0887910959761053,0.9775317405901721,0.8558540276409056,0.7266927445433157,0.5955265854255773,0.4703291453222008,0.34839531286616454
0.0,10.0,10.0,0.0,120.0,0.0,0.0,0.0,0.0,-107.0,0.0,-45.0,0.0,0.0,0.0,34.27253218749016,17.55503396713325,1.6513461456098086,0.9098313003259336,0.6858290859848943,0.5751625855043992,0.5158333049729812,0.4759017513415095,0.43644678369950113,0.39489569932438007,0.35161357846827895,0.3055008556113938,0.2567176695502259,0.20704334215136205,0.15915553484763084,0.1162848942579716,0.07783569305624938,3.307181655355364,2.1680926393317446,1.750824035727138,1.5156952776022576,1.3809010028356594,1.2932017871418877,1.2089602362337148,1.1196308175808314,1.0248484525530441,0.9212657498304139,0.8079873856866673,0.6876130658316436,0.5651186923322032,0.447849309720071,0.3331654838097397
0.0,11.0,11.0,0.0,120.0,0.0,0.0,0.0,0.0,-107.0,0.0,-45.0,0.0,0.0,0.0,34.27253218749016,17.55503396713325,1.6760415653787641,0.9146410763809686,0.6711824026313817,0.5447279576310655,0.4782438698483545,0.4385309987298745,0.40189208963739326,0.3638805232726216,0.3244271313470452,0.282417006770899,0.23792635957710476,0.19251655034239662,0.14858622386978854,0.10907853978612433,0.0734365462428687,3.349860872638362,2.1848376494111523,1.7336546362606249,1.4649139053743625,1.3101657101200088,1.2189497895848767,1.1381513729261288,1.0542525325969125,0.9657127758107537,0.8691305776791974,0.7635298332445903,0.6512086902420693,0.5366882432757812,0.4267390652955278,0.31878508013976165
0.0,12.0,12.0,0.0,120.0,0.0,0.0,0.0,0.0,-107.0,0.0,-45.0,0.0,0.0,0.0,34.27253218749016,17.55503396713325,1.7009492972236926,0.9225056454754992,0.6623759993312731,0.5204325946383305,0.4455432461131543,0.4050556531749591,0.37072080698107013,0.33583509951906615,0.2997891716920739,0.2614410917248452,0.22079379828377274,0.17921708344489276,0.13886127081431052,0.10240906148526312,0.06933608174954904,3.392405231027267,2.2060882466278473,1.726400904632092,1.4253649390019272,1.2482773863505563,1.1512200147865206,1.0728628488702334,0.9938171389123873,0.9109561198278561,0.8207661754239491,0.7221926521488129,0.6172615123370542,0.5100818803961691,0.4068987684687003,0.3051974460768644
0.0,13.0,13.0,0.0,120.0,0.0,0.0,0.0,0.0,-107.0,0.0,-45.0,0.0,0.0,0.0,34.27253218749016,17.55503396713325,1.726039421744798,0.9324071979697577,0.6581769520968176,0.5014991563682135,0.4173191518181449,0.37509935395178295,0.342560330785669,0.3104307177555612,0.277422929591841,0.24235017217298951,0.2051505194954722,0.1670250183024141,0.12990272211970863,0.09623026577210975,0.06551088446297831,3.434786400972289,2.230243454521849,1.7269243726821848,1.395728824399584,1.194784796499408,1.0896445319869008,1.0126345495612374,0.9378866901032175,0.8601942069900578,0.7758483838629907,0.6837151120053414,0.5855738041638188,0.48515989176203955,0.3882371019551683,0.29235027035065886
0.0,14.0,14.0,0.0,120.0,0.0,0.0,0.0,0.0,-107.0,0.0,-45.0,0.0,0.0,0.0,34.27253218749016,17.55503396713325,1.7513096937677113,0.9436343514611842,0.6575424224802899,0.48717926367548436,0.3931742582801728,0.34833878556879816,0.3170889577297213,0.2873801713243755,0.2570856324784369,0.22494793141504546,0.19084658838475285,0.15583363884816204,0.12164072795414767,0.09050043012665482,0.061939602241722846,3.477012907812682,2.2561922227242404,1.733412762177072,1.374675737040186,1.1491657663702293,1.0339000767122075,0.9570672715266773,0.8860694371435254,0.81308152316608,0.7340849585397164,0.6478614477241527,0.5559660905955244,0.4617948543789318,0.3706702965240039,0.2801952134598346
0.0,15.0,15.0,0.0,120.0,0.0,0.0,0.0,0.0,-107.0,0.0,-45.0,0.0,0.0,0.0,34.27253218749016,17.55503396713325,1.7767699683670806,0.9557056954570539,0.6596151042640406,0.47677437347720286,0.3727227058494202,0.32449139404695476,0.2940288004022834,0.2664320945933748,0.23856388163289677,0.20906115111804968,0.17774910812014832,0.14554782665193866,0.1140126110678862,0.08518182536787484,0.05860274566279639,3.5191087512356924,2.283189144751159,1.7443771604420777,1.3609289018560216,1.110839116130042,0.9836874538838941,0.9058154831903166,0.838015216276602,0.7693070178994939,0.69521207751655,0.6144181932366055,0.5282752670784345,0.4398704251276309,0.3541214325313798,0.2686875699581611
0.0,16.0,16.0,0.0,120.0,0.0,0.0,0.0,0.0,-107.0,0.0,-45.0,0.0,0.0,0.0,34.27253218749016,17.55503396713325,1.8024348891004764,0.9683058892810189,0.6637075576075282,0.4696491526512393,0.3555910076148114,0.30330559626572007,0.2731394220867397,0.24736618897636758,0.22166971878878475,0.19453669871386145,0.1657400742615756,0.1360826655142515,0.1069620522540901,0.08024029346305063,0.05548250885459531,3.561103450554406,2.310751366211028,1.7586263746932849,1.35330615268472,1.0791843318610321,0.9387164904346211,0.8585794704421343,0.7934114649749067,0.7285903414864155,0.6589912687818399,0.5831918263537724,0.5023529300405263,0.4192802622165341,0.33851981240980134,0.2577859622262859
0.0,17.0,17.0,0.0,120.0,0.0,0.0,0.0,0.0,-107.0,0.0,-45.0,0.0,0.0,0.0,34.27253218749016,17.55503396713325,1.8283206368454923,0.9812354016552135,0.6692809892078347,0.46523825721978584,0.3414209909037405,0.28455345242358876,0.2542121220518455,0.22998916682937148,0.2062372736018346,0.18123894520208023,0.15471452448415704,0.12736222937994832,0.10043837667950119,0.07564487393315654,0.05256260903222497,3.6030276725608554,2.3385780514512735,1.775230034146888,1.350743435107936,1.0535631083971233,0.8986966790839628,0.8150973172313591,0.7519796539820445,0.6906785623486377,0.625206702086539,0.5540066860126313,0.478063894031214,0.39992706192436117,0.32380039633053137,0.24745206256498772
0.0,18.0,18.0,0.0,120.0,0.0,0.0,0.0,0.0,-107.0,0.0,-45.0,0.0,0.0,0.0,34.27253218749016,17.55503396713325,1.8544435804150223,0.9943728639110232,0.675922157327623,0.46304799743677705,0.32987321066005726,0.2680255000376346,0.23706486575290311,0.2141312705847553,0.19211990160350928,0.1690475465496767,0.14457893972392905,0.11931852755448509,0.0943959276153741,0.07136747283783387,0.0498281426397441,3.644911455446531,2.3664904327289533,1.7934778287418651,1.3523047373468364,1.0333391754128904,0.863332717039948,0.7751372452738777,0.7134719643315267,0.6553433103532544,0.593662797911014,0.5267031283421368,0.45528487299158005,0.38172169731237043,0.309903294163279,0.23765034078535832
0.0,19.0,19.0,0.0,120.0,0.0,0.0,0.0,0.0,-107.0,0.0,-45.0,0.0,0.0,0.0,34.27253218749016,17.55503396713325,1.8808197725968636,1.00764802639073,0.6833207442889043,0.46265435983149694,0.320629946706979,0.25352731760431135,0.22153786961107627,0.1996432546867926,0.17918773645530545,0.1578555330898904,0.1352498598429255,0.11189058515569854,0.08879351602177671,0.06738256911568125,0.047265456255986944,3.686783576315396,2.3943889923808857,1.8128394394068326,1.3571825077041202,1.0178946487837595,0.8323237303444867,0.7384907511617217,0.6776681030529704,0.6223782894084415,0.5641821138522872,0.5011358922464851,0.4339033059789787,0.36458244723064503,0.296773307652052,0.22834783477330228
0.0,20.0,20.0,0.0,120.0,0.0,0.0,0.0,0.0,-107.0,0.0,-45.0,0.0,0.0,0.0,34.27253218749016,17.55503396713325,1.9074647998942569,1.0210230439211772,0.6912485993117411,0.46369862472330253,0.313397383141026,0.24087736719049757,0.2074898364298703,0.1863937463665151,0.16732559148750123,0.14756766064075533,0.1266526826962534,0.10502364005283943,0.08359393606926417,0.06366695373792067,0.04486203063934941,3.72867139115523,2.4222239985832084,1.8329278077903537,1.364691808079081,1.0066423794520296,0.805364937440759,0.7049668185035998,0.6443722165574159,0.5915971008735972,0.5366034752315543,0.47717264881856464,0.4138163102247588,0.34843430536711806,0.28435951742502824,0.21951394177177286
0.0,21.0,21.0,0.0,120.0,0.0,0.0,0.0,0.0,-107.0,0.0,-45.0,0.0,0.0,0.0,34.27253218749016,17.55503396713325,1.9343937691289763,1.0344799635439204,0.699541589656102,0.4658815425381301,0.3079068713456649,0.22990571424003392,0.19479481317423825,0.17426692501607383,0.15643115490467271,0.13809898472068804,0.11872062029341865,0.09866844033607619,0.07876353806769504,0.060199497722091835,0.0426063764771212,3.770600854057397,2.449975918985146,1.8534670978124919,1.3742606450488122,0.9990344818603207,0.7821506785520728,0.6743873141735559,0.6134099108563684,0.5628313211071069,0.5107803217066779,0.4546927120854317,0.39492974661229363,0.3332083603253959,0.27261491007255745,0.2111202283593821
0.0,22.0,22.0,0.0,120.0,0.0,0.0,0.0,0.0,-107.0,0.0,-45.0,0.0,0.0,0.0,34.27253218749016,17.55503396713325,1.9616213410881764,1.0480126280064956,0.7080843316439037,0.46895678615997216,0.3039153422026624,0.22045330214593922,0.1833396197251943,0.16316047758104352,0.14641343139738083,0.12937362546940048,0.11139378977163342,0.09278062870857699,0.07427185145188528,0.05696094556075943,0.04048794057119154,3.8125965956956582,2.4776428248133904,1.874265823999795,1.3854182473745076,0.9945675623139981,0.7623779922674273,0.6465835398328927,0.5846254169871447,0.5359287824284847,0.4865792451662953,0.4335858914702374,0.377157384554384,0.3188412387979452,0.2614960410706281,0.20314025731303506
0.0,23.0,23.0,0.0,120.0,0.0,0.0,0.0,0.0,-107.0,0.0,-45.0,0.0,0.0,0.0,34.27253218749016,17.55503396713325,1.9891617768148158,1.0616216014657076,0.7167977588167277,0.47272419752703465,0.30120500548882645,0.2123715431428588,0.17302178114240493,0.1529837991883918,0.13719139049098714,0.12132369593634686,0.104618420284081,0.08732020217153104,0.07009125148059549,0.05393373105964336,0.03849702133790526,3.854682015850694,2.505232551776918,1.8951950473289276,1.3977825396987875,0.9927852750484565,0.7457501771837832,0.6213938168206886,0.5578789497457702,0.5107520157843012,0.46387869655295677,0.41375146896233966,0.36042015486448253,0.3052746048482708,0.25096272980562223,0.19554942972846034
0.0,24.0,24.0,0.0,120.0,0.0,0.0,0.0,0.0,-107.0,0.0,-45.0,0.0,0.0,0.0,34.27253218749016,17.55503396713325,2.0170289847331255,1.0753110905365046,0.7256292894475487,0.4770231914878815,0.2995824933907131,0.2055220617341675,0.16374788834069198,0.14365641527080242,0.12869278880011933,0.11388837051965799,0.09834615975889206,0.08225103704131888,0.06619666416607871,0.05110181295971473,0.03662469262805221,3.8968793748112907,2.5327579831235765,1.9161711922934213,1.411047672989057,0.9932788159118554,0.7319799943078031,0.5986619329011438,0.5330443032484795,0.4871768236932666,0.4425678410003234,0.39509728630351204,0.3446454806010449,0.29245470914683763,0.24097778337703382,0.18832484093885446
0.0,25.0,25.0,0.0,120.0,0.0,0.0,0.0,0.0,-107.0,0.0,-45.0,0.0,0.0,0.0,34.27253218749016,17.55503396713325,2.0452365652393105,1.0890871387619976,0.734545252315501,0.4817265599522974,0.2988775967733257,0.1997764864422594,0.15543231186411663,0.13510660513961925,0.12085313935875186,0.10701307374061118,0.09253346788816948,0.07754047074945243,0.06256530468849923,0.048450528047020484,0.03486273498577836,3.9392098794804506,2.560234312719955,1.9371428608168493,1.424972182122412,0.9956858892157961,0.7207923316649794,0.578236264287116,0.5100067139806554,0.4650909619295008,0.42254554219882445,0.37753892950127826,0.32976667706198504,0.2803319827348767,0.2315067462250199,0.18144514892048222
0.0,26.0,26.0,0.0,120.0,0.0,0.0,0.0,0.0,-107.0,0.0,-45.0,0.0,0.0,0.0,34.27253218749016,17.55503396713325,2.073797852166551,1.1029566073012178,0.7435251932104261,0.48673482672335655,0.29894172322991586,0.1950162295351165,0.14799619856815524,0.12727020860800736,0.11361480629369027,0.10064877239299912,0.0871410837287525,0.07315893307317115,0.05917644518158346,0.045966459739267336,0.03320357356445598,3.98169376353053,2.5876775219807895,1.9580809606326077,1.4393681243031295,0.999688592134129,0.7119262678265794,0.5599693948773135,0.48866100602374946,0.44439291672318726,0.40371945849792634,0.36099899966696536,0.3157224131531923,0.2688606705287671,0.22251767295510666,0.17489045400710201
0.0,27.0,27.0,0.0,120.0,0.0,0.0,0.0,0.0,-107.0,0.0,-45.0,0.0,0.0,0.0,34.27253218749016,17.55503396713325,2.1027259512686594,1.1169266250343455,0.7525576931585426,0.49197123233469175,0.29964618360305983,0.19113222452042408,0.1413666893402055,0.12008959789533419,0.1069262072968535,0.09475135653862599,0.08213355799553775,0.06907962046332689,0.05601120831844367,0.04363732038577567,0.0316402220049441,4.024350361839159,2.615103575536758,1.9789714868479529,1.454091390510163,1.0050105729988925,0.7051365443713095,0.5437180768103391,0.4689100177303055,0.4249907704554156,0.38600523502224693,0.3454064605677462,0.30245622727802063,0.2579985003360111,0.2139809220193091,0.16864218885408916
0.0,28.0,28.0,0.0,120.0,0.0,0.0,0.0,0.0,-107.0,0.0,-45.0,0.0,0.0,0.0,34.27253218749016,17.55503396713325,2.132033775973855,1.1310043092105138,0.761637364771458,0.49737737476345983,0.300880392582517,0.1880246105457829,0.135476305692851,0.11351279734576232,0.10074110968727758,0.08928109691572317,0.07747884155528352,0.06527820800550779,0.05305238359292835,0.04145184573256151,0.03016623165878416,4.067198179554381,2.642528026939411,1.9998103627793942,1.469033263453107,1.0114137430547323,0.7001944990595347,0.5293434045708424,0.45066329635994357,0.4068011528420872,0.3693257780086782,0.3306960544204548,0.2899160917122017,0.24770638364125097,0.20586896816614403,0.16268301769970492
0.0,29.0,29.0,0.0,120.0,0.0,0.0,0.0,0.0,-107.0,0.0,-45.0,0.0,0.0,0.0,34.27253218749016,17.55503396713325,2.1617340806293637,1.1451966360468808,0.7707627416210373,0.5029094931187803,0.3025500505713776,0.18560236434418176,0.13026246284254242,0.10749273387106195,0.09501800844221962,0.0842021681432054,0.07314792282866374,0.06173259429376524,0.05028426359319797,0.039399700191476136,0.028775645606934255,4.110254956103277,2.669965848676659,2.0205998352473338,1.4841132108143433,1.0186947574892382,0.6968885313776462,0.516711103738511,0.4338360379752208,0.38974827671392653,0.35361059957554763,0.31680777839192126,0.2780540201526359,0.23794814484649976,0.19815623179613104,0.15699674406627054
0.0,30.0,30.0,0.0,120.0,0.0,0.0,0.0,0.0,-107.0,0.0,-45.0,0.0,0.0,0.0,34.27253218749016,17.55503396713325,2.191839491425584,1.1595103907162796,0.7799348274855455,0.5085353548914466,0.304575358448797,0.18378288652497757,0.12566707590999643,0.10198660166409729,0.08971957654678185,0.07948222867829628,0.06911450782001445,0.05842267513313069,0.047692497910137036,0.03747139171550885,0.027462956984812385,4.153537724433521,2.6974313788372095,2.041346013467694,1.4992728451780877,1.0266814298173033,0.695024177940362,0.5056918619053495,0.4183482442617411,0.373763058143305,0.3387952231010732,0.30368641505778116,0.2668257137674494,0.2286902760220764,0.19081892355821334,0.15156822612931536
0.0,31.0,31.0,0.0,120.0,0.0,0.0,0.0,0.0,-107.0,0.0,-45.0,0.0,0.0,0.0,34.27253218749016,17.55503396713325,2.222362535175381,1.173952156988234,0.7891561216214371,0.5142316908809458,0.30688930384566265,0.18249155176145096,0.12163623371123242,0.09695532566562425,0.08481217949485843,0.07509204984502549,0.06535473735073524,0.05533014253322711,0.04526396262176155,0.03565819522473147,0.02622307117764039,4.19706286577681,2.7249383245014345,2.062057229014848,1.514470946423962,1.0352292020031333,0.6944238728075811,0.49616165174159005,0.40412406542936596,0.35878232031565305,0.32482064121436216,0.29128111075355034,0.25619024163527077,0.21990171455119983,0.18383490269900893,0.14638329905897357
0.0,32.0,32.0,0.0,120.0,0.0,0.0,0.0,0.0,-107.0,0.0,-45.0,0.0,0.0,0.0,34.27253218749016,17.55503396713325,2.253315666121355,1.18852832510079,0.7984299795931914,0.5199821134063903,0.3094360466887407,0.18166123314217442,0.11811992109670479,0.09236310946076956,0.08026544689154545,0.07100518741810428,0.06184693680124673,0.05243830592395161,0.04298664355291596,0.033952083651809455,0.025051271497210276,4.240846160232002,2.7524997900388004,2.0827429715064953,1.5296794236307043,1.0442177590957213,0.6949264610486492,0.4880020141850735,0.3910912983007372,0.34474807961951937,0.31163282001294745,0.2795449963620997,0.2461097519503222,0.21155364133850277,0.1771835478338244,0.14142870370610106
0.0,33.0,33.0,0.0,120.0,0.0,0.0,0.0,0.0,-107.0,0.0,-45.0,0.0,0.0,0.0,34.27253218749016,17.55503396713325,2.2847112909427176,1.2032451069060066,0.8077602053175583,0.5257754509255712,0.31216942271186726,0.18123181055277457,0.11507177597114024,0.08817705465302597,0.07605189496036341,0.06719769024025832,0.058571394290005255,0.04973193292666893,0.0408495317330915,0.0323456657848743,0.02394318799291957,4.284902833470692,2.7801283143712707,2.103413218574672,1.544880087416332,1.053547850019107,0.6963865254013224,0.4811002834425856,0.3791810103914379,0.3316069112744026,0.2991822444747596,0.26843484564291736,0.23654921079347793,0.20361929750623428,0.17084563894791369,0.1366920210665194
0.0,34.0,34.0,0.0,120.0,0.0,0.0,0.0,0.0,-107.0,0.0,-45.0,0.0,0.0,0.0,34.27253218749016,17.55503396713325,2.3165617921292934,1.2181085530599662,0.8171507987971627,0.5316044340055746,0.3150515761203164,0.1811496720112214,0.11244887112335315,0.08436684022459698,0.07214659442835467,0.06364784119024736,0.05551016375435463,0.047197107360230854,0.03884252966915273,0.03083213018092187,0.02289476908693532,4.329247599864643,2.8078359098258385,2.1240780294274377,1.5600621064476545,1.0631383542796156,0.6986735771134956,0.4753497454534874,0.3683272635913197,0.31930939067177483,0.287423501118748,0.25791076673341967,0.22747616563535034,0.19607381772649127,0.164803249560623,0.13216161201139345
0.0,35.0,35.0,0.0,120.0,0.0,0.0,0.0,0.0,-107.0,0.0,-45.0,0.0,0.0,0.0,34.27253218749016,17.55503396713325,2.348879549882257,1.2331245700059064,0.8266058062038175,0.5374646722406892,0.31805172644115964,0.18136721572825484,0.11021151399549038,0.0809044518624829,0.06852687880838919,0.06033592652231921,0.05264688986106035,0.04482110245859104,0.03695636721827538,0.029405194506513434,0.02190225575616325,4.373894702322206,2.835634099561824,2.144747310188162,1.5752200305157795,1.0729236168361873,0.7016711538078335,0.470649728343954,0.3584669144421222,0.30780960562557697,0.2763148948003913,0.24793592294600594,0.2188605310529772,0.1888940785370446,0.15903964809540355,0.12782656182059088
0.0,36.0,36.0,0.0,120.0,0.0,0.0,0.0,0.0,-107.0,0.0,-45.0,0.0,0.0,0.0,34.27253218749016,17.55503396713325,2.3816769626904595,1.2482989359476764,0.836129235530333,0.5433538680113811,0.3211450696580062,0.18184235948426306,0.10832305971610834,0.07776395264624156,0.06517208856335356,0.057244030184082424,0.04996665207552006,0.042592267532972884,0.03518252599307744,0.02805905973591876,0.020962158012845886,4.41885794910311,2.863533952618132,2.1654306880862944,1.5903522746503642,1.0828510595608114,0.7052758598163821,0.46690562786938605,0.3495394715738319,0.2970647339938767,0.26581809713556975,0.2384762794470681,0.2106743944146062,0.18205856016539718,0.15353920759679546,0.12367662909979114
0.0,37.0,37.0,0.0,120.0,0.0,0.0,0.0,0.0,-107.0,0.0,-45.0,0.0,0.0,0.0,34.27253218749016,17.55503396713325,2.414966466718845,1.263637315650907,0.8457250130480457,0.5492712200123816,0.32431180989293784,0.18253806279022236,0.10674973428957306,0.07492128781058265,0.06206334704947893,0.05435585020622248,0.04745582556687307,0.040499926532503554,0.03351317135876364,0.0267883687013077,0.020071233461520024,4.464150747859708,2.8915461164917073,2.1861374524380226,1.605459972377872,1.092879067067056,0.709396377982746,0.46402887351375155,0.34148699433205365,0.2870346806692756,0.255897824466427,0.22950037283340952,0.20289183952393955,0.1755472205432041,0.14828732302265826,0.11970219870152633
0.0,38.0,38.0,0.0,120.0,0.0,0.0,0.0,0.0,-107.0,0.0,-45.0,0.0,0.0,0.0,34.27253218749016,17.55503396713325,2.448760554132715,1.279145274148953,0.8553969643061509,0.555216976592757,0.3275363150458358,0.18342186626631893,0.10546046592967406,0.07235411748598024,0.059183364513419656,0.05165653466025046,0.045101956928753344,0.038534287148159256,0.031941091193634336,0.025588168546221965,0.019226467733100164,4.509786137130812,2.9196808474504854,2.2068765350298936,1.6205461200876041,1.1029751367583562,0.7139524763811262,0.4619368423006386,0.33425401982344005,0.2776817677311505,0.2465215435560983,0.2209791010146785,0.19548878642244066,0.16934138033311108,0.1432703354174917,0.11589423830583778
0.0,39.0,39.0,0.0,120.0,0.0,0.0,0.0,0.0,-107.0,0.0,-45.0,0.0,0.0,0.0,34.27253218749016,17.55503396713325,2.4830717904694843,1.2948282894893703,0.8651488092699245,0.5611921057070931,0.33080638781236954,0.18446545173495388,0.10442672327426204,0.07004167236986032,0.05651626676974052,0.049132535014072436,0.042893652958306966,0.036686359270255285,0.030459640681792948,0.02445387668344252,0.018425056617383397,4.555776815493193,2.94794803882949,2.227656512575521,1.635614947664934,1.113114277340349,0.7188740286569085,0.46055272787971524,0.32778750842774446,0.2689704715753855,0.23765920336381297,0.21288553116499523,0.18844284573106101,0.16342361791449772,0.13847546234167227,0.1122442583482342
0.0,40.0,40.0,0.0,120.0,0.0,0.0,0.0,0.0,-107.0,0.0,-45.0,0.0,0.0,0.0,34.27253218749016,17.55503396713325,2.517912831158408,1.3106917646456533,0.8749841651368245,0.5671980544096812,0.334112642253229,0.185644225681682,0.10362235971908285,0.06796462818743476,0.05404744551702959,0.04677147499218003,0.04082048096429369,0.03494788175325907,0.029062692492112758,0.023381249902260898,0.0176643897335545,4.602135168556249,2.9763572475186773,2.248485620629527,1.6506714625471315,1.123277636377194,0.7241000626427755,0.45980537239381103,0.32203680023426434,0.26086720104348793,0.22928299134144123,0.20519472382166823,0.18173318607530814,0.1577776733849586,0.1338907339929113,0.10874427501149418
0.0,41.0,41.0,0.0,120.0,0.0,0.0,0.0,0.0,-107.0,0.0,-45.0,0.0,0.0,0.0,34.27253218749016,17.55503396713325,2.553296437278874,1.3267410386896763,0.8849065529531536,0.5732365762002034,0.3374479754539693,0.18693692798228617,0.1030234634375069,0.0661049955706525,0.05176342756368908,0.04456203327854944,0.038872879273017934,0.03331125656663903,0.02774459177215526,0.022366356308900118,0.01694203559458058,4.648873293967953,3.004917718796736,2.2693717727037064,1.6657211248826636,1.1334513353987234,0.7295778484461816,0.45962906823142763,0.31695357685865266,0.2533401109169547,0.2213671127349776,0.19788357148374175,0.1753404132834663,0.1523883607323133,0.129504934511125,0.10538677602392468
0.0,42.0,42.0,0.0,120.0,0.0,0.0,0.0,0.0,-107.0,0.0,-45.0,0.0,0.0,0.0,34.27253218749016,17.55503396713325,2.589235490639311,1.3429813972934392,0.8949194058012075,0.5793096091121389,0.3408071236755743,0.1883252671214034,0.10260821286317126,0.06444602262682675,0.04965176052856565,0.0424938385947608,0.03704207677221942,0.03176948951943576,0.026500115451141906,0.021405549818018257,0.016255727935943688,4.69600302458478,3.0336384096224194,2.290322581079085,1.68076962044944,1.1436254902582585,0.7352620342537911,0.45996333618430185,0.3124918247104465,0.2463589455806925,0.21388759139134342,0.19093065029950682,0.16924646017942813,0.14724148741867116,0.12530754800689745,0.10216468903019663
0.0,43.0,43.0,0.0,120.0,0.0,0.0,0.0,0.0,-107.0,0.0,-45.0,0.0,0.0,0.0,34.27253218749016,17.55503396713325,2.6257430082512556,1.3594180826102307,0.9050260773450655,0.5854191912492966,0.3441862926366363,0.18979358253415263,0.10235673754334201,0.06297210799900678,0.04770091285622732,0.04055737585084063,0.03532002048126465,0.030316136841510927,0.0253244354034485,0.0204954469434347,0.015603353192150072,4.743535949944476,3.0625280104689763,2.3113453774814503,1.6958227054568389,1.1537933946057213,0.7411138355882937,0.4607526858641246,0.30860779705402597,0.23989490815280187,0.2068220905782305,0.18431608363243465,0.16343448591116552,0.1423237806949961,0.1212887088976616,0.09907135232214326
0.0,44.0,44.0,0.0,120.0,0.0,0.0,0.0,0.0,-107.0,0.0,-45.0,0.0,0.0,0.0,34.27253218749016,17.55503396713325,2.6628321562665964,1.3760563025748542,0.9152298501302044,0.5915674035855807,0.34758285208609097,0.191328534184752,0.10225098434882149,0.06166872265286206,0.04590018624105527,0.03874390220770485,0.03369931026398947,0.02894525698790219,0.02421308507449536,0.01963290566298752,0.014982939016079399,4.791483436168417,3.0915949657748882,2.332447232765966,1.7108861034441643,1.163950845218275,0.7471002816296618,0.46194636355275165,0.3052599731841492,0.2339205508953418,0.20014975233331433,0.17802141646250727,0.15788878386457197,0.13762282003276388,0.1174391561751107,0.09610048773609516
0.0,45.0,45.0,0.0,120.0,0.0,0.0,0.0,0.0,-107.0,0.0,-45.0,0.0,0.0,0.0,34.27253218749016,17.55503396713325,2.7005162634402593,1.3929012396578704,0.9255339433778673,0.5977563323320385,0.35099508553169356,0.19291881905310115,0.1022745890693589,0.06052233897443951,0.044239638787686754,0.03704537201254315,0.03217313991098099,0.02765136710596151,0.02316192921519548,0.018815006156105214,0.01439264374660503,4.839856644409115,3.1208474930807157,2.3536349752976338,1.7259654393576214,1.1740955892997387,0.7531935204335146,0.4634980920045299,0.3024090137706558,0.2284096832367992,0.19385105387594564,0.17202949971836062,0.15259469731149145,0.13312697511975652,0.11375019126274949,0.09324617554064427
0.0,46.0,46.0,0.0,120.0,0.0,0.0,0.0,0.0,-107.0,0.0,-45.0,0.0,0.0,0.0,34.27253218749016,17.55503396713325,2.7388088341754178,1.4099580591073653,0.9359415202003541,0.6039880451342852,0.35442198680916814,0.1945549138298394,0.10241275344356325,0.05952036604339463,0.04271001744750133,0.03545436967563196,0.030735243913322004,0.026429403669342946,0.02216713641012336,0.018039033233721295,0.013830746739211667,4.888666547948366,3.150293600922426,2.3749152079915246,1.7410661997167574,1.1842268755368386,0.7593701834084947,0.46536580610796935,0.3000177119614876,0.22333729423350385,0.1879076796427735,0.16632438374886727,0.14753854203083333,0.12882534892076986,0.1102136391543681,0.09050283115441866
0.0,47.0,47.0,0.0,120.0,0.0,0.0,0.0,0.0,-107.0,0.0,-45.0,0.0,0.0,0.0,34.27253218749016,17.55503396713325,2.7777235612036804,1.427231916711907,0.9464556942536954,0.6102645768814169,0.3578630960501812,0.1962288428195518,0.10265212767686227,0.05865109016966588,0.041302698461971314,0.033964049651736744,0.02937984933193681,0.025274686839574498,0.02122515411892943,0.017302460298834758,0.013295639482641479,4.93792394804237,3.179941105553849,2.396294324101214,1.7561937107442274,1.1943450925380226,0.7656108082210459,0.46751138775512247,0.2980509402103844,0.21867948676145255,0.18230240754994878,0.1608912202347374,0.1427075352235065,0.12470772535181815,0.10682181255295314,0.08786518354756097
0.0,48.0,48.0,0.0,120.0,0.0,0.0,0.0,0.0,-107.0,0.0,-45.0,0.0,0.0,0.0,34.27253218749016,17.55503396713325,2.817274337948501,1.4447279661187438,0.957079535881093,0.6165879220665846,0.3613183684875731,0.19793396981693928,0.10298069849504748,0.0579036199587978,0.040009634714331,0.0325680827735724,0.02810163223749992,0.024182888165866313,0.020332685980849096,0.016602934692633717,0.012785817432037536,4.987639488601687,3.2097976465723286,2.417778521885378,1.7713531285908601,1.2044514801652928,0.7718993183511562,0.46990040276218864,0.2964755930509869,0.21441342115388612,0.17701900813808705,0.15571617191500026,0.13808973011589765,0.1207645211591169,0.10356747875545427,0.08532825519342185
0.0,49.0,49.0,0.0,120.0,0.0,0.0,0.0,0.0,-107.0,0.0,-45.0,0.0,0.0,0.0,34.27253218749016,17.55503396713325,2.857475270616263,1.4624513657414213,0.9678160778094492,0.6229600315118655,0.36478807038941735,0.19966481254707985,0.10338768276751527,0.057267835311494444,0.03882330904222143,0.03126060826042514,0.026895678257041745,0.023150001277815517,0.019486671158946776,0.015938264295885126,0.012299872495729836,5.037823669786138,3.2398707015219115,2.4393738182829137,1.7865494374838016,1.21454790111747,0.7782225567988958,0.4725018422313293,0.2952605262024968,0.2105172663796025,0.17204215532051248,0.15078632956323823,0.13367395571331733,0.11698674163229664,0.10044382905220485,0.08288734344852704
0.0,50.0,50.0,0.0,120.0,0.0,0.0,0.0,0.0,-107.0,0.0,-45.0,0.0,0.0,0.0,34.27253218749016,17.55503396713325,2.898340690056016,1.480407285290592,0.9786683204571511,0.6293828119176283,0.3682726972158699,0.20141687814282433,0.10386342671573529,0.05673433987410052,0.037736692696816725,0.030036190793183724,0.025757446816266842,0.022172315264483,0.018684265524436944,0.015306405268495445,0.011836486118773951,5.088486860587864,3.2701675995472024,2.4610860617101955,1.801787452880448,1.2246366618754738,0.7845698709126189,0.4752878703376097,0.29437649248773845,0.20697015719098202,0.16735734752831005,0.14608963569710456,0.12944976122463445,0.113365939815609,0.09744445043095763,0.08053800324933331
0.0,51.0,51.0,0.0,120.0,0.0,0.0,0.0,0.0,-107.0,0.0,-45.0,0.0,0.0,0.0,34.27253218749016,17.55503396713325,2.939885163425817,1.4986009119608246,0.9896392369022439,0.63585812717061,0.3717729098293083,0.20318651806356666,0.10439931070027234,0.056294416544825206,0.036743208249986406,0.028889782108715515,0.024682738712459257,0.02124639046757041,0.01792282450243859,0.014705450821894606,0.011394422911730017,5.139639310469204,3.3006955341683804,2.4829209440727618,1.8170718276260251,1.2347203737385812,0.7909327449494911,0.4782335801615603,0.29379607509149036,0.20375215596031052,0.16295083812514824,0.14161481454452743,0.12540736473273772,0.10989417891175214,0.09456329939455851,0.0782760310237993
0.0,52.0,52.0,0.0,120.0,0.0,0.0,0.0,0.0,-107.0,0.0,-45.0,0.0,0.0,0.0,34.27253218749016,17.55503396713325,2.9821235057007787,1.5170374563048483,1.000731777550523,0.6423878006868576,0.37528948525108,0.20497080083347186,0.10498765955516975,0.05593998571060397,0.03583669635167547,0.027816686622427693,0.023667666692673426,0.020369036446659782,0.017199887419136167,0.014133620929409898,0.010972524777978119,5.191291160116281,3.3314615752444383,2.504884012064177,1.8324070597698061,1.2448018461436987,0.7973044767627989,0.48131675886290554,0.29349361870017443,0.2008442181704481,0.15880957404814502,0.1373513078231594,0.12153760573286544,0.1065639976007905,0.09179467771853952,0.07609744972433378
0.0,53.0,53.0,0.0,120.0,0.0,0.0,0.0,0.0,-107.0,0.0,-45.0,0.0,0.0,0.0,34.27253218749016,17.55503396713325,3.0250707910554655,1.5357221578249103,1.0119488745346406,0.6489736183087903,0.3788232790443273,0.20676740098696586,0.10562165841271277,0.0556635659455123,0.03501138582653894,0.02681253063861164,0.02270862874664625,0.019537291901156335,0.016513163206882127,0.013589252889182384,0.010569705497195356,5.243452451363633,3.36247268018745,2.5269806778090085,1.8477975011593164,1.2548840057583879,0.8036798949146174,0.4845176632007467,0.2934451590544984,0.19822816073477706,0.15492114171622096,0.1332892159178379,0.11783190120282071,0.10336837802189015,0.08913320999050357,0.07399849489653444
0.0,54.0,54.0,0.0,120.0,0.0,0.0,0.0,0.0,-107.0,0.0,-45.0,0.0,0.0,0.0,34.27253218749016,17.55503396713325,3.0687423641511105,1.5546602903090976,1.0232934458688394,0.6556173314456578,0.38237519691307464,0.20857450264831337,0.10629527393549623,0.05545823694667768,0.03426186667343384,0.0258732347542484,0.021802283854237294,0.018748406357162177,0.015860517338506318,0.013070792662587885,0.01018494572652597,5.296133136340399,3.3937357044863568,2.549216228895576,1.8632473662543825,1.264969835973253,0.8100551125148979,0.48781880614678114,0.29362835142273996,0.19588663249556762,0.15127371933242117,0.12941924406539826,0.11428220490602224,0.10030071618847877,0.0865738227872591,0.07197560170518041
0.0,55.0,55.0,0.0,120.0,0.0,0.0,0.0,0.0,-107.0,0.0,-45.0,0.0,0.0,0.0,34.27253218749016,17.55503396713325,3.1131538513560844,1.573857166938317,1.0347683993792087,0.6623206602635411,0.3859461735468356,0.21039071623408784,0.10700318084712146,0.05531760452002382,0.033583065595110026,0.024994989103719573,0.020945529953856866,0.01799982344829158,0.01523995987518871,0.0125767869186228,0.009817288384461843,5.349343085883531,3.4252574115940377,2.5715958378362935,1.878760740822373,1.2750623323972545,0.8164273141685134,0.49120475510843165,0.29402239846972783,0.19380308639346475,0.14785603478988818,0.1257326531782084,0.11088096966074681,0.09735479462820311,0.08411172535838374,0.0700253928453873
0.0,56.0,56.0,0.0,120.0,0.0,0.0,0.0,0.0,-107.0,0.0,-45.0,0.0,0.0,0.0,34.27253218749016,17.55503396713325,3.1583211719265143,1.5933181451877172,1.0463766364261462,0.6690852968097386,0.3895371571128552,0.21221500684667255,0.10774069362850452,0.05523576745779411,0.032970223739784185,0.024174231129734366,0.020135483921861323,0.017289165637855625,0.01464963452397259,0.01210587572147753,0.00946583438563485,5.403092097259443,3.457044482227187,2.5941245709886562,1.8943415903221283,1.285164470791549,0.8227945725523528,0.49466194207601333,0.29460797795948906,0.19196175291790257,0.14465732847136417,0.12222121495805102,0.1076211123372507,0.09452475705802825,0.08174239169640286,0.06814466727272098
0.0,57.0,57.0,0.0,120.0,0.0,0.0,0.0,0.0,-107.0,0.0,-45.0,0.0,0.0,0.0,34.27253218749016,17.55503396713325,3.2042605491723646,1.613048631544151,1.058121055433697,0.6759129080082709,0.39314909811133175,0.2140466330183052,0.1085037032242785,0.05520728617399555,0.03241887638244012,0.02340762559998648,0.01936946337365726,0.016614220246067755,0.01408780861140874,0.011656785804536331,0.00912973869755521,5.457389901230933,3.4891035231241174,2.6168073969669408,1.9099937678788785,1.2952791845774663,0.8291556913289335,0.49817848583044017,0.2953671706905907,0.1903476145427269,0.14166732030820245,0.11887717097100127,0.10449598136918477,0.09180508492202555,0.0794615438841824,0.06633038969138809
0.0,58.0,58.0,0.0,120.0,0.0,0.0,0.0,0.0,-107.0,0.0,-45.0,0.0,0.0,0.0,34.27253218749016,17.55503396713325,3.2509885216331496,1.6330540860593732,1.0700045552391204,0.6828051384962972,0.3967829415693109,0.21588509456428262,0.10928861858360672,0.055227152983728996,0.03192483431285835,0.02269204661992301,0.018644970115732774,0.015972926660296177,0.013552863889159241,0.011228324379475301,0.008808206692915163,5.5122461685026725,3.521441075301696,2.6396491945730514,1.925721021811576,1.305409349636643,0.8355100713176515,0.5017440261939441,0.29628338902415385,0.18894638092666566,0.13887618053619044,0.11569319537217916,0.10149932658720444,0.08919057563511157,0.07726513661952111,0.06457968074453142
0.0,59.0,59.0,0.0,120.0,0.0,0.0,0.0,0.0,-107.0,0.0,-45.0,0.0,0.0,0.0,34.27253218749016,17.55503396713325,3.298521954286139,1.6533400267567884,1.0820300382752548,0.689763613291707,0.4004396217632861,0.2177300884069013,0.11009231284228756,0.055290763928675046,0.03148416673055944,0.022024561419791963,0.017959675094282878,0.015363364619095512,0.013043288095729338,0.0108193734339864,0.00850049077340351,5.567670515574697,3.55406362184893,2.662654760273936,1.9415270027095506,1.3155577746012124,0.8418575970779973,0.5053495701744397,0.29734130632653594,0.18774446471784942,0.13627450365159488,0.11266236098689722,0.09862527120140037,0.08667632239032871,0.07514934282546178,0.0628898078551053
0.0,60.0,60.0,0.0,120.0,0.0,0.0,0.0,0.0,-107.0,0.0,-45.0,0.0,0.0,0.0,34.27253218749016,17.55503396713325,3.346878049808789,1.6739120339079636,1.094200413597642,0.6967899402940888,0.40412005883537394,0.21958147133541553,0.11091207393850726,0.05539389206435752,0.031093185474936533,0.021402415719067997,0.017311404700802408,0.014783743471984004,0.012557667205948721,0.01042888447601935,0.008205887243076667,5.623672510030106,3.586977595291426,2.685828815252238,1.9574152700751315,1.3257271952234684,0.8481985413011115,0.5089873497429694,0.2985267876121798,0.18672895784806656,0.13385328513149727,0.10977810847192664,0.09586828577542254,0.08425769540026198,0.07311054026253229,0.061258176669878886
0.0,61.0,61.0,0.0,120.0,0.0,0.0,0.0,0.0,-107.0,0.0,-45.0,0.0,0.0,0.0,34.27253218749016,17.55503396713325,3.3960743539322493,1.6947757472418434,1.1065186016484179,0.7038857123418515,0.4078251567999958,0.22143922878011754,0.11174555943903233,0.05553266213654544,0.0307484304425405,0.020823020493709144,0.01669812830823493,0.014232392326915377,0.012094678306540319,0.010055873686381734,0.007923733409697346,5.680261740887086,3.6201894513311967,2.7091759832357516,1.9733893047956816,1.3359202711164644,0.8545334846400297,0.5126506909303967,0.2998268216254703,0.1858876082408113,0.13160390053712534,0.10703421829755436,0.09322316404933027,0.08193032445509392,0.07114529906614644,0.05968232311602489
0.0,62.0,62.0,0.0,120.0,0.0,0.0,0.0,0.0,-107.0,0.0,-45.0,0.0,0.0,0.0,34.27253218749016,17.55503396713325,3.446128771587671,1.7159368653009608,1.1189875415401576,0.7110525077539387,0.4115558033274249,0.2233034485874756,0.11259075537968159,0.05570352658057859,0.030446656063429563,0.020283939991808015,0.016117946923064008,0.013707751006217319,0.011653083042064022,0.00969941744503988,0.007653404885586404,5.737448191438103,3.653705400307174,2.7327009555077044,1.9894524711373827,1.346139590070664,0.8608632492150886,0.5163338933764002,0.3012294547104914,0.1852087968565197,0.12951808667392703,0.10442478530674316,0.09068500048062773,0.07969008269056291,0.06925037013868687,0.058159906244885665
0.0,63.0,63.0,0.0,120.0,0.0,0.0,0.0,0.0,-107.0,0.0,-45.0,0.0,0.0,0.0,34.27253218749016,17.55503396713325,3.4970596019218494,1.7374011962370324,1.1316101736429465,0.7182918974660687,0.4153128680006036,0.22517429964760596,0.11344593881210012,0.055903242782862385,0.03018481872893207,0.019782880859862455,0.015569082849788132,0.013208361739557698,0.011231721580964488,0.009358648199674522,0.007394313136559421,5.79524124333031,3.6875315207677306,2.756408385237152,2.005608064934632,1.3563876638876065,0.8671888426650355,0.5200321210407491,0.3027237263096744,0.18468151511188133,0.12758792450907236,0.10194419562659636,0.0882491693834317,0.07753307146889228,0.0674226743316596,0.056688700426700926
0.0,64.0,64.0,0.0,120.0,0.0,0.0,0.0,0.0,-107.0,0.0,-45.0,0.0,0.0,0.0,34.27253218749016,17.55503396713325,3.5488855393549765,1.759174607067681,1.1443894472610263,0.7256054508562031,0.4190972018331906,0.22705201391425403,0.11430964398050557,0.056128851537394026,0.02996006507505929,0.019317682259060092,0.015049870273414036,0.012732861529576029,0.010829507056209761,0.00903275064789651,0.007145903194956773,5.85365037915359,3.721674203365333,2.7803024580219895,2.0218594770365663,1.3666669114196806,0.8735114100296821,0.5237413043763085,0.30429960603180894,0.18429534269950024,0.1258058235917308,0.09958710572212602,0.08591130555533476,0.0754556062846235,0.06565929235851385,0.0552665896044578
0.0,65.0,65.0,0.0,120.0,0.0,0.0,0.0,0.0,-107.0,0.0,-45.0,0.0,0.0,0.0,34.27253218749016,17.55503396713325,3.6016256347872453,1.781263054594891,1.1573283504535659,0.7329947193642813,0.4229096414857376,0.22893687178700534,0.115180631480435,0.05637765676467454,0.02976972101605938,0.01888630686863493,0.01455874667397469,0.012279975132023788,0.010445420439396726,0.008720958207094065,0.006907651380582189,5.912684861991839,3.7561397876671094,2.8043876546280937,2.0382098674876596,1.3769797024100543,0.8798322025240601,0.5274580450706142,0.30594793471431775,0.18404042536698137,0.12416450784414751,0.0973484233845135,0.08366728629115716,0.07345420361567032,0.06395745538316543,0.053891560243605106
0.0,66.0,66.0,0.0,120.0,0.0,0.0,0.0,0.0,-107.0,0.0,-45.0,0.0,0.0,0.0,34.27253218749016,17.55503396713325,3.655299343133267,1.8036725838899317,1.1704298930732389,0.740461249277583,0.42675100798899746,0.23082919012606407,0.11605786081090586,0.056647206241943936,0.029611281497713235,0.018486832673383483,0.014094244997033429,0.011848508597543387,0.010078505811070568,0.008422549748277232,0.006679063384195127,5.972353850452481,3.790934629722291,2.828668438126476,2.0546623215875814,1.3873283417706028,0.8861525440508659,0.5311795364302049,0.3076603658469179,0.18390745337039766,0.12265700241125681,0.09522329049213485,0.0815132146871389,0.07152556864649552,0.06231453623447344,0.05256169604412737
0.0,67.0,67.0,0.0,120.0,0.0,0.0,0.0,0.0,-107.0,0.0,-45.0,0.0,0.0,0.0,34.27253218749016,17.55503396713325,3.7099265582898293,1.8264093129439494,1.1836971014531277,0.7480065927330822,0.43062210490806047,0.2327293129539144,0.11694046565783564,0.05693527342531029,0.02948240088371674,0.018117445455958982,0.013654986509303075,0.011437343327384589,0.009727865993522506,0.008136846572322207,0.006459672436530299,6.032666819334119,3.8260651021705883,2.853149053619013,2.071219909358793,1.3977150702944303,0.8924738071028143,0.5349034889734449,0.30942931017452563,0.18388764008493536,0.12127662151029708,0.09320706736286638,0.0794454041491007,0.06966658379765286,0.06072804120000171,0.0512751733362349
0.0,68.0,68.0,0.0,120.0,0.0,0.0,0.0,0.0,-107.0,0.0,-45.0,0.0,0.0,0.0,34.27253218749016,17.55503396713325,3.765527668417912,1.8494794571976618,1.1971330267275961,0.755632303055655,0.4345237210575408,0.23463760346809526,0.11782773171412972,0.05723984036762857,0.029380883904796942,0.017776431923624273,0.01323967427488818,0.01104543059989645,0.009392658515450902,0.00786320960895543,0.0062490374886125955,6.093633345561466,3.861537670278955,2.8778336204714168,2.0878856432678816,1.4081420734205534,0.8987973940994822,0.5386280636704676,0.3112478826077391,0.18397270098094748,0.12001695711226583,0.0912953185499636,0.07746036402193365,0.06787429800152982,0.05919560235655761,0.05003025553181918
0.0,69.0,69.0,0.0,120.0,0.0,0.0,0.0,0.0,-107.0,0.0,-45.0,0.0,0.0,0.0,34.27253218749016,17.55503396713325,3.822123567916502,1.8728894310891355,1.2107407571043083,0.7633399077343207,0.4384566433068531,0.23655443532921458,0.11871907708815378,0.05755908169208847,0.02930467711338289,0.01746217340683567,0.012847087193603512,0.010671786528595724,0.009072091880676364,0.007601036820531761,0.006046741581885121,6.15526236650695,3.897358263497153,2.9027267479553496,2.1046625221682116,1.4186114535221104,0.9051247122944767,0.5423518216281635,0.3131098487497698,0.184154833530163,0.1188718682419449,0.08948379995645568,0.07555478626211366,0.0661459166692958,0.05771497039863516,0.04882528704140995
0.0,70.0,70.0,0.0,120.0,0.0,0.0,0.0,0.0,-107.0,0.0,-45.0,0.0,0.0,0.0,34.27253218749016,17.55503396713325,3.8797355054351064,1.896645522089101,1.2245233798505821,0.7711309681554726,0.4424216349591122,0.23848019245656052,0.11961403431938823,0.05789134935813274,0.029251860895319955,0.01717314004659408,0.012476074555232806,0.010315487414605785,0.008765422115950806,0.007349760794264424,0.005852390836031582,6.217563081592062,3.9335332854915768,2.927832603427509,2.1215535058634147,1.4291252725991908,0.9114571741912334,0.5460736596733591,0.3150095800546475,0.18442669621302452,0.11783547114264749,0.08776844708582082,0.07372553308792998,0.06447879229987981,0.05628400792721333,0.047658691209957055
0.0,71.0,71.0,0.0,120.0,0.0,0.0,0.0,0.0,-107.0,0.0,-45.0,0.0,0.0,0.0,34.27253218749016,17.55503396713325,3.938384567923297,1.9207543741404984,1.238484040223402,0.7790070238407876,0.4464194587948245,0.24041526076886946,0.12051223532395716,0.05823515851331247,0.029220641854502762,0.016907885459188914,0.012125551052358388,0.009975665463045368,0.008471949574550636,0.0071088465078960345,0.005665613149901002,6.280544652563748,3.970068825847648,2.9531555596133265,2.1385614673091053,1.4396855477161252,0.9177961834709177,0.5497927673415426,0.31694200678999046,0.18478138887280632,0.11690212981377981,0.08614536437657908,0.07196962553275613,0.0628704156845786,0.054900683167132654,0.04652896395023637
0.0,72.0,72.0,0.0,120.0,0.0,0.0,0.0,0.0,-107.0,0.0,-45.0,0.0,0.0,0.0,34.27253218749016,17.55503396713325,3.998093124449574,1.9452223990850164,1.2526260553393715,0.786969589322144,0.4504508679188454,0.24236002831313852,0.12141339688647555,0.05858917427723395,0.029209345633944245,0.01666504180287327,0.011794492217038254,0.009651504831603569,0.008191015975216409,0.006877789255138892,0.005486055785528065,6.344216735887356,4.006971250343707,2.9786998074493036,2.1556892905073495,1.4502942359695679,0.9241431301508792,0.5535085853770422,0.3189025744825787,0.18521243327192338,0.11606644706569895,0.08461081548145818,0.07028423284218713,0.06131840766618635,0.05356306408140389,0.04543467075399356
0.0,73.0,73.0,0.0,120.0,0.0,0.0,0.0,0.0,-107.0,0.0,-45.0,0.0,0.0,0.0,34.27253218749016,17.55503396713325,4.058883883489928,1.9700565246567607,1.2669525679825755,0.7950202599159016,0.4545165848081317,0.24431488651015654,0.12231730845040525,0.058952199121954076,0.02921641018837868,0.01644331520012729,0.011481930242508587,0.00934223798433622,0.007922001657356317,0.006656112718423812,0.0053133842133406975,6.408588964309939,4.044247397073859,3.0044698097241933,2.172939423776582,1.4609533726351966,0.9304993464659818,0.5572207869846397,0.3208871973388901,0.1857137552039453,0.11532325579616873,0.08316121443015043,0.0686666626525473,0.059820511413779975,0.05226931285504668,0.04437444469635472
0.0,74.0,74.0,0.0,120.0,0.0,0.0,0.0,0.0,-107.0,0.0,-45.0,0.0,0.0,0.0,34.27253218749016,17.55503396713325,4.120780110629022,1.9952637255382055,1.2814667632322676,0.8031606045717186,0.4586173504467269,0.24628021531695343,0.12322382359758963,0.05932316124807054,0.029240379267874327,0.01624148154097646,0.01118695013973704,0.009047142329239784,0.007664323034623906,0.006443367177420388,0.005147281610246655,6.473670446396928,4.081903104704748,3.030469621543942,2.1903149519667386,1.4716647588547909,0.936866199330501,0.5609291975023613,0.32289223503979686,0.18627966261112355,0.11466761145260485,0.08179311743166719,0.06711435191265319,0.058374585180745384,0.05101768071818912,0.04334697890520559
0.0,75.0,75.0,0.0,120.0,0.0,0.0,0.0,0.0,-107.0,0.0,-45.0,0.0,0.0,0.0,34.27253218749016,17.55503396713325,4.183805674476169,2.020850955099176,1.2961719543940413,0.8113921886707102,0.4627538955666345,0.2482563928472469,0.12413284840106754,0.05970110393555565,0.029279896352060568,0.016058382542667605,0.010908686222764257,0.008765537110378878,0.007417430232473685,0.006239127842851283,0.00498744756615452,6.5394704046729455,4.119944515435541,3.0567034456181315,2.207818706951842,1.4824302182234184,0.9432450102895332,0.5646338057277774,0.32491444359263477,0.1869048301637431,0.11409478372720676,0.08050321553701104,0.06562485846297465,0.056978595509668786,0.04980650309181211,0.04235102705961298
0.0,76.0,76.0,0.0,120.0,0.0,0.0,0.0,0.0,-107.0,0.0,-45.0,0.0,0.0,0.0,34.27253218749016,17.55503396713325,4.247984964766132,2.046825123169358,1.3110716576394634,0.819716523519381,0.46692695978580967,0.2502437910410935,0.1250443335400665,0.060085175545266656,0.029333698827964414,0.015892922112017267,0.01064631887202434,0.008496780539502638,0.007180804894054298,0.006042993306007389,0.004833597756532083,6.605997605068281,4.1583781290227355,3.0831754492192793,2.2254534257649716,1.4932515481381594,0.9496370704813452,0.5683347315633887,0.32695094365647087,0.1875842810830992,0.11360024914511549,0.07928832782478427,0.064195853254044,0.05563061085822873,0.048634195027156796,0.04138539978712318
0.0,77.0,77.0,0.0,120.0,0.0,0.0,0.0,0.0,-107.0,0.0,-45.0,0.0,0.0,0.0,34.27253218749016,17.55503396713325,4.313342605351026,2.0731935004174655,1.3261690522355472,0.828135270449019,0.47113723430703464,0.2522427842138094,0.12595826697682275,0.060474619825402004,0.02940061260266663,0.015744062921360987,0.010399071566154959,0.008240267144164565,0.006953958142068396,0.00585458409519255,0.00468546378945745,6.673261299899586,4.197210080240742,3.109889821050914,2.2432218715330343,1.5041305201414281,0.9560436333037039,0.5720322052042214,0.32899918904371284,0.18831336981125144,0.1131796838657264,0.07814539514568852,0.06282511314785295,0.05432879561713257,0.04749924692084336,0.040448961735842115
0.0,78.0,78.0,0.0,120.0,0.0,0.0,0.0,0.0,-107.0,0.0,-45.0,0.0,0.0,0.0,34.27253218749016,17.55503396713325,4.379903786386926,2.0999632242863617,1.341467528688172,0.836650038443787,0.4753854293698775,0.2542537357072951,0.12687466902824507,0.060868767410773704,0.029479546797909845,0.015610823263998137,0.010166208137463249,0.007995425319476918,0.006736428683815003,0.005673541330874352,0.004542791708418663,6.741270796557512,4.2364468881962924,3.1368507992522927,2.2611267399400994,1.5150688782971353,0.9624659239301719,0.575726544771974,0.33105693784483936,0.18908776516257145,0.11282895672387099,0.07707147436650826,0.06151051425804989,0.05307140449580592,0.046400220486328074,0.0395406264015028
