Line_number,Fiducial,Easting,Northing,Height,Elevation,tx_pitch,tx_roll,tx_yaw,txrx_dx,txrx_dy,txrx_dz,rx_pitch,rx_roll,rx_yaw,S0Z_time_3.834e-04,S0Z_time_3.924e-04,S0Z_time_4.039e-04,S0Z_time_4.184e-04,S0Z_time_4.364e-04,S0Z_time_4.589e-04,S0Z_time_4.869e-04,S0Z_time_5.224e-04,S0Z_time_5.679e-04,S0Z_time_6.249e-04,S0Z_time_6.969e-04,S0Z_time_7.879e-04,S0Z_time_9.019e-04,S0Z_time_1.046e-03,S0Z_time_1.227e-03,S0Z_time_1.456e-03,S0Z_time_1.744e-03,S0Z_time_2.109e-03,S0Z_time_2.567e-03,S0Z_time_3.145e-03,S0Z_time_3.864e-03,S0Z_time_4.745e-03,S0Z_time_5.821e-03,S0Z_time_7.140e-03,S0Z_time_8.754e-03,S0Z_time_1.073e-02,S1Z_time_2.057e-05,S1Z_time_2.607e-05,S1Z_time_3.307e-05,S1Z_time_4.206e-05,S1Z_time_5.356e-05,S1Z_time_6.807e-05,S1Z_time_8.607e-05,S1Z_time_1.086e-04,S1Z_time_1.366e-04,S1Z_time_1.721e-04,S1Z_time_2.176e-04,S1Z_time_2.746e-04,S1Z_time_3.466e-04,S1Z_time_4.376e-04,S1Z_time_5.516e-04,S1Z_time_6.956e-04,S1Z_time_8.771e-04,S1Z_time_1.106e-03,S1Z_time_1.394e-03
0.0,0,0.0,0.0,30.0,0.0,0.0,0.0,0.0,-13.0,0.0,2.0,0.0,0.0,0.0,1.394677555362216e-11,1.3336843644364171e-11,1.266011477320617e-11,1.192015159633861e-11,1.1118971178929721e-11,1.0285399355484425e-11,9.428037223738518e-12,8.529980437978395e-12,7.607226070190432e-12,6.699852990567026e-12,5.8145365244052495e-12,4.965496284827397e-12,4.177765903809553e-12,3.4539711464573756e-12,2.8012781446923428e-12,2.22560764229635e-12,1.7316888964727145e-12,1.3163294087329165e-12,9.75701252087255e-13,7.047360555469304e-13,4.969238549844346e-13,3.4365651265156593e-13,2.327887959055665e-13,1.5444869483330458e-13,1.0038578369449577e-13,6.384684502758709e-14,1.4286755292865908e-10,7.073372735227263e-11,4.80262245654414e-11,3.6434747291328395e-11,2.8425121915196174e-11,2.2445445085265666e-11,1.7873954047938577e-11,1.4226576045114876e-11,1.129274471713704e-11,8.889527603560539e-12,6.8969393457495356e-12,5.302376207737676e-12,4.018938233487227e-12,2.998121592540845e-12,2.20343139392563e-12,1.587626775453446e-12,1.1205039879445803e-12,7.752953999282597e-13,5.260565867226772e-13
0.0,1,1.0,0.0,30.0,0.0,0.0,0.0,0.0,-13.0,0.0,2.0,0.0,0.0,0.0,1.1810951906225908e-11,1.1287387492253486e-11,1.0707970753905174e-11,1.0077774147232264e-11,9.398122997674086e-12,8.692908857650429e-12,7.969526612874527e-12,7.2133798006376185e-12,6.437668937058873e-12,5.675348981301278e-12,4.932039966404095e-12,4.219028011917864e-12,3.5570225082029603e-12,2.947969211925927e-12,2.3977420459249434e-12,1.9112395549540978e-12,1.4925795529171538e-12,1.1392164777198953e-12,8.482163293527684e-13,6.156301110511947e-13,4.363243433765663e-13,3.0334590363184934e-13,2.0659618075202774e-13,1.3782696282069222e-13,9.008329286734211e-14,5.761760426362498e-14,2.135488399537745e-10,8.95468229145421e-11,4.8885182838727346e-11,3.330785401496388e-11,2.4977283821076972e-11,1.938461895760369e-11,1.5281051960047242e-11,1.2076437392058071e-11,9.54850918908177e-12,7.491348026444358e-12,5.800868208239155e-12,4.455364617993415e-12,3.375379196010016e-12,2.5192631140431903e-12,1.8531319331699394e-12,1.3374649588464774e-12,9.459745418574575e-13,6.564028990473627e-13,4.4696652670005697e-13
0.0,2,2.0,0.0,30.0,0.0,0.0,0.0,0.0,-13.0,0.0,2.0,0.0,0.0,0.0,1.0108783730444124e-11,9.649839956601368e-12,9.14488011483749e-12,8.599500257836887e-12,8.014675793670231e-12,7.41032021016097e-12,6.792485112897469e-12,6.14870218540637e-12,5.489625147876819e-12,4.842776139548421e-12,4.212792724354277e-12,3.6087136298799964e-12,3.047686664668364e-12,2.5311392372822593e-12,2.0638582743612197e-12,1.6498729695844294e-12,1.2927310271316356e-12,9.903387467592957e-13,7.403934898212536e-13,5.397762262099512e-13,3.843863771112983e-13,2.6855955314260764e-13,1.8383481640853435e-13,1.2328243161820543e-13,8.100491185614468e-14,5.209126835669039e-14,3.037783832466193e-10,1.2796872105500506e-10,5.948979338223974e-11,3.376470267568345e-11,2.2953079670603477e-11,1.7154577517064506e-11,1.329369157659999e-11,1.0402075156096068e-11,8.177461571503598e-12,6.384667401773409e-12,4.931424193169443e-12,3.780364127309631e-12,2.861038811980549e-12,2.135303655329982e-12,1.5711868533479777e-12,1.1353769704253263e-12,8.043344225113696e-13,5.59469529283587e-13,3.8211166431114823e-13
0.0,3,3.0,0.0,30.0,0.0,0.0,0.0,0.0,-13.0,0.0,2.0,0.0,0.0,0.0,8.747255151415317e-12,8.333563007656282e-12,7.884089230648452e-12,7.403963707093397e-12,6.893077017568878e-12,6.368494213281135e-12,5.8344254604540496e-12,5.280498334792394e-12,4.714807922458511e-12,4.160780436041254e-12,3.622059020067642e-12,3.1060333914677747e-12,2.6268210057576247e-12,2.1854840198026986e-12,1.7858776284060714e-12,1.4313102069639478e-12,1.1247990044633125e-12,8.645805430140957e-13,6.487930761865133e-13,4.749445528314104e-13,3.39712403016508e-13,2.3844507882401684e-13,1.6399975568675543e-13,1.1052410225953293e-13,7.298790763447528e-14,4.717946847971113e-14,3.92975338646289e-10,1.783651685837582e-10,8.031056075718852e-11,3.938006611010578e-11,2.2957394296739014e-11,1.5773636955453316e-11,1.1807523845146117e-11,9.100749450578829e-12,7.0919348038274394e-12,5.50156182817404e-12,4.235277749454789e-12,3.237091230794729e-12,2.4463000470282896e-12,1.8245806716320787e-12,1.342302306513373e-12,9.70783080141411e-13,6.884927361519718e-13,4.798761003670084e-13,3.285627021588582e-13
0.0,4,4.0,0.0,30.0,0.0,0.0,0.0,0.0,-13.0,0.0,2.0,0.0,0.0,0.0,7.666998238070295e-12,7.276184054804505e-12,6.863246746126981e-12,6.431349261470318e-12,5.977459269659949e-12,5.515948256803252e-12,5.048660431077134e-12,4.567056384798212e-12,4.076782579430503e-12,3.5980169656772237e-12,3.133405704390043e-12,2.6891577600055994e-12,2.2767691090205085e-12,1.897063434779195e-12,1.5530779264146274e-12,1.2475391127062522e-12,9.829662399661558e-13,7.57854761691015e-13,5.706419117574244e-13,4.1932005140020266e-13,3.0115364172151253e-13,2.1229488776255007e-13,1.4666769012421386e-13,9.930567906414999e-14,6.589321621200103e-14,4.280602293122033e-14,4.690258417130617e-10,2.3103372642380216e-10,1.0811466440911122e-10,5.034237340531887e-11,2.5640617621907286e-11,1.5495710864961244e-11,1.0824588032385625e-11,8.107604958607996e-12,6.2310882846754505e-12,4.7937376513531936e-12,3.673158768518605e-12,2.7960421992414947e-12,2.1091706877529904e-12,1.5709606230283617e-12,1.1550355705948963e-12,8.356870929063449e-13,5.93062252805882e-13,4.140832528134035e-13,2.8406333809362145e-13
0.0,5,5.0,0.0,30.0,0.0,0.0,0.0,0.0,-13.0,0.0,2.0,0.0,0.0,0.0,6.835932061359075e-12,6.43946166403559e-12,6.040305894838594e-12,5.638620528275472e-12,5.226361008689326e-12,4.8139813579010265e-12,4.399947260607982e-12,3.9767261097942635e-12,3.5477711691026366e-12,3.1304661864485572e-12,2.726516120129948e-12,2.341222846095688e-12,1.9838241099874125e-12,1.6549900311242968e-12,1.3570328536062984e-12,1.0922199760934677e-12,8.625958919870686e-13,6.668772332839064e-13,5.036926252217251e-13,3.7141855931000707e-13,2.6776203730422166e-13,1.8951954282249834e-13,1.3148268597258583e-13,8.941816054050756e-14,5.960173431779689e-14,3.890506718719508e-14,5.28467208702845e-10,2.791642262370823e-10,1.385529782483952e-10,6.536108108208193e-11,3.1120734815361276e-11,1.6597634974614503e-11,1.0445439810357136e-11,7.408568792166585e-12,5.556184955741482e-12,4.2256272102221514e-12,3.2163348056706206e-12,2.4355279373923238e-12,1.833018869023332e-12,1.3623072320210645e-12,1.000731462554896e-12,7.239902321842395e-13,5.139134438679116e-13,3.593535156870318e-13,2.468562137718882e-13
0.0,6,6.0,0.0,30.0,0.0,0.0,0.0,0.0,-13.0,0.0,2.0,0.0,0.0,0.0,6.237451590287748e-12,5.802332795814206e-12,5.3895737802320335e-12,4.996757188615303e-12,4.609811581941788e-12,4.233563873900256e-12,3.861433733981171e-12,3.4852853622792883e-12,3.10641175788742e-12,2.73956442465553e-12,2.38562417695612e-12,2.0490821844897856e-12,1.7372591646316783e-12,1.4506962557919327e-12,1.1910731687854344e-12,9.603023018189168e-13,7.599694598847964e-13,5.889943959147076e-13,4.4611499017676525e-13,3.300210941488218e-13,2.3875213294435583e-13,1.6962636014388124e-13,1.181445780307574e-13,8.068373635664915e-14,5.401123243886851e-14,3.5419434641604117e-14,5.728516800065592e-10,3.19596086634537e-10,1.68084090605684e-10,8.25347805129359e-11,3.892408029682719e-11,1.9165519344998853e-11,1.0787460939093325e-11,7.035668229595202e-12,5.052743435428652e-12,3.772224635392249e-12,2.843603448664555e-12,2.139400870748441e-12,1.6052120287291973e-12,1.1894172900191126e-12,8.727485375614167e-13,6.310037098335397e-13,4.4785591757626846e-13,3.135529712727519e-13,2.1556453033220768e-13
0.0,7,7.0,0.0,30.0,0.0,0.0,0.0,0.0,-13.0,0.0,2.0,0.0,0.0,0.0,5.85868551193973e-12,5.352018314063842e-12,4.895986038963043e-12,4.487512895001867e-12,4.10726019656586e-12,3.753467059850303e-12,3.4127148973962967e-12,3.074063331757397e-12,2.7361323094280322e-12,2.41086238969325e-12,2.0983961783210686e-12,1.8024034034018362e-12,1.528610758194726e-12,1.2773911646437647e-12,1.0498857624400977e-12,8.477371960402796e-13,6.720874721291254e-13,5.220507283887787e-13,3.964114419185205e-13,2.9412220393481095e-13,2.1347072377018078e-13,1.522021521227584e-13,1.0639949769768573e-13,7.295074783693233e-14,4.903377980076711e-14,3.2299419358344265e-14,6.056621850996446e-10,3.518245907476584e-10,1.9455573374567875e-10,1.0010055997230909e-10,4.8255569765442544e-11,2.3047496400813616e-11,1.1903622887112931e-11,7.036459944161076e-12,4.7277125114133845e-12,3.4198629833857705e-12,2.539684491506617e-12,1.895340884668942e-12,1.4161446804766883e-12,1.045277522845549e-12,7.659271090525809e-13,5.530934974815751e-13,3.9240370228227627e-13,2.7500753316969005e-13,1.891029746434682e-13
0.0,8,8.0,0.0,30.0,0.0,0.0,0.0,0.0,-13.0,0.0,2.0,0.0,0.0,0.0,5.6835443274896706e-12,5.076914773542594e-12,4.5492284762433004e-12,4.0994385060601236e-12,3.705251239126594e-12,3.358782481491118e-12,3.0385925603841473e-12,2.7286877646562632e-12,2.423985023544081e-12,2.1330280485321207e-12,1.8551154192894876e-12,1.5930118839963868e-12,1.3511498302372077e-12,1.1296535222124031e-12,9.292109771435986e-13,7.512595942985405e-13,5.965172214104389e-13,4.642862682365462e-13,3.5335097021201327e-13,2.628891449177997e-13,1.9137260994976177e-13,1.3689927280103408e-13,9.603212117239593e-14,6.608951876184117e-14,4.4593583284310873e-14,2.9501788064998056e-14,6.30526301367621e-10,3.76814873091455e-10,2.1705033190197238e-10,1.167713882556484e-10,5.828211868704232e-11,2.7928651821230474e-11,1.3753197093723189e-11,7.441287287548601e-12,4.598518965345771e-12,3.165469822913233e-12,2.2948096190168994e-12,1.693931589863456e-12,1.258454140029987e-12,9.24500973449568e-13,6.762341057067263e-13,4.874230892944595e-13,3.4560102011163803e-13,2.423945366251753e-13,1.6660959131416179e-13
0.0,9,9.0,0.0,30.0,0.0,0.0,0.0,0.0,-13.0,0.0,2.0,0.0,0.0,0.0,5.6907768915818156e-12,4.962926910764336e-12,4.339521448889056e-12,3.824213127019517e-12,3.3948849889017923e-12,3.0393732279174935e-12,2.7280830253140673e-12,2.438242045546464e-12,2.1598443537745894e-12,1.897110924728608e-12,1.648071849623679e-12,1.414402291547035e-12,1.1994913381342176e-12,1.0031267174079953e-12,8.256121022586216e-13,6.682215454700856e-13,5.312755565666802e-13,4.142570293760788e-13,3.1591716642761325e-13,2.356294521391698e-13,1.7200113203192622e-13,1.2342429843379198e-13,8.685930938706038e-14,5.998889875351433e-14,4.0625170118661604e-14,2.6988879252776467e-14,6.504302605030073e-10,3.961141225071162e-10,2.355103011359148e-10,1.3178144621419907e-10,6.830253901072672e-11,3.343400745392877e-11,1.621799882004388e-11,8.246172091174036e-12,4.6802109503416054e-12,3.0129068818709965e-12,2.1042755383697665e-12,1.5283487464497545e-12,1.1264729934314259e-12,8.228898786325933e-13,6.00508065311929e-13,4.3176641778581784e-13,3.0589528168443753e-13,2.146599892627145e-13,1.473959997487738e-13
0.0,10,10.0,0.0,30.0,0.0,0.0,0.0,0.0,-13.0,0.0,2.0,0.0,0.0,0.0,5.855051343092213e-12,4.992692018527089e-12,4.255542570890542e-12,3.654085366742809e-12,3.1695696193858238e-12,2.7882943631521706e-12,2.473443962966582e-12,2.1946095712744337e-12,1.9358531932797984e-12,1.6960172682648375e-12,1.471105014774643e-12,1.261365753318772e-12,1.0693015312507478e-12,8.942892851808688e-13,7.362995292566892e-13,5.964636310109711e-13,4.74737790039189e-13,3.707728240706972e-13,2.832672444758517e-13,2.117650714831889e-13,1.5497247379532075e-13,1.1152881189950271e-13,7.872487557747077e-14,5.455338961718845e-14,3.7071862488163586e-14,2.4727777247045798e-14,6.675266450175954e-10,4.1131107980024933e-10,2.503759975407127e-10,1.4479899145341486e-10,7.78104260767174e-11,3.920688212978531e-11,1.9137105660481286e-11,9.412639637721502e-12,4.976718388492295e-12,2.9680043117077435e-12,1.9672541106441683e-12,1.3942003414198965e-12,1.0159205468927363e-12,7.37127105744297e-13,5.362595379890824e-13,3.8436709518723626e-13,2.7204535009719643e-13,1.9095679239733808e-13,1.3091119937263127e-13
0.0,11,11.0,0.0,30.0,0.0,0.0,0.0,0.0,-13.0,0.0,2.0,0.0,0.0,0.0,6.149119161750962e-12,5.1464144466004955e-12,4.283998465277938e-12,3.5805559873915403e-12,3.0234165706767592e-12,2.600403828105452e-12,2.269216432526857e-12,1.9918759039159965e-12,1.7460039220513867e-12,1.5241400299414183e-12,1.3192688199409903e-12,1.1297039564982665e-12,9.570736969733267e-13,8.002801809456501e-13,6.589963703137606e-13,5.342154850402325e-13,4.255663595063346e-13,3.32848335979368e-13,2.546995609802028e-13,1.908116520430826e-13,1.3996295740647767e-13,1.0100187160420712e-13,7.149526733964696e-14,4.970074945623809e-14,3.3884498017043126e-14,2.2689624823152598e-14,6.832273056039282e-10,4.2376792291395703e-10,2.6230909173956354e-10,1.5580290810571548e-10,8.649251991772987e-11,4.4951680074912977e-11,2.233978454215908e-11,1.0877420675479461e-11,5.477982188234281e-12,3.034352025786892e-12,1.885034329855808e-12,1.2891882595646996e-12,9.237306316577798e-13,6.645875792919788e-13,4.815148639579448e-13,3.438290864007292e-13,2.430539706983637e-13,1.7059966887634465e-13,1.1671369071094123e-13
0.0,12,12.0,0.0,30.0,0.0,0.0,0.0,0.0,-13.0,0.0,2.0,0.0,0.0,0.0,6.545912100379415e-12,5.403243744408985e-12,4.4101106610993e-12,3.5940114619182226e-12,2.950331269843837e-12,2.4713239238013053e-12,2.1113701923028237e-12,1.8257593416150104e-12,1.5857784198975178e-12,1.3770858059277848e-12,1.1885892308960526e-12,1.0160131321188874e-12,8.599542861757405e-13,7.187634918316666e-13,5.918350123463354e-13,4.800186227797523e-13,3.8265473471485844e-13,2.996643745690168e-13,2.2962771451862195e-13,1.7236190550384648e-13,1.2669872979603858e-13,9.166383607532414e-14,6.505599208301176e-14,4.5359990018347116e-14,3.1020353234246985e-14,2.0849102247367625e-14,6.983905966662493e-10,4.3453141456105893e-10,2.720094821419559e-10,1.6496631967266705e-10,9.41976415481576e-11,5.044892625918557e-11,2.5668396551097204e-11,1.2564796916151598e-11,6.161590272732872e-12,3.21090557004998e-12,1.8592479991264236e-12,1.2125356553693918e-12,8.478978532261566e-13,6.032329374145231e-13,4.3470196828895806e-13,3.0903209157585284e-13,2.181161797370656e-13,1.5303214787531928e-13,1.0444838850442167e-13
0.0,13,13.0,0.0,30.0,0.0,0.0,0.0,0.0,-13.0,0.0,2.0,0.0,0.0,0.0,7.020112697375312e-12,5.742587406325322e-12,4.618432746220722e-12,3.683916927118313e-12,2.943658826146882e-12,2.3967871898843707e-12,1.996628217202844e-12,1.6930941163366076e-12,1.4518158029340207e-12,1.2514537570244566e-12,1.0758860508661869e-12,9.175237243573405e-13,7.756084656822077e-13,6.478223925413462e-13,5.332765126427156e-13,4.326662260697357e-13,3.450832256413009e-13,2.705370481570695e-13,2.0755976441233673e-13,1.5607217413077422e-13,1.1494736448726244e-13,8.336128532751634e-14,5.930864915574979e-14,4.146969908264098e-14,2.844223289251834e-14,1.9184038005924865e-14,7.1350532852932e-10,4.443442572131015e-10,2.8011111252744505e-10,1.7256297792954192e-10,1.0089671525992684e-10,5.555357038911458e-11,2.899084214805399e-11,1.4397280423175333e-11,6.996657833529563e-12,3.4914097006643587e-12,1.8905265871699506e-12,1.1643025582920246e-12,7.872790087240975e-13,5.515431985037102e-13,3.9457281606156296e-13,2.790685164039848e-13,1.9657891665220296e-13,1.3780153441928148e-13,9.382700537383841e-14
0.0,14,14.0,0.0,30.0,0.0,0.0,0.0,0.0,-13.0,0.0,2.0,0.0,0.0,0.0,7.549131579098791e-12,6.145112399476605e-12,4.893657686380652e-12,3.839250402869095e-12,2.9961880050094115e-12,2.3723094734799277e-12,1.9219970139935994e-12,1.5913990759815374e-12,1.3416070626771937e-12,1.1446408884320548e-12,9.786341616725294e-13,8.319816751959068e-13,7.021172734850903e-13,5.858758018964238e-13,4.820470302132082e-13,3.9115571363830904e-13,3.1208408018295393e-13,2.448931523477109e-13,1.8808147439512598e-13,1.41651536824022e-13,1.0451099846962505e-13,7.596283281196092e-14,5.4168459157670125e-14,3.797663227319307e-14,2.6117695675594627e-14,1.7675087817564926e-14,7.2883422989354e-10,4.537005276297326e-10,2.871355993269022e-10,1.7889970312227737e-10,1.0664400103164909e-10,6.018499633387297e-11,3.220514315349865e-11,1.630307456700117e-11,7.948117573634351e-12,3.86509287283475e-12,1.977763371257829e-12,1.1447482791350122e-12,7.413480970158008e-13,5.084506980605851e-13,3.601515121485017e-13,2.531988765203242e-13,1.7790940828644385e-13,1.2453907939931565e-13,8.461189696684162e-14
0.0,15,15.0,0.0,30.0,0.0,0.0,0.0,0.0,-13.0,0.0,2.0,0.0,0.0,0.0,8.11358662034762e-12,6.593395064308521e-12,5.221264957019094e-12,4.04897775153524e-12,3.1003414981892804e-12,2.393096673075466e-12,1.8844860585651797e-12,1.5185504110561898e-12,1.253227841622951e-12,1.0546646250590522e-12,8.948472404759544e-13,7.575583284375608e-13,6.378995504112921e-13,5.316132217650814e-13,4.37087322247842e-13,3.546509769945832e-13,2.8301378840696e-13,2.22250454372497e-13,1.7084275526676744e-13,1.2885293305144903e-13,9.522070063735449e-14,6.935566203325755e-14,4.95622021389409e-14,3.483452849320768e-14,2.4018393921580316e-14,1.63054294755016e-14,7.445119228705124e-10,4.6291114105188735e-10,2.934831621637983e-10,1.8427267490328935e-10,1.1154395640787822e-10,6.431392831814026e-11,3.52390764668792e-11,1.8220384208440898e-11,8.980380580166601e-12,4.317992677816616e-12,2.1179299378805613e-12,1.1538496404876017e-12,7.099378990895787e-13,4.732609153298815e-13,3.3069582268570057e-13,2.308213646064801e-13,1.6167089657787297e-13,1.1294381714378607e-13,7.66035885464876e-14
0.0,16,16.0,0.0,30.0,0.0,0.0,0.0,0.0,-13.0,0.0,2.0,0.0,0.0,0.0,8.697417054930486e-12,7.07226716719234e-12,5.587970053520604e-12,4.302466437843512e-12,3.2484324846271617e-12,2.454093817891846e-12,1.880976356552425e-12,1.4725583982741977e-12,1.1851198920290556e-12,9.800033078228227e-13,8.229748227182322e-13,6.927785977493442e-13,5.816523647859891e-13,4.83944164880607e-13,3.975125708755705e-13,3.224520434638001e-13,2.5733095194176223e-13,2.0220183203442537e-13,1.5554666960168874e-13,1.1746590164416923e-13,8.693183155350801e-14,6.344265364958259e-14,4.5426492888341865e-14,3.200311110099317e-14,2.2119510134348116e-14,1.5060450127373172e-14,7.606056915829371e-10,4.721622512760657e-10,2.9944418100556946e-10,1.889430427400923e-10,1.1572525624908523e-10,6.794908870052604e-11,3.8047105170906723e-11,2.009928335965243e-11,1.0059988106780606e-11,4.834415235537028e-12,2.30628518344458e-12,1.1910138269480988e-12,6.930065448182144e-13,4.4556082157881465e-13,3.0566284772817643e-13,2.114508109119073e-13,1.475044479050876e-13,1.0276934310466777e-13,6.963183884896765e-14
0.0,17,17.0,0.0,30.0,0.0,0.0,0.0,0.0,-13.0,0.0,2.0,0.0,0.0,0.0,9.287753303236434e-12,7.568929916513996e-12,5.981992259934418e-12,4.589800022989027e-12,3.432916691541985e-12,2.5501049265973494e-12,1.9081925093848467e-12,1.4514345196629018e-12,1.1359255683021732e-12,9.19458563630466e-13,7.618094680131484e-13,6.364604001706436e-13,5.323044935251324e-13,4.4195902049390207e-13,3.625805250560159e-13,2.939705852906044e-13,2.345784598701945e-13,1.8440244399604821e-13,1.4194049465472963e-13,1.0731062025838763e-13,7.952020545820147e-14,5.813999454426905e-14,4.170633459793383e-14,2.944724353762802e-14,2.0399276248041968e-14,1.3927428946030035e-14,7.771502496565868e-10,4.815604494354654e-10,3.0521955450523933e-10,1.931266722110594e-10,1.1932199888151228e-10,7.112507005020769e-11,4.060607847285448e-11,2.1901930534381497e-11,1.1157268457605824e-11,5.398232369450549e-12,2.536798055208107e-12,1.2549703861887078e-12,6.904559121546093e-13,4.2512375029240007e-13,2.8467409085757833e-13,1.9470280057326244e-13,1.3511549221125924e-13,9.381315302058436e-14,6.354966798133535e-14
0.0,18,18.0,0.0,30.0,0.0,0.0,0.0,0.0,-13.0,0.0,2.0,0.0,0.0,0.0,9.874637534650225e-12,8.072904198579512e-12,6.393175121383609e-12,4.901989853003007e-12,3.64660508397632e-12,2.6759352198051988e-12,1.9627376956459944e-12,1.4531287856042737e-12,1.1043730639250497e-12,8.720428272990143e-13,7.104040784109889e-13,5.87661441132002e-13,4.889787213340784e-13,4.048985707604569e-13,3.3166633327656023e-13,2.6871013331904846e-13,2.1436903001845872e-13,1.685592872845882e-13,1.298084379361481e-13,9.82329977478707e-14,7.287890563440681e-14,5.337518133831188e-14,3.835390277530407e-14,2.713621364149692e-14,1.883856354119521e-14,1.2895232134781965e-14,7.941661708602342e-10,4.911645787989533e-10,3.109425315643425e-10,1.969931915481117e-10,1.2246132099058024e-10,7.389210287408597e-11,4.291058679288935e-11,2.360177795545777e-11,1.2247185133661879e-11,5.993888282579776e-12,2.802639297979899e-12,1.343798588501326e-12,7.020124556124986e-13,4.1182132607682615e-13,2.674790857840568e-13,1.8027991916189456e-13,1.242637320017175e-13,8.590823011642478e-14,5.822955217349896e-14
0.0,19,19.0,0.0,30.0,0.0,0.0,0.0,0.0,-13.0,0.0,2.0,0.0,0.0,0.0,1.0450665091463772e-11,8.575873225577278e-12,6.812996093393743e-12,5.231095886282602e-12,3.882824694714103e-12,2.826526868363965e-12,2.0411603460951178e-12,1.475516266345348e-12,1.0892054056326148e-12,8.368929607355899e-13,6.680005558963072e-13,5.456316884768297e-13,4.509600214418405e-13,3.721298105211874e-13,3.042426787298643e-13,2.462501244174843e-13,1.963734197500526e-13,1.5442264520187873e-13,1.1896567752363273e-13,9.010062170568144e-14,6.69156350433874e-14,4.908534787997044e-14,3.532751995557553e-14,2.504312548625085e-14,1.7420532479019404e-14,1.1954038930288907e-14,8.116688994211496e-10,5.010065343065827e-10,3.1669817210016475e-10,2.0067038513546522e-10,1.252562469792146e-10,7.630795047002712e-11,4.496848264503768e-11,2.518223390803723e-11,1.330959890113674e-11,6.607096344853142e-12,3.0966470788800054e-12,1.4550396049277328e-12,7.271675441118768e-13,4.05550464540858e-13,2.5391910550475645e-13,1.6795845297369642e-13,1.1475522581307154e-13,7.891652635278804e-14,5.356099846593767e-14
0.0,20,20.0,0.0,30.0,0.0,0.0,0.0,0.0,-13.0,0.0,2.0,0.0,0.0,0.0,1.1010596578473324e-11,9.071461109633519e-12,7.2344976142103875e-12,5.570273677544225e-12,4.135527361976412e-12,2.9970735749213317e-12,2.1400310131694346e-12,1.5164144212094524e-12,1.0891439605850575e-12,8.13208494368682e-13,6.33970782420811e-13,5.097711847408714e-13,4.1766783408844703e-13,3.43126232731618e-13,2.7986401974586364e-13,2.2623307493052836e-13,1.8031078702092658e-13,1.417790464711693e-13,1.0925346337847762e-13,8.279940191784658e-14,6.155050747496785e-14,4.521585996672041e-14,3.259078891413879e-14,2.3144381358396788e-14,1.613033303541131e-14,1.1095111386425144e-14,8.296727439858142e-10,5.111040153057296e-10,3.225389348707734e-10,2.0425103908419774e-10,1.278024824371617e-10,7.843188871152661e-11,4.679685070213487e-11,2.663508128289993e-11,1.4329139513251286e-11,7.2252629064571685e-12,3.411716410340256e-12,1.5858491897268073e-12,7.651662317258864e-13,4.0617951199556403e-13,2.438933100415669e-13,1.5757499203610268e-13,1.0643573813379166e-13,7.272394694672356e-14,4.944887040483232e-14
0.0,21,21.0,0.0,30.0,0.0,0.0,0.0,0.0,-13.0,0.0,2.0,0.0,0.0,0.0,1.1550974621590154e-11,9.554979967332913e-12,7.652166120654843e-12,5.9137647131935275e-12,4.3993519651230545e-12,3.1831083561781106e-12,2.256016106451277e-12,1.5736168256157195e-12,1.102876952172848e-12,8.002112671465337e-13,6.077701124728094e-13,4.795933899654321e-13,3.886315217511685e-13,3.1745125406822424e-13,2.581539311179399e-13,2.0835427956643513e-13,1.659408032925815e-13,1.3044544663769452e-13,1.0053506979984129e-13,7.623078090507382e-14,5.671420223734936e-14,4.171913145291675e-14,3.0111857949600305e-14,2.1419239558065628e-14,1.495484736306918e-14,1.0310612344761305e-14,8.48192416831506e-10,5.214678789289723e-10,3.284962581025525e-10,2.0780033764693646e-10,1.3017793634619624e-10,8.032056103483428e-11,4.841857092062936e-11,2.7958844828963634e-11,1.5294836850249704e-11,7.83769541928488e-12,3.741095031058118e-12,1.7331581488175142e-12,8.1503028633558e-13,4.1351394517794696e-13,2.373294520314306e-13,1.49013112107171e-13,9.918476924773195e-14,6.723645503070933e-14,4.5812041452744144e-14
0.0,22,22.0,0.0,30.0,0.0,0.0,0.0,0.0,-13.0,0.0,2.0,0.0,0.0,0.0,1.2069767154408798e-11,1.0023169271719862e-11,8.061780064337534e-12,6.25684554458208e-12,4.6696479388241716e-12,3.38056417429915e-12,2.3859412324165677e-12,1.6449330288764394e-12,1.129064488520101e-12,7.971223504117891e-13,5.889026998564981e-13,4.5469428883804124e-13,3.6346862673637704e-13,2.947439050872887e-13,2.3879474207154567e-13,1.9235351961714178e-13,1.530572009784535e-13,1.2026440921733115e-13,9.269243379157136e-14,7.030940733548953e-14,5.234641923768109e-14,3.855362448931254e-14,2.7862796587830753e-14,1.9849436175301563e-14,1.3882468011911472e-14,9.593468652306338e-15,8.672434910992974e-10,5.321061145412543e-10,3.345886647535258e-10,2.1136271338628905e-10,1.3244394363416946e-10,8.202540707733265e-11,4.985952785312252e-11,2.915722698028626e-11,1.619961770466189e-11,8.435652394933935e-12,4.078588383101676e-12,1.8938198821363295e-12,8.756017611486861e-13,4.27279471676277e-13,2.3416049303920115e-13,1.421906560506856e-13,9.29099624135363e-14,6.237696352209022e-14,4.2582138492876753e-14
0.0,23,23.0,0.0,30.0,0.0,0.0,0.0,0.0,-13.0,0.0,2.0,0.0,0.0,0.0,1.2566049845092985e-11,1.04739439998715e-11,8.46024322441483e-12,6.595748863987279e-12,4.942468181010364e-12,3.585809824286343e-12,2.5268409874027654e-12,1.7282278504930957e-12,1.1663532191064656e-12,8.031519865614438e-13,5.768973079278342e-13,4.347272843823228e-13,3.4186583526289686e-13,2.747062592835064e-13,2.2151886122845507e-13,1.780083426427016e-13,1.4148249402837136e-13,1.1110011172936913e-13,8.562335015565268e-14,6.496118820873055e-14,4.839458235734738e-14,3.568300341284646e-14,2.581906392825362e-14,1.8418860982578867e-14,1.2902906149230317e-14,8.937271982948279e-15,8.868424510771107e-10,5.430258349624696e-10,3.4082714945297437e-10,2.1496763364774335e-10,1.3464739229597542e-10,8.359132966260695e-11,5.114645737826337e-11,3.02376848996466e-11,1.7039740598732613e-11,9.012284114047937e-12,4.418686256675338e-12,2.064734221193959e-12,9.455957902894656e-13,4.4711898689624776e-13,2.343076036177687e-13,1.3704818999240244e-13,8.754179497443952e-14,5.808275534572318e-14,3.970227402876138e-14
0.0,24,24.0,0.0,30.0,0.0,0.0,0.0,0.0,-13.0,0.0,2.0,0.0,0.0,0.0,1.3039733397418468e-11,1.0906162365306975e-11,8.845415552366498e-12,6.927567353455436e-12,5.2145389470197784e-12,3.795664703781837e-12,2.675994620416049e-12,1.821456196290037e-12,1.2133954724004069e-12,8.174986230481089e-13,5.712918659068993e-13,4.193836163085471e-13,3.235626407207033e-13,2.5709231728040877e-13,2.0610135264438832e-13,1.6512855245052269e-13,1.3106365190726012e-13,1.0283503559493605e-13,7.923912236841004e-14,6.01216521556003e-14,4.4812748088001465e-14,3.307541717430869e-14,2.395905497005099e-14,1.7113279193724266e-14,1.2007025323092757e-14,8.3362077151888e-15,9.070066339234402e-10,5.542341777718359e-10,3.472185895109776e-10,2.1863418057575096e-10,1.368231895447124e-10,8.505627376823998e-11,5.2305380222553804e-11,3.121018960522399e-11,1.7814217132575848e-11,9.56250214903348e-12,4.7566269543836206e-12,2.2429438733379275e-12,1.0236543580705006e-12,4.725994422018174e-13,2.3766927356458175e-13,1.335390913185132e-13,8.302858743741799e-14,5.430325156313489e-14,3.712574961420194e-14
0.0,25,25.0,0.0,30.0,0.0,0.0,0.0,0.0,-13.0,0.0,2.0,0.0,0.0,0.0,1.3491336558362472e-11,1.1319419369253954e-11,9.215950338926068e-12,7.250148982723879e-12,5.48321344897554e-12,4.00739643873459e-12,2.830948450741031e-12,1.92269145773557e-12,1.2688693094340892e-12,8.393537446305813e-13,5.716249157691638e-13,4.083777923010299e-13,3.083376752562531e-13,2.4169820840000407e-13,1.9235346937636406e-13,1.535516219789642e-13,1.2166854139905126e-13,9.536722335199216e-14,7.346258984482937e-14,5.573456953078933e-14,4.156068395265652e-14,3.070288949695133e-14,2.2263712763414908e-14,1.592009215560408e-14,1.1186697190163249e-14,7.785002591683807e-15,9.277541747849302e-10,5.657386514963007e-10,3.537678016656337e-10,2.2237449555697206e-10,1.3899670088120002e-10,8.645142780618028e-11,5.336054580613384e-11,3.208618552718331e-11,1.8524252154321116e-11,1.0082805857207997e-11,5.08841435183025e-12,2.425704213487582e-12,1.1083957350037181e-12,5.032249398322642e-13,2.4411574804277964e-13,1.3162153307538392e-13,7.933192206611756e-14,5.099801612891525e-14,3.481475495944653e-14
0.0,26,26.0,0.0,30.0,0.0,0.0,0.0,0.0,-13.0,0.0,2.0,0.0,0.0,0.0,1.392180240141494e-11,1.171386891333438e-11,9.571143602775682e-12,7.561990483554454e-12,5.74641489367492e-12,4.218705222926027e-12,2.989526666934652e-12,2.0301468743805455e-12,1.3314972258673663e-12,8.679099211691379e-13,5.774321789774335e-13,4.014373525931759e-13,2.95997605218965e-13,2.2835364417089096e-13,1.8011695834101048e-13,1.431388091851313e-13,1.1318298086642085e-13,8.860800513486396e-14,6.822646832916633e-14,5.1750785653204734e-14,3.8603087578388556e-14,2.854079945759781e-14,2.0716196255539357e-14,1.4828131128797677e-14,1.0434676296889356e-14,7.278883467074605e-15,9.491039843268748e-10,5.775472264191736e-10,3.6047871760943155e-10,2.261962596732608e-10,1.4118595243058307e-10,8.780180862218262e-11,5.4333797390321434e-11,3.287775234226736e-11,1.91727239803526e-11,1.0571086130328494e-11,5.410801048076551e-12,2.610529514097739e-12,1.198456693992997e-12,5.384529896156064e-13,2.534877372200485e-13,1.312524315913231e-13,7.642256976156231e-14,4.813493927503227e-14,3.273910081378966e-14
0.0,27,27.0,0.0,30.0,0.0,0.0,0.0,0.0,-13.0,0.0,2.0,0.0,0.0,0.0,1.4332353505534634e-11,1.2090074666787319e-11,9.910799232314939e-12,7.862133996449707e-12,6.002573701419209e-12,4.427698387126213e-12,3.149832424219444e-12,2.1421900495480223e-12,1.4000622195668526e-12,9.023701757835473e-13,5.882466839274259e-13,3.982962106538586e-13,2.8636840414144615e-13,2.169145809443431e-13,1.6925902432220268e-13,1.337718142495129e-13,1.0550827913322374e-13,8.248011122622288e-14,6.347195214320996e-14,4.8127231992854894e-14,3.5908922596670307e-14,2.6567438061036732e-14,1.9301595345891482e-14,1.3827479224631785e-14,9.744491488110985e-15,6.813541558421741e-15,9.710757564396129e-10,5.896683260489933e-10,3.6735501406625633e-10,2.301044111855724e-10,1.4340349952649604e-10,8.912704654950441e-11,5.524426750396854e-11,3.359695895029428e-11,1.9763718027465875e-11,1.1026420862612444e-11,5.721248154020786e-12,2.7952196261642422e-12,1.292526395988406e-12,5.77711608480685e-13,2.6559827873808307e-13,1.3238326015491838e-13,7.427700102452554e-14,4.5688577657689394e-14,3.0875021355361994e-14
0.0,28,28.0,0.0,30.0,0.0,0.0,0.0,0.0,-13.0,0.0,2.0,0.0,0.0,0.0,1.4724380703428254e-11,1.2448888144171563e-11,1.0235111540282372e-11,8.15007038129751e-12,6.2505627027746226e-12,4.63285827317269e-12,3.310241183815682e-12,2.2573512615526542e-12,1.473420639150738e-12,9.419573738439384e-13,6.036011669529746e-13,3.9869081273200397e-13,2.7928875040909887e-13,2.072570426801087e-13,1.596678871811245e-13,1.2534986371348637e-13,9.855915616064924e-14,7.691610013118672e-14,5.914753600397025e-14,4.482608671269434e-14,3.345085195277288e-14,2.4763628770813232e-14,1.8006686014117433e-14,1.290931733413359e-14,9.11035186119887e-15,6.385098687488943e-15,9.93689995858894e-10,6.02110793080211e-10,3.7440042254065664e-10,2.3410229071945157e-10,1.4565793885330812e-10,9.044223844420372e-11,5.610831826916798e-11,3.4255391257284986e-11,2.030212132400604e-11,1.1448872416598218e-11,6.0178698025635995e-12,2.9778711785706644e-12,1.3893720051480477e-12,6.204156657725066e-13,2.802367032800806e-13,1.3495751709491572e-13,7.287452013922811e-14,4.3638650369310383e-14,2.920407233116594e-14
0.0,29,29.0,0.0,30.0,0.0,0.0,0.0,0.0,-13.0,0.0,2.0,0.0,0.0,0.0,1.5099359845496747e-11,1.2791351382913034e-11,1.0544565481745735e-11,8.425651413957701e-12,6.4896332381453175e-12,4.833006017777803e-12,3.469388119937981e-12,2.374326426868647e-12,1.5505116927389946e-12,9.859228116214622e-13,6.230317428049269e-13,4.0235841487093506e-13,2.746052554734558e-13,1.9927203604924648e-13,1.5124889130872302e-13,1.1778714337499725e-13,9.226196484121752e-14,7.18570427977777e-14,5.520802100125272e-14,4.1814061119624384e-14,3.120475281861219e-14,2.311240195878637e-14,1.68197195006695e-14,1.2065790534547458e-14,8.527065431294641e-15,5.990073728854352e-15,1.0169680562957606e-09,6.148838598879134e-10,3.816188620703979e-10,2.381923760401567e-10,1.4795508564463141e-10,9.175878080449196e-11,5.693965170964718e-11,3.486383051217593e-11,2.0793280783932373e-11,1.1839294350013112e-11,6.29936843473506e-12,3.1568769656897813e-12,1.487856773070699e-12,6.659814941267089e-13,2.971738055637906e-13,1.3890957216083454e-13,7.219502309611646e-14,4.196869915659892e-14,2.7712140145567394e-14
0.0,30,30.0,0.0,30.0,0.0,0.0,0.0,0.0,-13.0,0.0,2.0,0.0,0.0,0.0,1.545879127394287e-11,1.3118621068538319e-11,1.0839853789822314e-11,8.689012057754478e-12,6.719354304398954e-12,5.027263386823583e-12,3.626151230707972e-12,2.491975636624824e-12,1.6303637816188497e-12,1.0335535442883482e-12,6.460821030639849e-13,4.090368656252501e-13,2.721692133257973e-13,1.9286146890988622e-13,1.4392113675034425e-13,1.1101052782164031e-13,8.655315220155435e-14,6.725141363450201e-14,5.161367477755327e-14,3.9061792589344356e-14,2.914930023003106e-14,2.1598714909432503e-14,1.5730240453324865e-14,1.1289892009790324e-14,7.98996886182579e-15,5.625348728898735e-15,1.0409321828722125e-09,6.279971322618832e-10,3.89014481661254e-10,2.423767341882637e-10,1.5029885984830557e-10,9.308513020652104e-11,5.7749527958898726e-11,3.543205679331193e-11,2.1242724547013364e-11,1.2199152425876176e-11,6.564965355126931e-12,3.330916618228049e-12,1.5869516526196913e-12,7.138392660861782e-13,3.161675094344157e-13,1.441645929937138e-13,7.221734626152706e-14,4.0664922362566074e-14,2.6388567412384555e-14
0.0,31,31.0,0.0,30.0,0.0,0.0,0.0,0.0,-13.0,0.0,2.0,0.0,0.0,0.0,1.5804157230005387e-11,1.3431910800610014e-11,1.1121809639007874e-11,8.940503194108117e-12,6.939556215412213e-12,5.215014363588785e-12,3.77963157060846e-12,2.6093181650559644e-12,1.7120979816665054e-12,1.0841782498991944e-12,6.723077261233122e-13,4.184653873148389e-13,2.718345690155485e-13,1.8793496605865257e-13,1.3761460288733412e-13,1.0495757198425424e-13,8.137791393225554e-14,6.305414793922278e-14,4.832952044253762e-14,3.654332768153598e-14,2.7265608913637514e-14,2.020921041343574e-14,1.4728929737910864e-14,1.057536198668598e-14,7.494866771749666e-15,5.288134944763641e-15,1.0656055556476735e-09,6.414605859941762e-10,3.9659166194238616e-10,2.466572864188819e-10,1.526919330868103e-10,9.442746442445905e-11,5.85470425933665e-11,3.596875228241333e-11,2.1655942974388165e-11,1.2530363192812536e-11,6.814329891239418e-12,3.4989410605124593e-12,1.6857415855466895e-12,7.634429813960206e-13,3.369685034513782e-13,1.5063926276456583e-13,7.291814780620791e-14,3.9715188478875225e-14,2.522539329229548e-14
0.0,32,32.0,0.0,30.0,0.0,0.0,0.0,0.0,-13.0,0.0,2.0,0.0,0.0,0.0,1.6136893079842563e-11,1.3732448302159583e-11,1.1391353085627292e-11,9.180634602031315e-12,7.150279675097681e-12,5.395867795677802e-12,3.92913179851439e-12,2.725524778359626e-12,1.7949290675968512e-12,1.1371715982522514e-12,7.012797640804478e-13,4.3038595432443454e-13,2.734568272977561e-13,1.844074656803971e-13,1.3226773244373775e-13,9.957474091424482e-14,7.668900853512233e-14,5.922583324487889e-14,4.532473257849929e-14,3.4235681676700715e-14,2.5536924630887002e-14,1.8932008149997278e-14,1.3807468275591449e-14,9.916599580935577e-15,7.0379792752153055e-15,4.9759394476581964e-15,1.0910123330889472e-09,6.552845729945353e-10,4.0435500245458216e-10,2.5103595405649785e-10,1.5513618737072162e-10,9.579023577308096e-11,5.933942679515802e-11,3.6481480597706675e-11,2.203822396592413e-11,1.2835152031272565e-11,7.047509637540818e-12,3.6601527287698905e-12,1.783427551428047e-12,8.142781366984167e-13,3.593254923406467e-13,1.5824302971739048e-13,7.427124823828754e-14,3.910822930675677e-14,2.4216702307922934e-14
0.0,33,33.0,0.0,30.0,0.0,0.0,0.0,0.0,-13.0,0.0,2.0,0.0,0.0,0.0,1.6458368939301854e-11,1.4021444649144719e-11,1.1649449391571571e-11,9.41002756608933e-12,7.35173070204455e-12,5.569622052355017e-12,4.07413402026354e-12,2.839908079911908e-12,1.878164492694823e-12,1.191957201038364e-12,7.325884109924257e-13,4.445449646399031e-13,2.768926558699483e-13,1.8219747659589156e-13,1.2782543894808724e-13,9.481585994501936e-14,7.244570677141474e-14,5.573200888270434e-14,4.257212202724897e-14,3.211846281413564e-14,2.3948357840162156e-14,1.7756524022136746e-14,1.2958418831792951e-14,9.308585775313408e-15,6.6158965491415804e-15,4.686533045239817e-15,1.1171776955138444e-09,6.69479833415889e-10,4.1230930733310805e-10,2.555147319187572e-10,1.57633030971048e-10,9.717661988591889e-11,6.013234493130338e-11,3.6976721116315396e-11,2.2394536059812268e-11,1.3115931428288232e-11,7.264863624983707e-12,3.813983088250908e-12,1.8793253383977692e-12,8.658672826874773e-13,3.8298984993740375e-13,1.6687966992054024e-13,7.624734927010922e-14,3.883300638395573e-14,2.33580728281896e-14
0.0,34,34.0,0.0,30.0,0.0,0.0,0.0,0.0,-13.0,0.0,2.0,0.0,0.0,0.0,1.6769878939523774e-11,1.4300072956338816e-11,1.1897077349733307e-11,9.629376236386764e-12,7.544241488815403e-12,5.7362323400564415e-12,4.21427770557531e-12,2.9519115279313954e-12,1.9612017218090897e-12,1.248009280298493e-12,7.6584565826598e-13,4.606949855069653e-13,2.8199997576266017e-13,1.8122587940702223e-13,1.2423749652756168e-13,9.06407700886357e-14,6.861285891933706e-14,5.2542553768354646e-14,4.004769408677667e-14,3.017355121530215e-14,2.2486653643968286e-14,1.6673313405117523e-14,1.2175123158877415e-14,8.746816026743364e-15,6.225539363200845e-15,4.4179202048497344e-15,1.1441278890763103e-09,6.840575110669469e-10,4.204595745726445e-10,2.600957200210969e-10,1.6018360936542453e-10,9.858886986716914e-11,6.093017308211565e-11,3.745994040809971e-11,2.2729452192110105e-11,1.3375199327933139e-11,7.466999759787034e-12,3.960068642281915e-12,1.9728618449139617e-12,9.177737386391044e-13,4.0771956793817984e-13,1.7644898874944475e-13,7.881405009544562e-14,3.8878238687972395e-14,2.2646115439972073e-14
0.0,35,35.0,0.0,30.0,0.0,0.0,0.0,0.0,-13.0,0.0,2.0,0.0,0.0,0.0,1.707263596722069e-11,1.456945434577876e-11,1.2135205844898337e-11,9.839416730738724e-12,7.728237016484453e-12,5.895781069808963e-12,4.349338279801829e-12,3.061097662924304e-12,2.0435242830086353e-12,1.3048532205954053e-12,8.006874129777761e-13,4.785964238513467e-13,2.886383701478374e-13,1.8141516250631652e-13,1.214572680614264e-13,8.701417422976411e-14,6.516006707235041e-14,4.9631147077900406e-14,3.773026733636728e-14,2.8384823925397172e-14,2.1139992916933947e-14,1.5673934921545346e-14,1.1451612298779922e-14,8.227241227039458e-15,5.864124643615265e-15,4.168311488575374e-15,1.1718902710127256e-09,6.990291703478657e-10,4.288109901878754e-10,2.6478113296079835e-10,1.6278894142310448e-10,1.0002858894052446e-10,6.17362490246583e-11,3.7935686241307647e-11,2.3047106922308568e-11,1.3615456687395961e-11,7.654717473492941e-12,4.098226360035045e-12,2.063569573640498e-12,9.69603752618568e-13,4.332824736037525e-13,1.8684852947997048e-13,8.193608509775725e-14,3.9232075285181206e-14,2.2078091419854514e-14
0.0,36,36.0,0.0,30.0,0.0,0.0,0.0,0.0,-13.0,0.0,2.0,0.0,0.0,0.0,1.7367770219095302e-11,1.4830649405598066e-11,1.2364777060062799e-11,1.0040902928418644e-11,7.904207063766536e-12,6.048451464601164e-12,4.479206833326959e-12,3.1671359891348493e-12,2.1246968629691675e-12,1.3620651777427384e-12,8.367750004277065e-13,4.980190270303826e-13,2.966696792695572e-13,1.8268899504433922e-13,1.1944072665475284e-13,8.390465937282092e-14,6.206095280116144e-14,4.6974790184832985e-14,3.560114257557166e-14,2.67379187568906e-14,1.9897820258491348e-14,1.475083189169958e-14,1.0782528192437318e-14,7.746215930732367e-15,5.529135274453505e-15,3.936098805698059e-15,1.2004933568246492e-09,7.144068137444492e-10,4.3736892684026917e-10,2.6957329867409193e-10,1.6545000390489794e-10,1.0149693553526494e-10,6.255308933622417e-11,3.840769282534019e-11,2.3351180249527318e-11,1.3839142836554798e-11,7.82895619071821e-12,4.228429244478721e-12,2.1510798472945306e-12,1.0210073852260476e-12,4.59458742606027e-13,1.979751957894615e-13,8.557571526498037e-14,3.988189378744616e-14,2.1651602037341756e-14
0.0,37,37.0,0.0,30.0,0.0,0.0,0.0,0.0,-13.0,0.0,2.0,0.0,0.0,0.0,1.7656330326368077e-11,1.50846536976749e-11,1.258669494319499e-11,1.023458793004885e-11,8.072683136418459e-12,6.194504434090752e-12,4.603871255899082e-12,3.269790869002334e-12,2.2043597286344716e-12,1.4192709116324883e-12,8.737960994412165e-13,5.187431609534094e-13,3.059586816506596e-13,1.849720518464098e-13,1.1814572607863018e-13,8.128387953754421e-14,5.929251238917585e-14,4.455338108818766e-14,3.364381332145181e-14,2.5220030710753802e-14,1.8750695026216988e-14,1.3897229045600289e-14,1.01630550300038e-14,7.300452920213059e-15,5.218293464578767e-15,3.719833589140095e-15,1.2299668699532597e-09,7.302028994759013e-10,4.461389459041479e-10,2.744746532185538e-10,1.6816778134077999e-10,1.0299477410845899e-10,6.338257288726716e-11,3.887898884831325e-11,2.3644901734299766e-11,1.4048586877714372e-11,7.990749936267136e-12,4.350782601146775e-12,2.2351151670272454e-12,1.0716783685869382e-12,4.860427655666739e-13,2.0972672738237214e-13,8.96932156030153e-14,4.081420416157617e-14,2.136434016103441e-14
0.0,38,38.0,0.0,30.0,0.0,0.0,0.0,0.0,-13.0,0.0,2.0,0.0,0.0,0.0,1.793928613819857e-11,1.533239618001625e-11,1.280181776049872e-11,1.042121022683971e-11,8.234219782816898e-12,6.334258623801973e-12,4.723398989350431e-12,3.3689097132481193e-12,2.2822227162541736e-12,1.4761439983494464e-12,9.114651731216669e-13,5.405608425821894e-13,3.163737893440867e-13,1.8819001870974738e-13,1.1753147799907753e-13,7.912588330975161e-14,5.683455290605749e-14,4.234933470494846e-14,3.1843710974980734e-14,2.3819735708028206e-14,1.7690162215532293e-14,1.3107042442199432e-14,9.588859016362405e-15,6.886983308190312e-15,4.929537121859082e-15,3.518207835485014e-15,1.2603417943713997e-09,7.464303592333386e-10,4.5512680190614143e-10,2.7948773507081325e-10,1.7094329351258205e-10,1.0452278356542902e-10,6.422609234018891e-11,3.935200235040018e-11,2.3931069396477896e-11,1.4245973153174352e-11,8.141188162383386e-12,4.465501438839094e-12,2.315481046374136e-12,1.1213531594708425e-12,5.128444435753321e-13,2.2200299393477233e-13,9.424741141729294e-14,4.201463741987063e-14,2.1213896423268573e-14
0.0,39,39.0,0.0,30.0,0.0,0.0,0.0,0.0,-13.0,0.0,2.0,0.0,0.0,0.0,1.821753251173482e-11,1.557473966995939e-11,1.3010953764112275e-11,1.060148371653968e-11,8.389379742936362e-12,6.468073460796311e-12,4.837921498889913e-12,3.46441168191092e-12,2.3580589902034597e-12,1.5324035610937821e-12,9.495234631132278e-13,5.632765244755436e-13,3.277877076055985e-13,1.9226971957526666e-13,1.1755819710956457e-13,7.740656976148198e-14,5.466920289931554e-14,4.034724395530865e-14,3.018797916036296e-14,2.2526837203114026e-14,1.670864038414395e-14,1.2374800836543848e-14,9.056035427505662e-15,6.5031214854590685e-15,4.6609987770304886e-15,3.330037821857131e-15,1.2916504304112358e-09,7.631026161258461e-10,4.6433844846192527e-10,2.8461518054007085e-10,1.7377760904081762e-10,1.0608153336412719e-10,6.508467665042304e-11,3.982865851527671e-11,2.4212078691474916e-11,1.4433318728940158e-11,8.281382677144508e-12,4.5728893256756215e-12,2.392057585227202e-12,1.1698093717103757e-12,5.396899936496298e-13,2.3470709234150605e-13,9.919622658824337e-14,4.346799972595934e-14,2.119761293352127e-14
0.0,40,40.0,0.0,30.0,0.0,0.0,0.0,0.0,-13.0,0.0,2.0,0.0,0.0,0.0,1.8491893653163396e-11,1.58124826879702e-11,1.3214859185821109e-11,1.0776090809504342e-11,8.53872238905217e-12,6.596334962048523e-12,4.947620488851104e-12,3.556277053259717e-12,2.431698738771326e-12,1.5878116427669522e-12,9.87738615143605e-13,5.867076424413733e-13,3.4007802720977234e-13,1.9713931912715583e-13,1.1818687930592221e-13,7.61032565574936e-14,5.278049168950852e-14,3.8533577661321926e-14,2.8665272883663134e-14,2.1332231981568222e-14,1.5799324192601647e-14,1.1695576980813673e-14,8.561062001405398e-15,6.1464343126767825e-15,4.4109866865927655e-15,3.1542502300559128e-15,1.3239264540691104e-09,7.80233603023924e-10,4.737800450816423e-10,2.898597208364249e-10,1.7667185080012833e-10,1.0767153556510075e-10,6.595908823880597e-11,4.0310468072482554e-11,2.44899577055659e-11,1.461246086829927e-11,8.412440395100036e-12,4.673318931930029e-12,2.4647909948711743e-12,1.2168637417801537e-12,5.664223434871464e-13,2.477462465480344e-13,1.0449721633411408e-13,4.5158374189027e-14,2.1312478186270152e-14
0.0,41,41.0,0.0,30.0,0.0,0.0,0.0,0.0,-13.0,0.0,2.0,0.0,0.0,0.0,1.876312770004864e-11,1.6046362192945128e-11,1.3414237929230066e-11,1.0945677976428044e-11,8.682794947810533e-12,6.719444039856838e-12,5.052715831489082e-12,3.644537367649789e-12,2.503022942567149e-12,1.6421703267583687e-12,1.0259039999855078e-12,6.106849453546013e-13,3.53127731230339e-13,2.0272856506003445e-13,1.1937918244006142e-13,7.519434456400253e-14,5.1153991312313437e-14,3.6896412018920603e-14,2.7265579076960176e-14,2.0227792078795194e-14,1.4956099458182293e-14,1.106492754963796e-14,8.100757846856422e-15,5.814714031206443e-15,4.177967816949874e-15,2.989870364163134e-15,1.3572049799833103e-09,7.978377815007073e-10,4.834579644414533e-10,2.952241807877539e-10,1.7962719688813337e-10,1.0929327938872445e-10,6.684989868646335e-11,4.079860522234175e-11,2.476640550648118e-11,1.4785052573850002e-11,8.535441509852164e-12,4.7672144112125475e-12,2.533685243161291e-12,1.262369754053343e-12,5.929011888940073e-13,2.610325189351121e-13,1.1010806510426104e-13,4.7069254808637147e-14,2.1555057385553816e-14
0.0,42,42.0,0.0,30.0,0.0,0.0,0.0,0.0,-13.0,0.0,2.0,0.0,0.0,0.0,1.9031931341095798e-11,1.6277056853885616e-11,1.3609742469576984e-11,1.1110853192914268e-11,8.822126037121644e-12,6.837807025385296e-12,5.153455135041071e-12,3.7292664115264915e-12,2.5719573232692364e-12,1.6953186971868912e-12,1.0638377885833552e-12,6.350526303186104e-13,3.668256080839994e-13,2.0896904339778923e-13,1.2109738366337614e-13,7.465906412167899e-14,4.9776515173177315e-14,3.542519288553509e-14,2.598005581901882e-14,1.9206260298192157e-14,1.4173468906226387e-14,1.0478840553122356e-14,7.672247170252405e-15,5.505954432972524e-15,3.960552471674047e-15,2.8360121355171986e-15,1.3915226282595503e-09,8.159301615510979e-10,4.933787998953903e-10,3.007114789597986e-10,1.8264487947475786e-10,1.1094725335222246e-10,6.775754666747654e-11,4.129397487593138e-11,2.504283130574042e-11,1.4952564437002168e-11,8.65142260309189e-12,4.855035702018264e-12,2.598793955220065e-12,1.3062150293214624e-12,6.190027791167019e-13,2.7448334823142547e-13,1.1598703704916993e-13,4.918369943862732e-14,2.192145291870735e-14
0.0,43,43.0,0.0,30.0,0.0,0.0,0.0,0.0,-13.0,0.0,2.0,0.0,0.0,0.0,1.9298944344484034e-11,1.650519060550963e-11,1.3801975583704195e-11,1.1272184831127864e-11,8.957221101639865e-12,6.951828132227247e-12,5.250104847607735e-12,3.810572072298695e-12,2.638466555931112e-12,1.7471297159057228e-12,1.1013818339873353e-12,6.596683078234915e-13,3.810665696596126e-13,2.1579442783780608e-13,1.2330439169817529e-13,7.447728925885769e-14,4.8635867531254736e-14,3.411052642697274e-14,2.4800888084435614e-14,1.8261157268061908e-14,1.3446487057075172e-14,9.933689248421559e-15,7.2729272179857e-15,5.218329885461313e-15,3.757480371328022e-15,2.6918695005788596e-15,1.4269175953163546e-09,8.345263222371134e-10,5.035493731256878e-10,3.0632462886527067e-10,1.857261829123363e-10,1.1263395881189068e-10,6.868238151072045e-11,4.179726960448401e-11,2.532039271625452e-11,1.5116291228735812e-11,8.761364152331812e-12,4.9372647716312914e-12,2.6602126771265605e-12,1.3483185614082894e-12,6.44619486430333e-13,2.8802193213621626e-13,1.2209337197327378e-13,5.148449106785622e-14,2.2407290174422843e-14
0.0,44,44.0,0.0,30.0,0.0,0.0,0.0,0.0,-13.0,0.0,2.0,0.0,0.0,0.0,1.9564753917781122e-11,1.6731336312549993e-11,1.3991492624631019e-11,1.1430201633148208e-11,9.088559382973062e-12,7.061903592720949e-12,5.342942774358468e-12,3.8885890670316435e-12,2.702548806737453e-12,1.7975070810351942e-12,1.1384004065541724e-12,6.844028213138003e-13,3.9575187803976155e-13,2.2314071020643988e-13,1.2596379639198582e-13,7.46294074172813e-14,4.7720638049364066e-14,3.294399585227553e-14,2.372115829766027e-14,1.738669836176209e-14,1.2770702911516653e-14,9.426191687907387e-15,6.900439913418489e-15,4.950176856220855e-15,3.567608032233794e-15,2.5567090654806295e-15,1.463429728931911e-09,8.536424333758296e-10,5.139767419093279e-10,3.120667409648862e-10,1.888724418667739e-10,1.1435391772778918e-10,6.962469536444375e-11,4.2309017073179184e-11,2.560003191611385e-11,1.5277361876676735e-11,8.866181876026822e-12,5.01439377357688e-12,2.7180715862244003e-12,1.388627871575807e-12,6.696592077012312e-13,3.0157747400666283e-13,1.2838762388409293e-13,5.3954299026093665e-14,2.3007724327712744e-14
0.0,45,45.0,0.0,30.0,0.0,0.0,0.0,0.0,-13.0,0.0,2.0,0.0,0.0,0.0,1.982989885732633e-11,1.6956019424373495e-11,1.4178804128291809e-11,1.1585393473559216e-11,9.21659211207426e-12,7.168417217318632e-12,5.432251875098435e-12,3.963472526130626e-12,2.7642306397158846e-12,1.846382120595989e-12,1.174778822977564e-12,7.0913994431254e-13,4.1078928723275296e-13,2.309464039002082e-13,1.290399415210073e-13,7.5096233657691e-14,4.7020035844042014e-14,3.1918002077069866e-14,2.2734730282856325e-14,1.657771912425062e-14,1.2142109295865883e-14,8.953375152373233e-15,6.552646736322468e-15,4.699977623837294e-15,3.3898973184408505e-15,2.429863608515632e-15,1.5011006076908415e-09,8.732952783591968e-10,5.246682080243578e-10,3.179410252165125e-10,1.9208503983979157e-10,1.1610767667705957e-10,7.058474648982162e-11,4.282961894596397e-11,2.5882508958744344e-11,1.5436751687215244e-11,8.966721355202774e-12,5.086915048089929e-12,2.7725287107491714e-12,1.4271161382244108e-12,6.940446377848367e-13,3.150853127544162e-13,1.3483194236069973e-13,5.657583382660558e-14,2.3717464119659614e-14
0.0,46,46.0,0.0,30.0,0.0,0.0,0.0,0.0,-13.0,0.0,2.0,0.0,0.0,0.0,2.0094873467691512e-11,1.7179721542682878e-11,1.4364378597164722e-11,1.1738212680468389e-11,9.341741659479322e-12,7.271737148969033e-12,5.51831520554379e-12,4.03539239668689e-12,2.8235623202283927e-12,1.8937107648716876e-12,1.2104220042724046e-12,7.33775976431207e-13,4.260931079347998e-13,2.391527158224254e-13,1.324980099600794e-13,7.585895973379995e-14,4.6523757745942125e-14,3.102562623188541e-14,2.183614542966438e-14,1.5829608108401503e-14,1.1557097902317942e-14,8.512544814785274e-15,6.227606450778904e-15,4.466345899794173e-15,3.223405062149062e-15,2.31072631409009e-15,1.5399736250501107e-09,8.935022781746038e-10,5.35631325342421e-10,3.239507939907151e-10,1.9536540821858041e-10,1.1789580853731087e-10,7.156277577432313e-11,4.3359382336070834e-11,2.6168431807731914e-11,1.559529587689903e-11,9.06375539020931e-12,5.155312862185194e-12,2.823763702821716e-12,1.4637793494701899e-12,7.177124477854985e-13,3.284869539975054e-13,1.4139029913602387e-13,5.933199118831992e-14,2.4530809044050346e-14
0.0,47,47.0,0.0,30.0,0.0,0.0,0.0,0.0,-13.0,0.0,2.0,0.0,0.0,0.0,2.0360131246040653e-11,1.740288385418735e-11,1.4548645349452473e-11,1.1889075735289449e-11,9.4644014229266e-12,7.37221360814545e-12,5.601411867106731e-12,4.104528618211712e-12,2.8806135298551126e-12,1.9394706323198904e-12,1.2452529929180638e-12,7.582192575537604e-13,4.4158420402432534e-13,2.4770368500100447e-13,1.3630411302173674e-13,7.689912981373675e-14,4.6221885822007445e-14,3.026051199210882e-14,2.1020530057795882e-14,1.5138246233794292e-14,1.1012419212100405e-14,8.101256065225946e-15,5.923555337060508e-15,4.248014118655173e-15,3.0672736627202563e-15,2.198745553965355e-15,1.5800940782663656e-09,9.142815166811784e-10,5.46873908162241e-10,3.3009946522817635e-10,1.9871502585870827e-10,1.197189128104771e-10,7.25590181566846e-11,4.3898544878562795e-11,2.6458282931776372e-11,1.575370366743565e-11,9.157983584965722e-12,5.220056761434638e-12,2.871972192125089e-12,1.4986335179610089e-12,7.406123954604209e-13,3.417300189281909e-13,1.4802866370598494e-13,6.220598232751412e-14,2.5441696725943825e-14
0.0,48,48.0,0.0,30.0,0.0,0.0,0.0,0.0,-13.0,0.0,2.0,0.0,0.0,0.0,2.0626088334650768e-11,1.7625910400325676e-11,1.4731997355736237e-11,1.2038365213363613e-11,9.584936270855327e-12,7.470177448320075e-12,5.681813835222593e-12,4.1710670154160655e-12,2.935469496331386e-12,1.9836582560692417e-12,1.279211454960643e-12,7.823896174165957e-13,4.571899295514747e-13,2.5654628796400837e-13,1.404253779944251e-13,7.819863594024496e-14,4.610480960181997e-14,2.961676576818844e-14,2.0283513078675144e-14,1.449995194716688e-14,1.0505146620452412e-14,7.717290002845538e-15,5.638889625636336e-15,4.043822183643647e-15,2.9207225851448666e-15,2.0934200911054284e-15,1.6215092624513743e-09,9.356517671882954e-10,5.584040398388965e-10,3.3639056576127965e-10,2.0213541914112744e-10,1.2157761522899542e-10,7.357371030482013e-11,4.4447294446197295e-11,2.6752442483053624e-11,1.5912572368829694e-11,9.250033694660845e-12,5.2815963888782085e-12,2.917360732680835e-12,1.5317119903146023e-12,7.62706390320785e-13,3.547681255471249e-13,1.5471513259883188e-13,6.518144886489201e-14,2.6443757631510128e-14
0.0,49,49.0,0.0,30.0,0.0,0.0,0.0,0.0,-13.0,0.0,2.0,0.0,0.0,0.0,2.089312674948547e-11,1.784917116979433e-11,1.4914794009809003e-11,1.2186431861046363e-11,9.703683394165682e-12,7.565939365240392e-12,5.759783544081015e-12,4.235195847842901e-12,2.9882275332883334e-12,2.0262864711901735e-12,1.3122521889408828e-12,8.062177758305726e-13,4.728440146531869e-13,2.6563051222454693e-13,1.4483002972180075e-13,7.973972752968197e-14,4.6163168873836995e-14,2.908887286439334e-14,1.962115313193376e-14,1.3911431593698341e-14,1.003264419547849e-14,7.358631667561121e-15,5.372149868356055e-15,3.852707480985114e-15,2.7830406866069194e-15,1.994294616494684e-15,1.6642685700476894e-09,9.576325203784277e-10,5.702300817597556e-10,3.4282773475735343e-10,2.056281624187816e-10,1.2347256705263224e-10,7.460709559018968e-11,4.500578444085553e-11,2.705120821265239e-11,1.6072401023247807e-11,9.340464322425165e-12,5.340357616793475e-12,2.9601423420204198e-12,1.5630628774773129e-12,7.839675321515235e-13,3.675607150822793e-13,1.6142001731213777e-13,6.82425616787664e-14,2.7530374591471454e-14
0.0,50,50.0,0.0,30.0,0.0,0.0,0.0,0.0,-13.0,0.0,2.0,0.0,0.0,0.0,2.1161597394933586e-11,1.8073005008640746e-11,1.50973637985941e-11,1.2333596731502976e-11,9.820953447603844e-12,7.659789625580821e-12,5.835572115112547e-12,4.297102953931556e-12,3.038993977467908e-12,2.067381976928282e-12,1.3443436600029869e-12,8.296447069682415e-13,4.884864082683491e-13,2.749094000282878e-13,1.4948746349922638e-13,8.150503029194202e-14,4.6387813355366895e-14,2.867162779814891e-14,1.9029874432395456e-14,1.3369734509554516e-14,9.592537598684616e-15,7.0234506426625776e-15,5.1220070137267836e-15,3.673695999731928e-15,2.6535793050921257e-15,1.9009555589893726e-15,1.7084235960434852e-09,9.802440136155477e-10,5.823606827126198e-10,3.494147272657418e-10,2.0919487876542128e-10,1.2540444430254217e-10,7.565942715573425e-11,4.5574145486459644e-11,2.7354812360998315e-11,1.623360330765565e-11,9.429768602737522e-12,5.396739833409812e-12,3.0005326207660226e-12,1.5927466268899982e-12,8.043791385779342e-13,3.8007283466647987e-13,1.6811589597683412e-13,7.137410378026046e-14,2.869474494539049e-14
0.0,51,51.0,0.0,30.0,0.0,0.0,0.0,0.0,-13.0,0.0,2.0,0.0,0.0,0.0,2.1431822875593115e-11,1.8297722348427044e-11,1.5280006849214628e-11,1.2480153322303876e-11,9.937031886549017e-12,7.751998200963692e-12,5.909418126974744e-12,4.356973426951981e-12,3.0878815056383838e-12,2.1069830828805385e-12,1.3754665743999847e-12,8.52620979485487e-13,5.040630848593656e-13,2.8433906496604855e-13,1.5436830767505242e-13,8.347757090505222e-14,4.6769775978713114e-14,2.836007706816389e-14,1.8506410604540388e-14,1.2872212422475888e-14,9.182687775575526e-15,6.7100837114624666e-15,4.887249981444434e-15,3.5058944147331535e-15,2.5317460480066e-15,1.813027131885283e-15,1.7540282492734242e-09,1.003507261681729e-09,5.948047886862483e-10,3.5615541786692444e-10,2.1283724094788407e-10,1.273739470703993e-10,7.67309696753087e-11,4.615249423758463e-11,2.7663435809483484e-11,1.6396519496849605e-11,9.51837856166903e-12,5.451114228080608e-12,3.0387464311762084e-12,1.620833752444905e-12,8.239337748038401e-13,3.922748857667921e-13,1.7477763363666773e-13,7.456153781870838e-14,2.9929943423729853e-14
0.0,52,52.0,0.0,30.0,0.0,0.0,0.0,0.0,-13.0,0.0,2.0,0.0,0.0,0.0,2.1704100115935975e-11,1.8523607756483052e-11,1.5462997340642152e-11,1.2626369674046316e-11,1.0052180425278034e-11,7.842815211732305e-12,5.981546835495396e-12,4.414987761708041e-12,3.1350068094179462e-12,2.1451376436090993e-12,1.40561250679466e-12,8.751060827635357e-13,5.195258216499314e-13,2.938786842522522e-13,1.594444751798282e-13,8.564080459519536e-14,4.7300256961781004e-14,2.8149472768566012e-14,1.8047755815245576e-14,1.2416482805545299e-14,8.801167091965307e-15,6.4170192967107265e-15,4.666774556077316e-15,3.348483009059119e-15,2.416999222105037e-15,1.7301675979026473e-15,1.8011388701814253e-09,1.0274440889885911e-09,6.07571653138854e-10,3.6305380443122363e-10,2.165569725565082e-10,1.2938179896989916e-10,7.782200024476623e-11,4.6740939908781305e-11,2.7977219800776862e-11,1.6561427371837278e-11,9.606669894507873e-12,5.50382292392168e-12,3.074995105594643e-12,1.647402733754313e-12,8.426322965902842e-13,4.041423464634754e-13,1.8138237572127927e-13,7.779105918591428e-14,3.122898417686169e-14
0.0,53,53.0,0.0,30.0,0.0,0.0,0.0,0.0,-13.0,0.0,2.0,0.0,0.0,0.0,2.1978702798246234e-11,1.8750922314304233e-11,1.5646585773912865e-11,1.2772490401585695e-11,1.0166638559470582e-11,7.932471601142962e-12,6.052169762636823e-12,4.4713204135657085e-12,3.1804886034382706e-12,2.1819011823797364e-12,1.43478259022759e-12,8.970677482266246e-13,5.348319522055808e-13,3.034904694935262e-13,1.646892038182536e-13,8.797864346429108e-14,4.7970616235466466e-14,2.8035235563826293e-14,1.7651122544598582e-14,1.2000395872438305e-14,8.44623764681373e-15,6.142883451039833e-15,4.459573441458202e-15,3.200709328385776e-15,2.3088428486169116e-15,1.6520657472351822e-15,1.8498143554505553e-09,1.0520771633165225e-09,6.206708477665705e-10,3.7011401199907133e-10,2.20355849242822e-10,1.3142874675426706e-10,7.893280872221102e-11,4.733958902793607e-11,2.8296275536933573e-11,1.672855202370664e-11,9.694966948419166e-12,5.555178815508674e-12,3.1094841498733385e-12,1.6725380921822334e-12,8.604829158232399e-13,4.1565547447952304e-13,1.8790951890468455e-13,8.104963590850764e-14,3.2584880632412695e-14
0.0,54,54.0,0.0,30.0,0.0,0.0,0.0,0.0,-13.0,0.0,2.0,0.0,0.0,0.0,2.2255883628628525e-11,1.8979905831225754e-11,1.5831001099402092e-11,1.2918738638808357e-11,1.0280625109279993e-11,8.021179974847051e-12,6.1214845837277326e-12,4.526138714858037e-12,3.224445940559566e-12,2.2173352015269043e-12,1.4629862763552594e-12,9.184812734978641e-13,5.499441015471189e-13,3.131396186834618e-13,1.700770855867756e-13,9.047548397856712e-14,4.877237217501256e-14,2.8012925663911304e-14,1.7313905362590845e-14,1.1622004934841622e-14,8.116331537636698e-15,5.886427201551555e-15,4.264727336976929e-15,3.0618824746817813e-15,2.206822210299886e-15,1.5784375914746174e-15,1.9001162899342462e-09,1.0774300311430259e-09,6.341122738013537e-10,3.773402967957893e-10,2.2423570002703076e-10,1.3351556009810658e-10,8.00636977413858e-11,4.794854882563037e-11,2.8620691952510297e-11,1.6898074552496146e-11,9.78354774067096e-12,5.605465980041434e-12,3.1424114026583837e-12,1.6963286474084853e-12,8.775002965377298e-13,4.2679899684311526e-13,1.9434066311753472e-13,8.432503662834434e-14,3.399070211806653e-14
