Line_number,Fiducial,Easting,Northing,Height,Elevation,tx_pitch,tx_roll,tx_yaw,txrx_dx,txrx_dy,txrx_dz,rx_pitch,rx_roll,rx_yaw,S0Z_time_3.834e-04,S0Z_time_3.924e-04,S0Z_time_4.039e-04,S0Z_time_4.184e-04,S0Z_time_4.364e-04,S0Z_time_4.589e-04,S0Z_time_4.869e-04,S0Z_time_5.224e-04,S0Z_time_5.679e-04,S0Z_time_6.249e-04,S0Z_time_6.969e-04,S0Z_time_7.879e-04,S0Z_time_9.019e-04,S0Z_time_1.046e-03,S0Z_time_1.227e-03,S0Z_time_1.456e-03,S0Z_time_1.744e-03,S0Z_time_2.109e-03,S0Z_time_2.567e-03,S0Z_time_3.145e-03,S0Z_time_3.864e-03,S0Z_time_4.745e-03,S0Z_time_5.821e-03,S0Z_time_7.140e-03,S0Z_time_8.754e-03,S0Z_time_1.073e-02,S1Z_time_2.057e-05,S1Z_time_2.607e-05,S1Z_time_3.307e-05,S1Z_time_4.206e-05,S1Z_time_5.356e-05,S1Z_time_6.807e-05,S1Z_time_8.607e-05,S1Z_time_1.086e-04,S1Z_time_1.366e-04,S1Z_time_1.721e-04,S1Z_time_2.176e-04,S1Z_time_2.746e-04,S1Z_time_3.466e-04,S1Z_time_4.376e-04,S1Z_time_5.516e-04,S1Z_time_6.956e-04,S1Z_time_8.771e-04,S1Z_time_1.106e-03,S1Z_time_1.394e-03
0.0,0,0.0,0.0,30.0,0.0,0.0,0.0,0.0,-13.0,0.0,2.0,0.0,0.0,0.0,5.706585178080386e-11,5.216056609621498e-11,4.692358979078805e-11,4.151972318539391e-11,3.597451904686337e-11,3.056884989294711e-11,2.541016312943512e-11,2.0502799970050628e-11,1.6002938297997967e-11,1.2128651407694046e-11,8.909615568994961e-12,6.331163986233074e-12,4.374787884354685e-12,2.9339004297545692e-12,1.909612394084188e-12,1.207568247962378e-12,7.459444371554119e-13,4.4858820526476825e-13,2.6354775616833564e-13,1.5105636689813627e-13,8.52209449279128e-14,4.750746630844949e-14,2.635488125738588e-14,1.4463960173849828e-14,7.968218012527339e-15,4.1697631417160355e-15,3.540450116518164e-09,1.6263312943960576e-09,8.133589437777867e-10,4.482107436251503e-10,2.7511382961134376e-10,1.856980787214144e-10,1.3291077400657012e-10,9.658000043043873e-11,6.967440891803428e-11,4.893308542936248e-11,3.3116376049193646e-11,2.171884449048692e-11,1.3730856950625422e-11,8.369662759131258e-12,4.93304001673183e-12,2.811166961929052e-12,1.5457636811552668e-12,8.26477690384788e-13,4.301288824582103e-13
0.0,1,1.0,0.0,30.0,0.0,0.0,0.0,0.0,-13.0,0.0,2.0,0.0,0.0,0.0,5.700802182595618e-11,5.226555280051228e-11,4.722306120535164e-11,4.2032658687462025e-11,3.669338064852869e-11,3.1452861731078674e-11,2.639766076509829e-11,2.1522253859303298e-11,1.6980873375336556e-11,1.3005364633448013e-11,9.646574673323565e-12,6.913751288099418e-12,4.810528688952308e-12,3.242580741262539e-12,2.117158459509842e-12,1.3405589470476857e-12,8.27463047044941e-13,4.965773284609899e-13,2.906605509994069e-13,1.6590210409630995e-13,9.312072382518167e-14,5.162543501779143e-14,2.8467081373851513e-14,1.556101175046321e-14,8.523966639337769e-15,4.432530568833247e-15,3.51864386629596e-09,1.6137954031922053e-09,8.085587302708958e-10,4.4606650067162233e-10,2.7199898612924254e-10,1.8115455165863461e-10,1.2829616821597745e-10,9.313477163686229e-11,6.779598993244341e-11,4.836672721311897e-11,3.336232378702923e-11,2.231417750488132e-11,1.4375197115430183e-11,8.91226043538888e-12,5.331053308919897e-12,3.073343035245533e-12,1.704888485383683e-12,9.172317825668024e-13,4.777654734257615e-13
0.0,2,2.0,0.0,30.0,0.0,0.0,0.0,0.0,-13.0,0.0,2.0,0.0,0.0,0.0,5.6811279328783346e-11,5.212966390405261e-11,4.718417049058898e-11,4.212836086790316e-11,3.6949514193565313e-11,3.18694256131493e-11,2.694982888474034e-11,2.21670468507516e-11,1.7660968552833645e-11,1.3662221487986592e-11,1.0233941313744122e-11,7.403073203429438e-12,5.193394470094906e-12,3.524508017913066e-12,2.3130957224236255e-12,1.4697182402875875e-12,9.084686235642593e-13,5.451939644168727e-13,3.1850940765853367e-13,1.8132779686263226e-13,1.0138457040961955e-13,5.597142002184453e-14,3.0692205806280217e-14,1.6720560214424275e-14,9.10007733163181e-15,4.710828277388918e-15,3.4962359232987536e-09,1.601375467203163e-09,8.047703998265389e-10,4.463665966218586e-10,2.7255653317174076e-10,1.8024760334133778e-10,1.2613564558693637e-10,9.071414966233057e-11,6.593656157977932e-11,4.7360521556972975e-11,3.30889228986029e-11,2.2482942013265335e-11,1.4725118870622477e-11,9.277412471596279e-12,5.632871034733261e-12,3.2888515012294603e-12,1.844100941464804e-12,1.0004681180197112e-12,5.231408795483439e-13
0.0,3,3.0,0.0,30.0,0.0,0.0,0.0,0.0,-13.0,0.0,2.0,0.0,0.0,0.0,5.669532909726265e-11,5.2003476589934005e-11,4.7073304591573485e-11,4.206808700959486e-11,3.6977185885567164e-11,3.201078776288009e-11,2.721138897000123e-11,2.253589906919214e-11,1.8102952617820387e-11,1.4130238588223405e-11,1.06834503525827e-11,7.799845908694335e-12,5.5192194948062316e-12,3.774513344378599e-12,2.4931072139900048e-12,1.5920330477632677e-12,9.871589974864823e-13,5.934425656440924e-13,3.4661769226819486e-13,1.9710823329119493e-13,1.0991900784686153e-13,6.050438436920596e-14,3.301863673368989e-14,1.7934691441160626e-14,9.696458827158342e-15,5.0046603808565344e-15,3.4732335577681473e-09,1.5890070731833935e-09,8.013275650067213e-10,4.474327467017542e-10,2.7464471171169413e-10,1.8145214088565543e-10,1.259761558197308e-10,8.96170131706948e-11,6.462386673243014e-11,4.635993390629195e-11,3.258046942054508e-11,2.238113125791239e-11,1.4856835159329487e-11,9.495809433932376e-12,5.846890730371475e-12,3.4577386344974113e-12,1.9612218326921495e-12,1.0742106796269441e-12,5.651635849666356e-13
0.0,4,4.0,0.0,30.0,0.0,0.0,0.0,0.0,-13.0,0.0,2.0,0.0,0.0,0.0,5.6741609274445306e-11,5.1998974393115405e-11,4.703033022008704e-11,4.201029203929281e-11,3.6938031713115435e-11,3.20251058636648e-11,2.7304967385427333e-11,2.2720053021760778e-11,1.836774293307986e-11,1.4445963845759012e-11,1.1013932861555194e-11,8.11144292349513e-12,5.788918718534037e-12,3.99071836548727e-12,2.6547076386330706e-12,1.7053899512991282e-12,1.062104986691815e-12,6.4045750887269e-13,3.7453621191724335e-13,2.1301964539687695e-13,1.186258109955255e-13,6.51789070646906e-14,3.543180582613394e-14,1.919514113340464e-14,1.0312982987926533e-14,5.312687033248844e-15,3.4496432160568445e-09,1.576721899537478e-09,7.981739045260761e-10,4.4882668641382606e-10,2.773067199644826e-10,1.8366766476056736e-10,1.2709131505489702e-10,8.965871514886372e-11,6.402926069722491e-11,4.5633247421772423e-11,3.205218874122769e-11,2.2141717686481972e-11,1.484177859222385e-11,9.600928442350944e-12,5.986411081060434e-12,3.5837437857143125e-12,2.056207038034447e-12,1.1375362330819327e-12,6.031430030718556e-13
0.0,5,5.0,0.0,30.0,0.0,0.0,0.0,0.0,-13.0,0.0,2.0,0.0,0.0,0.0,5.696482982597455e-11,5.2150800051846064e-11,4.711311462015497e-11,4.2035648243802664e-11,3.6929210066273774e-11,3.2014490976075625e-11,2.7325293673115782e-11,2.2797158895376435e-11,1.8511753875605924e-11,1.4646197475520124e-11,1.1246773973996699e-11,8.348562635999667e-12,6.006541065072964e-12,4.1736085529345e-12,2.7969034878932395e-12,1.8085008957601035e-12,1.1322659475671906e-12,6.85536386892782e-13,4.018674038247684e-13,2.2885178300099307e-13,1.2740706773283014e-13,6.994782241070625e-14,3.791484683353951e-14,2.0493488864927168e-14,1.0949035588889831e-14,5.6325370401337975e-15,3.425481584242325e-09,1.5645483431354862e-09,7.953313851613014e-10,4.50481803565202e-10,2.802224305466761e-10,1.8631868166364283e-10,1.2889686493289648e-10,9.049415720824139e-11,6.409298338939486e-11,4.5289374740029374e-11,3.164598126792076e-11,2.187144637169903e-11,1.4743006005964928e-11,9.624861583895722e-12,6.066192890526407e-12,3.672455366759589e-12,2.1304277326572155e-12,1.1903413369896254e-12,6.367518907472883e-13
0.0,6,6.0,0.0,30.0,0.0,0.0,0.0,0.0,-13.0,0.0,2.0,0.0,0.0,0.0,5.7352842962636375e-11,5.245724386576443e-11,4.733456183201655e-11,4.217498712923853e-11,3.6999488631375294e-11,3.204061130638025e-11,2.73383617493442e-11,2.28281225423991e-11,1.858377648705865e-11,1.4765399711656256e-11,1.1403610738011296e-11,8.52324621248027e-12,6.177836186748722e-12,4.325201443157517e-12,2.9198141919711736e-12,1.9007689777409647e-12,1.1969598333485957e-12,7.281469296629564e-13,4.2827809577574364e-13,2.4441646125352925e-13,1.3616952058344822e-13,7.476437224825586e-14,4.044941011213785e-14,2.182125637873428e-14,1.1603414411177277e-14,5.962665480632126e-15,3.400773330647513e-09,1.5525189958407111e-09,7.928210504702667e-10,4.5240431149130586e-10,2.833154531464053e-10,1.8916697494361906e-10,1.3104031712055658e-10,9.1810485367077e-11,6.465693053320571e-11,4.532312374073609e-11,3.143326748184911e-11,2.1647090124629236e-11,1.4613516542000563e-11,9.5970115877078e-12,6.1007997925797916e-12,3.730129627241852e-12,2.186068225458679e-12,1.2331136852624446e-12,6.659166349137071e-13
0.0,7,7.0,0.0,30.0,0.0,0.0,0.0,0.0,-13.0,0.0,2.0,0.0,0.0,0.0,5.78849482897501e-11,5.2902363582664343e-11,4.76865171253184e-11,4.2431556855884764e-11,3.716618727172878e-11,3.2134426795987314e-11,2.7384715186874396e-11,2.2856433434732088e-11,1.8623069965096966e-11,1.4834021483759543e-11,1.1505063526796871e-11,8.647819355067637e-12,6.30935464547597e-12,4.44841519909562e-12,3.0243249281250247e-12,1.982135668844208e-12,1.2558132920144535e-12,7.67917828562401e-13,4.5350301080391074e-13,2.5955250173804214e-13,1.4482782911758261e-13,7.958393032932682e-14,4.3016485698703505e-14,2.317001028609688e-14,1.2274348335512356e-14,6.303491768464893e-15,3.3755481152460527e-09,1.5406719551940859e-09,7.906633326443772e-10,4.546055687119402e-10,2.865785111936043e-10,1.9213477098336274e-10,1.3334718508457654e-10,9.339185947604249e-11,6.555618992968554e-11,4.566922991193449e-11,3.1429430576751264e-11,2.1514470236891742e-11,1.4494364129322301e-11,9.543310370565746e-12,6.1039463355838845e-12,3.7630912233834445e-12,2.2256996052251786e-12,1.2667216813615658e-12,6.907142566807129e-13
0.0,8,8.0,0.0,30.0,0.0,0.0,0.0,0.0,-13.0,0.0,2.0,0.0,0.0,0.0,5.853929210285521e-11,5.3466313440107734e-11,4.8152847299934015e-11,4.2795552234664446e-11,3.742876964734081e-11,3.2306396609464294e-11,2.748510175582413e-11,2.2909757414744618e-11,1.8658691858071667e-11,1.48773252237866e-11,1.1569821279689545e-11,8.734267502839084e-12,6.407929689765138e-12,4.546651770775217e-12,3.1118100457868067e-12,2.0529338263031807e-12,1.308704826562446e-12,8.046208751588799e-13,4.773425854792716e-13,2.741276129925263e-13,1.5330659001290948e-13,8.436530074248554e-14,4.559715268491135e-14,2.453149008332092e-14,1.2959567973030371e-14,6.6567291436302595e-15,3.3498400392984684e-09,1.5290488866368576e-09,7.888808026302296e-10,4.570951667505919e-10,2.900170214151679e-10,1.9520490373071179e-10,1.3574541174903825e-10,9.511342179800333e-11,6.6661117733802e-11,4.624538561149299e-11,3.1614343625725286e-11,2.1492265412961956e-11,1.4413534717951432e-11,9.485283174730335e-12,6.088136951823229e-12,3.7774729205424e-12,2.2520255689734928e-12,1.292241777660441e-12,7.113161244537143e-13
0.0,9,9.0,0.0,30.0,0.0,0.0,0.0,0.0,-13.0,0.0,2.0,0.0,0.0,0.0,5.929568024245563e-11,5.4129727450104206e-11,4.871581982982169e-11,4.325240537323941e-11,3.777807075440648e-11,3.255494136839216e-11,2.764658892479275e-11,2.3002989793306792e-11,1.8710073000492728e-11,1.4914798294341213e-11,1.161392415413995e-11,8.793755475510404e-12,6.48035363974278e-12,4.623542481837823e-12,3.183938071256607e-12,2.1137633930984174e-12,1.35570821007004e-12,8.381487722848842e-13,4.996578025568218e-13,2.880380941147387e-13,1.6154126890441876e-13,8.907157893636213e-14,4.817320119794702e-14,2.589774341918119e-14,1.3656420470148267e-14,7.023664786088183e-15,3.323687943900936e-09,1.5176938956964092e-09,7.874978803702418e-10,4.598826991221163e-10,2.9363661732761665e-10,1.983780229589803e-10,1.382114516377737e-10,9.691285926733087e-11,6.788550638379946e-11,4.697731409763671e-11,3.1951557832905566e-11,2.1579233595997126e-11,1.4386504489464957e-11,9.439261597980823e-12,6.064288828232451e-12,3.779066261678248e-12,2.267747429979158e-12,1.310837494478943e-12,7.279713171857066e-13
0.0,10,10.0,0.0,30.0,0.0,0.0,0.0,0.0,-13.0,0.0,2.0,0.0,0.0,0.0,6.013662730953459e-11,5.487544915878554e-11,4.93589354298829e-11,4.378704316368987e-11,3.820184823311078e-11,3.28724777660416e-11,2.786787428481376e-11,2.3141787607137617e-11,1.878850702414229e-11,1.4960229802647695e-11,1.1650313015713517e-11,8.836217004786226e-12,6.533125439094286e-12,4.682784107959868e-12,3.2425446383106777e-12,2.165397722697397e-12,1.3970415335856494e-12,8.684916162420776e-13,5.203634474540229e-13,3.0120715316975e-13,1.6947837085058808e-13,9.36706106009952e-14,5.0727598431388497e-14,2.7261248593889926e-14,1.4362003519937652e-14,7.403702204443125e-15,3.2971357150058842e-09,1.506653250641682e-09,7.865399766587143e-10,4.6297855779896915e-10,2.9744229006561985e-10,2.0165823577910852e-10,1.4074103437844646e-10,9.876369204937502e-11,6.917896669568945e-11,4.7808633882810874e-11,3.2402002338284996e-11,2.1762231655732648e-11,1.4418371003069894e-11,9.416142412206565e-12,6.04136092105281e-12,3.773168615159271e-12,2.275485360934745e-12,1.323686520313444e-12,7.410056347468804e-13
0.0,11,11.0,0.0,30.0,0.0,0.0,0.0,0.0,-13.0,0.0,2.0,0.0,0.0,0.0,6.10476851783362e-11,5.568911756129866e-11,5.006803481459918e-11,4.4385843521467323e-11,3.868778324382298e-11,3.324925024629536e-11,2.8143278618363547e-11,2.3325836287077677e-11,1.889907002746184e-11,1.5022340937990797e-11,1.168871013366603e-11,8.870047351148523e-12,6.57222702042541e-12,4.728011539629717e-12,3.289548476675444e-12,2.208718867898242e-12,1.4330254160085593e-12,8.957145446058081e-13,5.394205129879678e-13,3.135823848703665e-13,1.7707514952022246e-13,9.813513114859645e-14,5.324479939687152e-14,2.8615014786085425e-14,1.507327909567176e-14,7.793908885971952e-15,3.270232481306111e-09,1.4959753765993062e-09,7.86032988778916e-10,4.663937669161541e-10,3.014391103795411e-10,2.0504968775761135e-10,1.4333612070011846e-10,1.0065724521681607e-10,7.051545543366038e-11,4.870143655858967e-11,3.2931607026603815e-11,2.2023025639335085e-11,1.4506813120268102e-11,9.421799148126237e-12,6.0261157790837755e-12,3.7644160171183735e-12,2.277713741909471e-12,1.3319404036132246e-12,7.508178499170495e-13
0.0,12,12.0,0.0,30.0,0.0,0.0,0.0,0.0,-13.0,0.0,2.0,0.0,0.0,0.0,6.201740622583208e-11,5.655922877024034e-11,5.08315880969055e-11,4.503737270511571e-11,3.9224904965502377e-11,3.367551039134046e-11,2.8465424682178418e-11,2.355146472348744e-11,1.904254420960767e-11,1.5105747530154786e-11,1.1735811717292718e-11,8.901943357665486e-12,6.602936383294411e-12,4.762682878366189e-12,3.326888052903534e-12,2.244674111026191e-12,1.4640513126316285e-12,9.199384052463738e-13,5.568283317998032e-13,3.251327688044855e-13,1.842990397101604e-13,1.0244268177086084e-13,5.5710925828991686e-14,2.995265788549112e-14,1.578714306726658e-14,8.189541947038573e-15,3.243032764263066e-09,1.4857108464179956e-09,7.860031042817604e-10,4.701396418451292e-10,3.056325548295172e-10,2.0855632053148903e-10,1.460001074134393e-10,1.0259255739632684e-10,7.188342857127734e-11,4.963273934690549e-11,3.3514208626138586e-11,2.2343024946083672e-11,1.464508340758496e-11,9.457988427533105e-12,6.023096447900133e-12,3.756639188529342e-12,2.2766958522007227e-12,1.3367003728772425e-12,7.578661086809655e-13
0.0,13,13.0,0.0,30.0,0.0,0.0,0.0,0.0,-13.0,0.0,2.0,0.0,0.0,0.0,6.30370888710001e-11,5.7476931944817706e-11,5.164059401986004e-11,4.573250742736988e-11,3.980411689305809e-11,3.414259584274373e-11,2.8826847744043883e-11,2.3813515245677114e-11,1.9217074707358567e-11,1.5212026130759352e-11,1.1795705865398386e-11,8.936902639994366e-12,6.6296990888974225e-12,4.789975461796358e-12,3.356465654013749e-12,2.2742447849786066e-12,1.4905585651296163e-12,9.41324350541791e-13,5.726170156287781e-13,3.358454672680759e-13,1.9112690015035037e-13,1.0657538198144285e-13,5.811384609557208e-14,3.126845173781144e-14,1.6500454932756966e-14,8.585096325450332e-15,3.2155966240292644e-09,1.4759123166633035e-09,7.864767252022781e-10,4.742275646617295e-10,3.100284830485967e-10,2.1218214547014889e-10,1.4873648743290938e-10,1.0457150596231563e-10,7.327907508084032e-11,5.059002970285361e-11,3.4131573011266316e-11,2.2705962765206655e-11,1.482450035017763e-11,9.523486422046145e-12,6.0348178289107596e-12,3.752780635507165e-12,2.2744215720854812e-12,1.3389983380035917e-12,7.626456402252354e-13
0.0,14,14.0,0.0,30.0,0.0,0.0,0.0,0.0,-13.0,0.0,2.0,0.0,0.0,0.0,6.410040098080381e-11,5.843568949880632e-11,5.2488295691925457e-11,4.646426221444411e-11,4.041824727544996e-11,3.464334027149556e-11,2.9220841583740826e-11,2.4106547417285915e-11,1.9419444234053457e-11,1.534071125690752e-11,1.1870406464661955e-11,8.978358294388588e-12,6.656071694075174e-12,4.812701326242594e-12,3.3800948566816754e-12,2.298420549005908e-12,1.513017654520193e-12,9.600623012711884e-13,5.868406893567353e-13,3.457226657095123e-13,1.9754411067707312e-13,1.1051961292588925e-13,6.044318679486162e-14,3.25573543790741e-14,1.7210050697639924e-14,8.975379930553666e-15,3.1879898137440528e-09,1.4666344268125724e-09,7.87480410132244e-10,4.78668883274963e-10,3.146330161868022e-10,2.159314012143414e-10,1.5154867054463932e-10,1.0659677634594151e-10,7.470228215621485e-11,5.1567418256183844e-11,3.477205660551786e-11,2.3098990766919737e-11,1.5036222469905445e-11,9.615213865151614e-12,6.062112717204137e-12,3.754889765433227e-12,2.2725582682000252e-12,1.3397786215824724e-12,7.656625056503769e-13
0.0,15,15.0,0.0,30.0,0.0,0.0,0.0,0.0,-13.0,0.0,2.0,0.0,0.0,0.0,6.520295690687841e-11,5.943088355335381e-11,5.33698229397624e-11,4.72274912693437e-11,4.106187037698082e-11,3.517211121274463e-11,2.9641808814629475e-11,2.4425524938811468e-11,1.964596115289574e-11,1.549012548150456e-11,1.1960405629346437e-11,9.0284052370843e-12,6.684735966432106e-12,4.833250764378125e-12,3.399453081125291e-12,2.3181755195456235e-12,1.5319170869323842e-12,9.763625613864727e-13,5.995718056230028e-13,3.5477865688550893e-13,2.0354356623961907e-13,1.1426564508703301e-13,6.269029884777371e-14,3.3815009275024166e-14,1.7912764057769143e-14,9.356292027957656e-15,3.1602839380989515e-09,1.4579336819968159e-09,7.890408054298258e-10,4.834748783960879e-10,3.1945243835348167e-10,2.198085718223532e-10,1.544400659125765e-10,1.0867116452081737e-10,7.615448992403698e-11,5.2562849034276905e-11,3.542889523411594e-11,2.3512756399984852e-11,1.5272319226983294e-11,9.729190741859895e-12,6.104551869775227e-12,3.764190698174777e-12,2.2724233140824187e-12,1.339880508826545e-12,7.674082879622528e-13
0.0,16,16.0,0.0,30.0,0.0,0.0,0.0,0.0,-13.0,0.0,2.0,0.0,0.0,0.0,6.634190432717524e-11,6.045942431680477e-11,5.428182533628161e-11,4.801855560171197e-11,4.1731036812295024e-11,3.572466355786976e-11,3.0085318931493085e-11,2.4766141479303163e-11,1.9893017440350884e-11,1.565800767001261e-11,1.2065176205510625e-11,9.088070518578196e-12,6.71757080674816e-12,4.8535679647155434e-12,3.4160429555126314e-12,2.334445430736779e-12,1.5477520228260148e-12,9.904496003195289e-13,6.10896593191778e-13,3.630373055278773e-13,2.0912462250147e-13,1.178072327437449e-13,6.484819258364258e-14,3.5037723338027846e-14,1.860547109646353e-14,9.725190823383528e-15,3.1325566079879396e-09,1.4498683284739575e-09,7.911845676472618e-10,4.88656757625031e-10,3.244931461788515e-10,2.2381834541092136e-10,1.574141556278732e-10,1.107974113980955e-10,7.763767148960578e-11,5.357629658568992e-11,3.609863700356911e-11,2.3940946233942824e-11,1.5526276539530295e-11,9.861249992673702e-12,6.160865394367151e-12,3.781203190731277e-12,2.2749815718502733e-12,1.340023731587468e-12,7.683391587476495e-13
0.0,17,17.0,0.0,30.0,0.0,0.0,0.0,0.0,-13.0,0.0,2.0,0.0,0.0,0.0,6.751555602629158e-11,6.151939532903964e-11,5.522213326277561e-11,4.883500397656628e-11,4.242298748791945e-11,3.6297919878648276e-11,3.0548013076341536e-11,2.5124917100638552e-11,2.015739511447832e-11,1.5841947546481806e-11,1.21835870229563e-11,9.157587280064009e-12,6.7557628171099235e-12,4.8751572629089455e-12,3.43116565788612e-12,2.3481066621958648e-12,1.5610136527436205e-12,1.002557082852582e-12,6.209115078098548e-13,3.705299538330272e-13,2.1429205450175245e-13,1.2114119344018328e-13,6.691145033381901e-14,3.622242581615262e-14,1.9285160111359846e-14,1.0080890269322576e-14,3.1048915847326593e-09,1.4424982237668683e-09,7.939382857207626e-10,4.942256591901369e-10,3.29761635845734e-10,2.2796556805757902e-10,1.6047451817459614e-10,1.129782049735003e-10,7.915390817811164e-11,5.460870358384779e-11,3.6779916098587985e-11,2.437963257311982e-11,1.5793110858338303e-11,1.0007506499485033e-11,6.229314611968219e-12,3.805892123335325e-12,2.2808660541859223e-12,1.3407991316554637e-12,7.688609487613182e-13
0.0,18,18.0,0.0,30.0,0.0,0.0,0.0,0.0,-13.0,0.0,2.0,0.0,0.0,0.0,6.872308322252345e-11,6.26097533314404e-11,5.6189466273752856e-11,4.9675291925634815e-11,4.313588887748031e-11,3.688973905457755e-11,3.102744306505502e-11,2.549916357553997e-11,2.043639816464978e-11,1.603965751696786e-11,1.2314218966858477e-11,9.23664417971571e-12,6.7999359078994386e-12,4.8991144609928336e-12,3.4459076527185077e-12,2.3599585471223064e-12,1.5721790833060492e-12,1.012923474652671e-12,6.297204544184203e-13,3.7729375768760153e-13,2.1905508418666843e-13,1.2426698966639634e-13,6.887612188787737e-14,3.736661401021852e-14,1.9949017428575022e-14,1.0423402499819397e-14,3.0773789091791513e-09,1.4358847006827394e-09,7.97328409639475e-10,5.001926615781173e-10,3.3526451250170366e-10,2.3225521402867548e-10,1.636248210076322e-10,1.1521621164239818e-10,8.070524516468858e-11,5.5661406470355106e-11,3.747258667983379e-11,2.4826622253498812e-11,1.60692503588382e-11,1.016461692296624e-11,6.3079876532262616e-12,3.8378228885720054e-12,2.2904165237383337e-12,1.3426658657419004e-12,7.693203855588742e-13
0.0,19,19.0,0.0,30.0,0.0,0.0,0.0,0.0,-13.0,0.0,2.0,0.0,0.0,0.0,6.996427349514649e-11,6.37300876963826e-11,5.718319543449594e-11,5.0538548326662486e-11,4.3868606197704266e-11,3.7498704108759123e-11,3.15218955379396e-11,2.5886885517759735e-11,2.072787415293848e-11,1.6249120417624707e-11,1.245558696390079e-11,9.324594525255122e-12,6.850283341887363e-12,4.926175627087179e-12,3.4611403497409347e-12,2.3707101941765986e-12,1.581701978533024e-12,1.0217878494584318e-12,6.374325310175234e-13,3.8337039287279454e-13,2.2342651682885457e-13,1.2718632877301022e-13,7.07396071040704e-14,3.8468292549657375e-14,2.0594514907247024e-14,1.0753556507626035e-14,3.0501150111278464e-09,1.430090423671218e-09,8.013811892069916e-10,5.065688003508418e-10,3.4100851182298993e-10,2.3669237470287287e-10,1.6686880437716109e-10,1.175140976558832e-10,8.229366208145311e-11,5.6735852879517195e-11,3.817715789039468e-11,2.5280903088716365e-11,1.6352304541912068e-11,1.032988192602527e-11,6.395011905621662e-12,3.876305554064833e-12,2.303729290473112e-12,1.3459553444829163e-12,7.700017510689599e-13
0.0,20,20.0,0.0,30.0,0.0,0.0,0.0,0.0,-13.0,0.0,2.0,0.0,0.0,0.0,7.12393480629884e-11,6.488043607568893e-11,5.820315812576791e-11,5.142439014887326e-11,4.4620519046318986e-11,3.812394218301804e-11,3.2030227918235065e-11,2.628665921328744e-11,2.1030173521746224e-11,1.646865036803841e-11,1.2606282215564718e-11,9.420619516286402e-12,6.906690214019127e-12,4.9567755422981315e-12,3.477530761075232e-12,2.3809725004906937e-12,1.5900043999262361e-12,1.0293857818888138e-12,6.441600825210703e-13,3.888050444460045e-13,2.274220062217904e-13,1.299027944609394e-13,7.250052995036163e-14,3.9525912551489946e-14,2.1219485032170285e-14,1.107260157479134e-14,3.0232027938963196e-09,1.4251792359021362e-09,8.061226242624194e-10,5.13365094018599e-10,3.470005284706379e-10,2.4128226189245235e-10,1.7021026889258878e-10,1.1987453787556907e-10,8.392108161583377e-11,5.783347905082885e-11,3.8894450512791626e-11,2.5742217656800858e-11,1.664080321133803e-11,1.0501242677437779e-11,6.4886897656353095e-12,3.920517200488984e-12,2.3207115698465705e-12,1.3508810892918005e-12,7.711277993371814e-13
0.0,21,21.0,0.0,30.0,0.0,0.0,0.0,0.0,-13.0,0.0,2.0,0.0,0.0,0.0,7.25488291461312e-11,6.606114854732129e-11,5.924951921566663e-11,5.2332780965744446e-11,4.539137754713526e-11,3.87649795384811e-11,3.2551727939428474e-11,2.6697513027041495e-11,2.1342079592425584e-11,1.6696897878332634e-11,1.2765052377493959e-11,9.523847078606882e-12,6.968839111407024e-12,4.991108934378088e-12,3.4955604124911958e-12,2.3912553966181523e-12,1.5974702737043373e-12,1.0359453868175184e-12,6.500169183428779e-13,3.9364558864322674e-13,2.3105944958330854e-13,1.3242151905674698e-13,7.415860844400221e-14,4.053831568555601e-14,2.1822173236021978e-14,1.1381867768428789e-14,2.996751688287594e-09,1.4212159957895419e-09,8.115784266540737e-10,5.205925799368388e-10,3.5324764911517076e-10,2.4603022047895213e-10,1.736530710905484e-10,1.223002179401176e-10,8.558938533284802e-11,5.895566748506711e-11,3.9625402907745863e-11,2.621075846639373e-11,1.6933951782181725e-11,1.0677215559172156e-11,6.587571262759836e-12,3.969597721266148e-12,2.3411348721913067e-12,1.3575530434078244e-12,7.728637066516951e-13
0.0,22,22.0,0.0,30.0,0.0,0.0,0.0,0.0,-13.0,0.0,2.0,0.0,0.0,0.0,7.389344706639012e-11,6.727279099021901e-11,6.032267055688551e-11,5.326392650985915e-11,4.618119388555642e-11,3.9421629275686834e-11,3.308599990002386e-11,2.7118821282114876e-11,2.1662730090575238e-11,1.6932822925059512e-11,1.2930836987571552e-11,9.63343191520698e-12,7.036295747109939e-12,5.0291892289410744e-12,3.5155495330776316e-12,2.401969826767083e-12,1.6044407740016282e-12,1.0416836572598134e-12,6.551166164048508e-13,3.979418885652441e-13,2.3435849882276847e-13,1.347489009842626e-13,7.571452488140389e-14,4.150468640949461e-14,2.2401262300964046e-14,1.1682519883119809e-14,2.9708776700800282e-09,1.4182664023353193e-09,8.177739940573563e-10,5.282623602473536e-10,3.5975718897734875e-10,2.509417464471176e-10,1.7720112680201184e-10,1.2479383542766813e-10,8.730042726504837e-11,6.010374072665015e-11,4.037097047210636e-11,2.668696318355127e-11,1.7231425168438475e-11,1.0856798029634752e-11,6.6904794559661214e-12,4.022718839812865e-12,2.3646834474729224e-12,1.3659946122031376e-12,7.753229512960237e-13
0.0,23,23.0,0.0,30.0,0.0,0.0,0.0,0.0,-13.0,0.0,2.0,0.0,0.0,0.0,7.527407739339415e-11,6.851607863987618e-11,6.142316057215275e-11,5.421819995948508e-11,4.699016298936248e-11,4.009390716379345e-11,3.363287627038978e-11,2.7550216111637042e-11,2.1991542125264446e-11,1.71756526665244e-11,1.310277304672397e-11,9.748604219468643e-12,7.1085743676818285e-12,5.0709012876018455e-12,3.537683753584793e-12,2.413433607631394e-12,1.6112117242435261e-12,1.0468032731311696e-12,6.595708938221922e-13,4.017451452921558e-13,2.373401664995147e-13,1.368923672775768e-13,7.71698002646766e-14,4.242451383479356e-14,2.2955868709887595e-14,1.1975412713796959e-14,2.9457032352150172e-09,1.4163968094362339e-09,8.247343959710656e-10,5.363856573050402e-10,3.665367312134449e-10,2.5602250776674875e-10,1.808584204344045e-10,1.273581030290508e-10,8.905604414907712e-11,6.127896897563324e-11,4.113207988601641e-11,2.717138510254687e-11,1.753320663195651e-11,1.1039367862969294e-11,6.796503743252728e-12,4.079128998981827e-12,2.3909953962307532e-12,1.3761607607078525e-12,7.785742264811936e-13
0.0,24,24.0,0.0,30.0,0.0,0.0,0.0,0.0,-13.0,0.0,2.0,0.0,0.0,0.0,7.669169991537986e-11,6.979183192592601e-11,6.255164648578385e-11,5.519609009147335e-11,4.781860615913584e-11,4.07819703165773e-11,3.419235122574929e-11,2.7991517581881247e-11,2.2328146507307874e-11,1.7424834630998954e-11,1.3280182502828433e-11,9.868694720365503e-12,7.185184680614301e-12,5.116046184915626e-12,3.5620410128641293e-12,2.4258801354265808e-12,1.6180329396063831e-12,1.051490025988135e-12,6.634880640926065e-13,4.0510726866374685e-13,2.4002650204097485e-13,1.3886017732753423e-13,7.852667600501337e-14,4.329756313846738e-14,2.3485514674863783e-14,1.2261036650345066e-14,2.9213573270232336e-09,1.415674030085438e-09,8.324843725950365e-10,5.449738777813607e-10,3.7359416850808083e-10,2.6127836659382324e-10,1.8462901808562718e-10,1.2999575463186997e-10,9.085806356881975e-11,6.248258141308446e-11,4.190961327411901e-11,2.7664616428582994e-11,1.783946905347739e-11,1.122458907242604e-11,6.9049738259242625e-12,4.138178296373602e-12,2.4196954277355797e-12,1.3879557547889162e-12,7.82648709372877e-13
0.0,25,25.0,0.0,30.0,0.0,0.0,0.0,0.0,-13.0,0.0,2.0,0.0,0.0,0.0,7.814737292054036e-11,7.110094818548341e-11,6.370886299479358e-11,5.619816639381896e-11,4.866693211750393e-11,4.148607368582501e-11,3.4764532059128043e-11,2.8442680267453994e-11,2.2672333490891592e-11,1.767999179586206e-11,1.3462550247376251e-11,9.993143004816027e-12,7.265663092460665e-12,5.164377347965247e-12,3.5886169527160665e-12,2.4394688936191983e-12,1.6251092921119095e-12,1.0559109523015447e-12,6.66971621631844e-13,4.0808025241853223e-13,2.424403152955925e-13,1.4066126165239322e-13,7.978800497799303e-14,4.412385530349916e-14,2.3990081904165345e-14,1.253953261820234e-14,2.897975210117139e-09,1.416165132199426e-09,8.410483476355939e-10,5.540386845801291e-10,3.809377462010968e-10,2.6671540190466935e-10,1.8851708279398138e-10,1.3270955401873514e-10,9.270831134530354e-11,6.371577732156398e-11,4.270440735114131e-11,2.816724651720005e-11,1.8150491968954312e-11,1.1412331214736639e-11,7.015424088358965e-12,4.199328114520401e-12,2.4504192883641282e-12,1.4012494905344487e-12,7.875472067659785e-13
0.0,26,26.0,0.0,30.0,0.0,0.0,0.0,0.0,-13.0,0.0,2.0,0.0,0.0,0.0,7.964221788617684e-11,7.244438433264104e-11,6.489560249541493e-11,5.722505635955875e-11,4.9535610865235784e-11,4.2206539991565926e-11,3.5349604568710824e-11,2.8903753614609538e-11,2.3024009832202903e-11,1.794088287535896e-11,1.3649498505559393e-11,1.0121494884265695e-11,7.349591416809311e-12,5.215628298545204e-12,3.617347663293899e-12,2.4542968082578773e-12,1.6326031882890248e-12,1.0602132077254424e-12,6.701189999151766e-13,4.1071555430133247e-13,2.4460492867531594e-13,1.423050883619706e-13,8.0957152993177e-14,4.490365329458285e-14,2.446975405401854e-14,1.2810752381808108e-14,2.8756982860532714e-09,1.417937228653742e-09,8.504504563634398e-10,5.635920757350872e-10,3.8857610627395113e-10,2.7233993205145715e-10,1.9252689073652563e-10,1.3550230540974707e-10,9.460861896841764e-11,6.49797359057723e-11,4.3517259167046556e-11,2.8679841995881433e-11,1.846660656523757e-11,1.160260432661451e-11,7.127555253528098e-12,4.262149879450137e-12,2.4828305811507956e-12,1.4158917309299766e-12,7.932468603348154e-13
0.0,27,27.0,0.0,30.0,0.0,0.0,0.0,0.0,-13.0,0.0,2.0,0.0,0.0,0.0,8.11774110375905e-11,7.382314686801525e-11,6.611270319345782e-11,5.827743127607105e-11,5.042515668667927e-11,4.294373949676725e-11,3.594780900792604e-11,2.937485330512728e-11,2.3383165946593726e-11,1.8207369107447515e-11,1.3840761333281175e-11,1.0253393276838134e-11,7.436606127547532e-12,5.269532820984962e-12,3.648129155185852e-12,2.4704096581629385e-12,1.6406381065636605e-12,1.064523659270893e-12,6.730205437344546e-13,4.13063492317597e-13,2.4654394452809275e-13,1.4380154995968218e-13,8.20379108506911e-14,4.5637452510156454e-14,2.4924954556666817e-14,1.3074341902189298e-14,2.8546738465763156e-09,1.4210572650310486e-09,8.607145904552152e-10,5.736464695209585e-10,3.965183315797816e-10,2.7815853694842056e-10,1.9666284763010648e-10,1.383768650306075e-10,9.65608313421783e-11,6.627562480854024e-11,4.434893407823602e-11,2.920293978721591e-11,1.8788161293521637e-11,1.1795509054652824e-11,7.241197700099014e-12,4.326316777398278e-12,2.5166310919351088e-12,1.431723905410094e-12,7.997072197261792e-13
0.0,28,28.0,0.0,30.0,0.0,0.0,0.0,0.0,-13.0,0.0,2.0,0.0,0.0,0.0,8.275417931497314e-11,7.523828666770773e-11,6.736104244235885e-11,5.935599777594317e-11,5.1336117518125426e-11,4.369807680833688e-11,3.6559423797724844e-11,2.9856141076336857e-11,2.3749851508523964e-11,1.8479387607253766e-11,1.4036161331537232e-11,1.0388565863453547e-11,7.526400886117913e-12,5.325838686397937e-12,3.6808333465697564e-12,2.487812935102144e-12,1.649302839593372e-12,1.0689491280579665e-12,6.757587236903389e-13,4.151726738035949e-13,2.482810198343867e-13,1.451608639063611e-13,8.303441647056572e-14,4.632597340980376e-14,2.535628551177858e-14,1.3329829730400251e-14,2.835054761213067e-09,1.4255918095562788e-09,8.718644612758735e-10,5.842147950651074e-10,4.04773989807888e-10,2.841780797435255e-10,2.0092950491668832e-10,1.4133615303278804e-10,9.856681478697489e-11,6.76046076115916e-11,4.5200173872059735e-11,2.973704719597334e-11,1.911550194047757e-11,1.199120013343103e-11,7.356278904318264e-12,4.391591494580821e-12,2.5515658941965738e-12,1.4485883981384776e-12,8.068755839263409e-13
0.0,29,29.0,0.0,30.0,0.0,0.0,0.0,0.0,-13.0,0.0,2.0,0.0,0.0,0.0,8.437379909191175e-11,7.669089679828179e-11,6.864153345138288e-11,6.046149318975804e-11,5.226906862753064e-11,4.446998257097468e-11,3.718475480184973e-11,3.0347810847931743e-11,2.4124157791483955e-11,1.8756930694288735e-11,1.4235589577175637e-11,1.052681174598559e-11,7.618724604006293e-12,5.38431616558257e-12,3.715320655954104e-12,2.5064817361788983e-12,1.6586561147244996e-12,1.0735771850625943e-12,6.784076058687406e-13,4.1708947528225276e-13,2.498396450925201e-13,1.4639348163785134e-13,8.395108612265003e-14,4.6970154494285474e-14,2.576447193810894e-14,1.3576707705830085e-14,2.8169990971973105e-09,1.43160685067659e-09,8.839236832862695e-10,5.953105877756354e-10,4.133531768062615e-10,2.9040572794020347e-10,2.053315755372609e-10,1.4438316529262851e-10,1.0062846509814082e-10,6.89678505964908e-11,4.60717042022716e-11,3.028264546114275e-11,1.9448961362275397e-11,1.218986081703802e-11,7.472796090959486e-12,4.457812270586449e-12,2.587424493692491e-12,1.466335446679216e-12,8.146915762844662e-13
0.0,30,30.0,0.0,30.0,0.0,0.0,0.0,0.0,-13.0,0.0,2.0,0.0,0.0,0.0,8.603759656670152e-11,7.81821121946675e-11,6.995512410512108e-11,6.159468333906883e-11,5.322460914033946e-11,4.5259908487149603e-11,3.782412849683667e-11,3.085007943159809e-11,2.4506205199864625e-11,1.9040030308929338e-11,1.4438989049209936e-11,1.0667988520478607e-11,7.713376810305316e-12,5.4447625240138195e-12,3.751449490639827e-12,2.5263694387443554e-12,1.6687313125474198e-12,1.0784773858271633e-12,6.81032574579748e-13,4.18857589317236e-13,2.512429279490636e-13,1.4751000220337915e-13,8.47925535447499e-14,4.7571144217366977e-14,2.615031420033284e-14,1.3814496392007428e-14,2.8006696711972153e-09,1.4391676086991307e-09,8.96915879173609e-10,6.069480888964124e-10,4.222665590247525e-10,2.968489740240206e-10,2.09873949241071e-10,1.4752098480327346e-10,1.0274771543912555e-10,7.036652894607987e-11,4.696424109754069e-11,3.084019467679836e-11,1.9788855356198908e-11,1.2391685839269226e-11,7.590794265943175e-12,4.524878860450581e-12,2.624039158043735e-12,1.4848278987139367e-12,8.230909625375364e-13
0.0,31,31.0,0.0,30.0,0.0,0.0,0.0,0.0,-13.0,0.0,2.0,0.0,0.0,0.0,8.774694914697032e-11,7.971311045356641e-11,7.130279706687052e-11,6.275636185090305e-11,5.420336039413173e-11,4.6068324543692476e-11,3.847788780736219e-11,3.1363180492891507e-11,2.48961346840716e-11,1.9328746566963808e-11,1.4646341401241007e-11,1.0812000571261132e-11,7.810201637662729e-12,5.507003569106926e-12,3.789083034394462e-12,2.5474150474907686e-12,1.67954105953011e-12,1.083702825613982e-12,6.836902929433569e-13,4.2051765088984294e-13,2.525133846192241e-13,1.4852108815290713e-13,8.556361567966589e-14,4.8130290854432226e-14,2.6514650052009894e-14,1.404279205635455e-14,2.7862335341183458e-09,1.4483383687918311e-09,9.108648080929594e-10,6.191423484629225e-10,4.315254149744897e-10,3.0351565572395543e-10,2.1456170746296075e-10,1.5075279252103934e-10,1.0492654389066035e-10,7.180183248003788e-11,4.787849656800657e-11,3.1410138943057236e-11,2.0135482199910575e-11,1.2596870725032676e-11,7.71034925745959e-12,4.592739425174537e-12,2.6612814053876258e-12,1.5039441420633712e-12,8.320087497077758e-13
0.0,32,32.0,0.0,30.0,0.0,0.0,0.0,0.0,-13.0,0.0,2.0,0.0,0.0,0.0,8.950328741500359e-11,8.128511327784179e-11,7.268557063887239e-11,6.394735039209579e-11,5.520596543500921e-11,4.689571766531689e-11,3.9146389723860905e-11,3.188736076964347e-11,2.5294101986160257e-11,1.9623159559206377e-11,1.4857656705784163e-11,1.0958788964643836e-11,7.909081348462888e-12,5.570893155081215e-12,3.828093784300102e-12,2.569549210692706e-12,1.691081528414524e-12,1.089291901305227e-12,6.864288759962818e-13,4.221069511840048e-13,2.5367274349582815e-13,1.4943738259758884e-13,8.626918384063815e-14,4.8649129783648326e-14,2.6858326589436462e-14,1.4261295284161744e-14,2.7738613924061993e-09,1.4591823434466546e-09,9.257945180765367e-10,6.319093308777765e-10,4.411416757214942e-10,3.10413976096813e-10,2.1940013784919128e-10,1.5408187763243178e-10,1.0716698054348208e-10,7.327497096418674e-11,4.881518342573826e-11,3.199291118788292e-11,2.0489124203791063e-11,1.2805605639743143e-11,7.831555112286348e-12,4.6613789252440226e-12,2.6990574363651936e-12,1.5235795462771705e-12,8.413816213507752e-13
0.0,33,33.0,0.0,30.0,0.0,0.0,0.0,0.0,-13.0,0.0,2.0,0.0,0.0,0.0,9.130809743373104e-11,8.28993882938455e-11,7.410450005499554e-11,6.51684994414081e-11,5.6233089204443636e-11,4.7742591265506964e-11,3.9830004082982276e-11,3.2422877821122984e-11,2.5700273900322464e-11,1.9923363620711837e-11,1.5072965705800067e-11,1.1108323038468135e-11,8.009930007283673e-12,5.636311374586433e-12,3.868366285303386e-12,2.5926989788871635e-12,1.7033363342003046e-12,1.0952701776851974e-12,6.892882442072807e-13,4.236592418408267e-13,2.547417657421103e-13,1.5026942741216633e-13,8.691423928294882e-14,4.912936801404592e-14,2.7182181542028056e-14,1.4469823472213142e-14,2.763726971801265e-09,1.471761573161929e-09,9.41729523220653e-10,6.452660222680266e-10,4.511279645450256e-10,3.175525236661124e-10,2.24394748534235e-10,1.5751164727564117e-10,1.0947111408758333e-10,7.478717900943192e-11,4.97750194482697e-11,3.2588937432216605e-11,2.08500502178864e-11,1.3018072347687925e-11,7.954515093124264e-12,4.7308092677764495e-12,2.7373031089308468e-12,1.543646745781448e-12,8.511497747309978e-13
0.0,34,34.0,0.0,30.0,0.0,0.0,0.0,0.0,-13.0,0.0,2.0,0.0,0.0,0.0,9.31629232611645e-11,8.455725108265275e-11,7.556067901399209e-11,6.642068936514426e-11,5.7285419128904494e-11,4.8609465344184465e-11,4.052911308627665e-11,3.2969998791319834e-11,2.6114825935121735e-11,2.0229463430671425e-11,1.5292314100610716e-11,1.1260593610982949e-11,8.112687663866065e-12,5.7031619982873904e-12,3.909798478307423e-12,2.6167914282785827e-12,1.716279960871294e-12,1.1016522709862175e-12,6.92300621692034e-13,4.2520462827711186e-13,2.5574008733098124e-13,1.5102758330760085e-13,8.75037923732489e-14,4.9572866099845234e-14,2.7487032736694344e-14,1.4668310599097326e-14,2.756006332420205e-09,1.486136874573467e-09,9.586950057091955e-10,6.592305387460999e-10,4.61497635996535e-10,3.2494029287396146e-10,2.2955128227662608e-10,1.6104563578984555e-10,1.1184109790459989e-10,7.63397205726931e-11,5.0758730998843704e-11,3.319864044823924e-11,2.1218518451145498e-11,1.3234443202290665e-11,8.07933553332944e-12,4.801061237173449e-12,2.775978889773644e-12,1.5640750664475025e-12,8.612582305083932e-13
0.0,35,35.0,0.0,30.0,0.0,0.0,0.0,0.0,-13.0,0.0,2.0,0.0,0.0,0.0,9.506936960598147e-11,8.62600673396691e-11,7.705524134552728e-11,6.770483165849775e-11,5.836366593497637e-11,4.949687690631426e-11,4.1244111272759213e-11,3.352899982673439e-11,2.653794092851191e-11,2.0541571436845533e-11,1.5515758431100446e-11,1.1415607638449355e-11,8.217315234670396e-12,5.77136957488554e-12,3.952302027132019e-12,2.6417562977037035e-12,1.7298806929452893e-12,1.108443679571863e-12,6.954911425968731e-13,4.2676954688914916e-13,2.5668608616433995e-13,1.5172195298152594e-13,8.804284477423324e-14,4.998161780621282e-14,2.7773674237497133e-14,1.485679802722723e-14,2.7508771473357677e-09,1.5023678454952372e-09,9.767170420927154e-10,6.738222346899387e-10,4.722648146954781e-10,3.325867051169614e-10,2.3487573055746273e-10,1.6468751358573986e-10,1.1427915570859873e-10,7.793389307892565e-11,5.176705619523508e-11,3.382244284643301e-11,2.1594779239109716e-11,1.3454881387878657e-11,8.206121877806745e-12,4.872178100370657e-12,2.8150650762015106e-12,1.5848093584282111e-12,8.7165768704796e-13
0.0,36,36.0,0.0,30.0,0.0,0.0,0.0,0.0,-13.0,0.0,2.0,0.0,0.0,0.0,9.702910459436906e-11,8.800925512086616e-11,7.858936275283331e-11,6.902187027603118e-11,5.946856458512185e-11,5.0405380560371166e-11,4.197540575958035e-11,3.410016590385188e-11,2.696980829456048e-11,2.085980621603223e-11,1.5743363188310993e-11,1.157338411032549e-11,8.323790149352132e-12,5.840876479523849e-12,3.995801931434702e-12,2.667527797267801e-12,1.7441030560744733e-12,1.1156425086997092e-12,6.988785305131093e-13,4.283768180537215e-13,2.5759677679298263e-13,1.5236230878320744e-13,8.853635427434816e-14,5.035772803984921e-14,2.8042877534596882e-14,1.5035419889988622e-14,2.748517960462045e-09,1.520512936257216e-09,9.958228525355758e-10,6.890618102001904e-10,4.83444434293621e-10,3.4050163063640643e-10,2.403743477350219e-10,1.684410957382823e-10,1.1678758680510064e-10,7.957103119332733e-11,5.2800747699941144e-11,3.446076966182399e-11,2.1979077574820427e-11,1.36795418685758e-11,8.334976339155094e-12,4.944210700475838e-12,2.854557469909395e-12,1.6058084547672462e-12,8.823049905380753e-13
0.0,37,37.0,0.0,30.0,0.0,0.0,0.0,0.0,-13.0,0.0,2.0,0.0,0.0,0.0,9.904386263871498e-11,8.9806287159005e-11,8.01642626064815e-11,7.03727830122292e-11,6.060087527542701e-11,5.1335549211736947e-11,4.272341663274524e-11,3.468379090345151e-11,2.74106236773967e-11,2.118429148030928e-11,1.597519883498778e-11,1.1733950964533383e-11,8.432102749499813e-12,5.911640098989951e-12,4.0402356738001455e-12,2.6940457436220964e-12,1.7589097927609377e-12,1.1232410522736551e-12,7.02475818791076e-13,4.3004576483243763e-13,2.584877340364575e-13,1.5295802635409495e-13,8.898920207493424e-14,5.070338963830595e-14,2.8295396188844638e-14,1.5204386075366193e-14,2.749107443438749e-09,1.540629596283089e-09,1.0160410709989717e-09,7.04971416995887e-10,4.950522771277672e-10,3.486954115200891e-10,2.46053665336676e-10,1.7231035040301132e-10,1.1936877105116455e-10,8.125251028177545e-11,5.386057519039345e-11,3.511405051792124e-11,2.2371655327027094e-11,1.3908572679440748e-11,8.465996704848624e-12,5.017213818872706e-12,2.8944635977553e-12,1.6270434320915836e-12,8.931632893742623e-13
0.0,38,38.0,0.0,30.0,0.0,0.0,0.0,0.0,-13.0,0.0,2.0,0.0,0.0,0.0,1.0111544740920255e-10,9.165269324700271e-11,8.17812057812536e-11,7.175858291525212e-11,6.17613844651658e-11,5.22879748022932e-11,4.3488577415286e-11,3.528017782617002e-11,2.7860588858983185e-11,2.1515155517400855e-11,1.6211340492512196e-11,1.1897342819072252e-11,8.542253380022823e-12,5.983630265919457e-12,4.085552094200177e-12,2.7212561654841593e-12,1.774263413743258e-12,1.1312272086164713e-12,7.062910836793676e-13,4.3179238613561055e-13,2.593730456061957e-13,1.535180255723505e-13,8.940616249066152e-14,5.102085963515792e-14,2.853197248199164e-14,1.5363965115100694e-14,2.7528236752218907e-09,1.5627745039709107e-09,1.037402033584378e-09,7.215747621836876e-10,5.071050151578263e-10,3.571788860494338e-10,2.519205065572906e-10,1.7629940715372593e-10,1.220251736037163e-10,8.297974960361602e-11,5.4947327558168905e-11,3.578272144255256e-11,2.2772753132902588e-11,1.4142116326345999e-11,8.59927593177614e-12,5.09124358125032e-12,2.934799511485598e-12,1.6484958094669818e-12,9.042019371511997e-13
0.0,39,39.0,0.0,30.0,0.0,0.0,0.0,0.0,-13.0,0.0,2.0,0.0,0.0,0.0,1.0324573491426668e-10,9.355006269289058e-11,8.34415045376305e-11,7.318031972954428e-11,6.295090592494568e-11,5.3263269070132216e-11,4.427133557008913e-11,3.588963908290259e-11,2.831991181839986e-11,2.185253091436483e-11,1.645186710145546e-11,1.2063599340330155e-11,8.654250089527252e-12,6.056826998299255e-12,4.131710136469993e-12,2.749111506823631e-12,1.7901273739782505e-12,1.1395857191826461e-12,7.103281668251978e-13,4.336295727025859e-13,2.602652927594862e-13,1.5405071989055733e-13,8.97918751217306e-14,5.131243559791881e-14,2.875334483520103e-14,1.5514468563852192e-14,2.759843472050327e-09,1.587003886571383e-09,1.0599380815694068e-09,7.388972095847192e-10,5.196202528466879e-10,3.659634145929149e-10,2.579820010238865e-10,1.8041256533425916e-10,1.2475934954144645e-10,8.475421528356236e-11,5.6061814879729075e-11,3.64672264007803e-11,2.318261198601341e-11,1.4380311153929038e-11,8.734902252531928e-12,5.166355696359283e-12,2.975587154518625e-12,1.6701557857980454e-12,9.153962034212682e-13
0.0,40,40.0,0.0,30.0,0.0,0.0,0.0,0.0,-13.0,0.0,2.0,0.0,0.0,0.0,1.0543667669790383e-10,9.550004685456162e-11,8.51465204543085e-11,7.463908136957258e-11,6.41702817997468e-11,5.426206431699927e-11,4.5072153013622535e-11,3.6512496819840165e-11,2.878880687626892e-11,2.2196554459608832e-11,1.6696860910971696e-11,1.2232764096429265e-11,8.768106847542745e-12,6.1312185614591275e-12,4.178677570447064e-12,2.7775705367476988e-12,1.8064669256600858e-12,1.1482992286717544e-12,7.145873684360303e-13,4.3556735447320915e-13,2.6117555711304333e-13,1.545639748529967e-13,9.015081961854645e-14,5.158043258335251e-14,2.8960255005552895e-14,1.5656237792874688e-14,2.7703417991330187e-09,1.6133739348658264e-09,1.083683875085714e-09,7.569658786264841e-10,5.326165726738837e-10,3.7506090720741045e-10,2.642455998811015e-10,1.846543025114663e-10,1.275739484396704e-10,8.657742310907273e-11,5.720487019669357e-11,3.7168018600147645e-11,2.3601474555681404e-11,1.4623292604285947e-11,8.872959591165213e-12,5.242604339495177e-12,3.016852255583178e-12,1.6920205856945503e-12,9.267268453970463e-13
0.0,41,41.0,0.0,30.0,0.0,0.0,0.0,0.0,-13.0,0.0,2.0,0.0,0.0,0.0,1.0769030316263542e-10,9.750436176452291e-11,8.68976664204615e-11,7.613599543011902e-11,6.542038368817506e-11,5.528501417900777e-11,4.58915066286122e-11,3.714908325508225e-11,2.926749488268702e-11,2.254736715190081e-11,1.694640719028547e-11,1.2404883771845647e-11,8.8838421879435e-12,6.206799843927765e-12,4.226429760115858e-12,2.8065980564111638e-12,1.8232497006047237e-12,1.1573491722749303e-12,7.190660970152372e-13,4.376131686168268e-13,2.6211345105242845e-13,1.550650762492793e-13,9.04872931866995e-14,5.182716118212382e-14,2.915345432408366e-14,1.578963358089316e-14,2.7844912984955725e-09,1.6419413150214264e-09,1.108676712984689e-09,7.758097411979882e-10,5.461135839789267e-10,3.8448385306596235e-10,2.707190912524823e-10,1.8902928311111763e-10,1.3047171896886627e-10,8.845094119686947e-11,5.83773511402258e-11,3.788556161437469e-11,2.402958627867109e-11,1.4871194330678653e-11,9.013528144768318e-12,5.3200415201436175e-12,3.0586226926427467e-12,1.7140929586092715e-12,9.381795872524708e-13
0.0,42,42.0,0.0,30.0,0.0,0.0,0.0,0.0,-13.0,0.0,2.0,0.0,0.0,0.0,1.1000872702738407e-10,9.956479085612912e-11,8.869640869735921e-11,7.76722307397087e-11,6.67021137415385e-11,5.633279440050398e-11,4.6729888770795384e-11,3.77997410146937e-11,2.975620342369212e-11,2.2905114269217445e-11,1.720059408538294e-11,1.2580007645149912e-11,9.001478195217715e-12,6.283571022827062e-12,4.274948521998063e-12,2.8361644755066304e-12,1.840446071657656e-12,1.1667165009939875e-12,7.237594658332696e-13,4.397721385116977e-13,2.6308716869099444e-13,1.5556070803442803e-13,9.08053909776261e-14,5.205490704024391e-14,2.933370847978297e-14,1.591502847849307e-14,2.8024619695865658e-09,1.672763777078237e-09,1.1349568542836557e-09,7.954597173080138e-10,5.601319757962932e-10,3.942453517873995e-10,2.774106161397465e-10,1.9354236731307878e-10,1.3345551357736332e-10,9.037639256806051e-11,5.958014143112413e-11,3.862033036379918e-11,2.4467196263165693e-11,1.512414915663939e-11,9.156685032710242e-12,5.398716801212878e-12,3.1009272630006957e-12,1.7363798560202395e-12,9.497445468750142e-13
0.0,43,43.0,0.0,30.0,0.0,0.0,0.0,0.0,-13.0,0.0,2.0,0.0,0.0,0.0,1.123941469301233e-10,1.0168318780379481e-10,9.054426905909108e-11,7.924899896383536e-11,6.801640578710326e-11,5.740610361312937e-11,4.758780776891258e-11,3.846482346281328e-11,3.0255167032234145e-11,2.326994546725892e-11,1.7459512566831085e-11,1.275818725395129e-11,9.121039760482794e-12,6.361536486163497e-12,4.324221098289706e-12,2.8662453148335342e-12,1.8580293384654574e-12,1.176382259391569e-12,7.286608300456564e-13,4.420473552049707e-13,2.641035540504289e-13,1.560569398429784e-13,9.110898948557563e-14,5.226591215688414e-14,2.950180056999427e-14,1.603280165002025e-14,2.8244210400772935e-09,1.7059008561855124e-09,1.1625678367558015e-09,8.15948770853992e-10,5.746935742674249e-10,4.043591467048645e-10,2.8432868483627844e-10,1.9819862027670877e-10,1.3652829330747729e-10,9.235545766641009e-11,6.081415228446545e-11,3.9372811984363744e-11,2.4914558041193868e-11,1.5382289886252365e-11,9.302504949465489e-12,5.478677263604896e-12,3.1437947941997153e-12,1.7588912960097643e-12,9.61415643081992e-13
0.0,44,44.0,0.0,30.0,0.0,0.0,0.0,0.0,-13.0,0.0,2.0,0.0,0.0,0.0,1.1484885118608135e-10,1.0386147949064664e-10,9.244282702184893e-11,8.086755626416915e-11,6.936422647981984e-11,5.850566412308864e-11,4.8465788419273935e-11,3.914469502442423e-11,3.076462739661226e-11,2.3642014889129598e-11,1.772325643168419e-11,1.2939476189686454e-11,9.242554045382992e-12,6.4407039762266936e-12,4.3742392548904934e-12,2.896820677492147e-12,1.8759757777134487e-12,1.1863280320644332e-12,7.337622615526912e-13,4.4444015422378546e-13,2.6516818302992787e-13,1.5655922366028305e-13,9.140173303056592e-14,5.246235817112915e-14,2.9658532319478086e-14,1.6143335742644704e-14,2.850533063373991e-09,1.7414146591035595e-09,1.1915567887835082e-09,8.373120072669215e-10,5.898214050949186e-10,4.1483966008152007e-10,2.914821939516807e-10,2.0300332176131813e-10,1.3969313278298268e-10,9.43898768493643e-11,6.208032374496135e-11,4.014350661157806e-11,2.5371930200779923e-11,1.564574997964981e-11,9.451060781919811e-12,5.559967633314281e-12,3.1872535332114864e-12,1.781639413194008e-12,9.731900096701212e-13
0.0,45,45.0,0.0,30.0,0.0,0.0,0.0,0.0,-13.0,0.0,2.0,0.0,0.0,0.0,1.17375221713535e-10,1.0610166911797506e-10,9.439372217061559e-11,8.252920501918895e-11,7.074657648636479e-11,5.963222270993737e-11,4.936437247726926e-11,3.9839731501615644e-11,3.1284833563639796e-11,2.40214812755034e-11,1.79919223348698e-11,1.3123929979897039e-11,9.366050103022453e-12,6.5210839185792175e-12,4.424998504496086e-12,2.9278747195230498e-12,1.8942645923270778e-12,1.1965362758851222e-12,7.390549612947581e-13,4.469503819666165e-13,2.662854557770089e-13,1.5707239899732033e-13,9.168702335643923e-14,5.2646351769570355e-14,2.980472351696098e-14,1.6247015272169907e-14,2.8809602762899067e-09,1.7793707248438656e-09,1.2219747315814989e-09,8.59586775202352e-10,6.05539761343711e-10,4.257020302677663e-10,2.988804441698415e-10,2.07961976199295e-10,1.4295322539465325e-10,9.648145287693913e-11,6.3379625976569e-11,4.093292810136902e-11,2.583957692403597e-11,1.5914664111396058e-11,9.602424169697295e-12,5.642630508305559e-12,3.2313307568656978e-12,1.8046376839690327e-12,9.85067436406945e-13
0.0,46,46.0,0.0,30.0,0.0,0.0,0.0,0.0,-13.0,0.0,2.0,0.0,0.0,0.0,1.1997573814071688e-10,1.0840583947156599e-10,9.639865659124798e-11,8.423529561085707e-11,7.216449170479865e-11,6.07865514402316e-11,5.028411914859249e-11,4.055032038527901e-11,3.1816042136317e-11,2.4408508069692963e-11,1.8265609834326103e-11,1.3311606027446732e-11,9.491558615176484e-12,6.602688903503873e-12,4.476497448397228e-12,2.9593951412512274e-12,1.912877788567322e-12,1.206990554912457e-12,7.445296107123893e-13,4.495766472143654e-13,2.674586962371887e-13,1.576007057486522e-13,9.196801231859135e-14,5.281991227394153e-14,2.994120982743038e-14,1.6344226025199315e-14,2.9158632447519965e-09,1.8198389449343745e-09,1.2538768703238176e-09,8.828127747482239e-10,6.218742767042487e-10,4.3696215080004684e-10,3.0653315889100566e-10,2.1308032327051183e-10,1.463118887002437e-10,9.863205341989787e-11,6.471306052734173e-11,4.174160470588946e-11,2.631776845270898e-11,1.6189168630237745e-11,9.756665999153405e-12,5.726706639026641e-12,3.2760525532916726e-12,1.8279003118453965e-12,9.970498513593152e-13
0.0,47,47.0,0.0,30.0,0.0,0.0,0.0,0.0,-13.0,0.0,2.0,0.0,0.0,0.0,1.226529821088516e-10,1.1077615636031448e-10,9.84593974148191e-11,8.598722828113998e-11,7.361904452264912e-11,6.196944849931579e-11,5.122560558300044e-11,4.127686116461366e-11,3.2358517467148204e-11,2.4803263515256753e-11,1.8544421440358263e-11,1.350256358520027e-11,9.61911171384436e-12,6.685533290311604e-12,4.52873722672914e-12,2.991372713023183e-12,1.9318000046939094e-12,1.2176756940788726e-12,7.501766656141283e-13,4.5231655451573483e-13,2.6869025591401774e-13,1.5814780379678244e-13,9.224759758092065e-14,5.298496140523215e-14,3.006883921452495e-14,1.643535503285147e-14,2.955401817129381e-09,1.862894526038749e-09,1.2873228745426367e-09,9.070321747661492e-10,6.38852004130975e-10,4.48636711469915e-10,3.144505039351229e-10,2.1836434901577832e-10,1.4977257004640733e-10,1.0084361360595519e-10,6.608166158798826e-11,4.257007971898121e-11,2.6806781498523488e-11,1.646940193785017e-11,9.913856829601758e-12,5.812235229791183e-12,3.3214437314748945e-12,1.8514417546856343e-12,1.0091408538949996e-12
0.0,48,48.0,0.0,30.0,0.0,0.0,0.0,0.0,-13.0,0.0,2.0,0.0,0.0,0.0,1.2540964178758743e-10,1.1321487224224408e-10,1.0057777947974964e-10,8.77864550614733e-11,7.511134511589441e-11,6.318173904446707e-11,5.2189427373307355e-11,4.201976563684103e-11,3.2912531848860797e-11,2.5205920745722845e-11,1.8828462663896063e-11,1.3696863751501834e-11,9.748742862650165e-12,6.769632908932317e-12,4.581721064937978e-12,3.023800843203472e-12,1.9510183100958946e-12,1.22857786653708e-12,7.559865967508092e-13,4.551669172903285e-13,2.6998161918516405e-13,1.5871679835693062e-13,9.252842119035423e-14,5.314331516850236e-14,3.0188467252698244e-14,1.6520790752862603e-14,2.999736393774768e-09,1.908618975950419e-09,1.3223771503108167e-09,9.32289741927921e-10,6.565014995824967e-10,4.6074324144483137e-10,3.2264310850460007e-10,2.2382029751431396e-10,1.5333885241325627e-10,1.0311813862108434e-10,6.74864972600932e-11,4.341891210300375e-11,2.7306899612122646e-11,1.675550480252118e-11,1.0074067255253344e-11,5.899254238745411e-12,3.367527823279487e-12,1.8752763744201537e-12,1.0213453033652276e-12
0.0,49,49.0,0.0,30.0,0.0,0.0,0.0,0.0,-13.0,0.0,2.0,0.0,0.0,0.0,1.2824851661976651e-10,1.1572433005192573e-10,1.0275570811576498e-10,8.963448177772642e-11,7.664254279119372e-11,6.442427608259407e-11,5.3176199062139857e-11,4.2779458219339254e-11,3.347836570445945e-11,2.5616657867121756e-11,1.9117842061111534e-11,1.3894569476788005e-11,9.880486779695589e-12,6.855004837276777e-12,4.635453903621361e-12,3.0566751919657376e-12,1.9705219895826787e-12,1.2396846280609187e-12,7.619500820564347e-13,4.581239494397602e-13,2.7133350787179126e-13,1.5931027002943374e-13,9.281287085214466e-14,5.3296677760746113e-14,3.030095162934804e-14,1.6600923188356856e-14,3.049029507986935e-09,1.957101093761046e-09,1.3591091090081127e-09,9.586329837238344e-10,6.748529104504301e-10,4.73300154596491e-10,3.311220876143537e-10,2.2945468313635006e-10,1.5701446047833655e-10,1.0545770638222511e-10,6.892867084738681e-11,4.4288677106090155e-11,2.7818413521467727e-11,1.7047620621646872e-11,1.0237368209085137e-11,5.987800662148514e-12,3.4143271490676827e-12,1.899418189857912e-12,1.033668964914586e-12
0.0,50,50.0,0.0,30.0,0.0,0.0,0.0,0.0,-13.0,0.0,2.0,0.0,0.0,0.0,1.3117252231228642e-10,1.1830696724113255e-10,1.0499516205221518e-10,9.15328701329132e-11,7.821382737381146e-11,6.56979413756767e-11,5.418655465879511e-11,4.355637626610887e-11,3.405630777845058e-11,2.6035658034608845e-11,1.9412671273614517e-11,1.4095745575252814e-11,1.0014379388344407e-11,6.941667236685885e-12,4.689942099199333e-12,3.089993331311188e-12,1.9903023239280703e-12,1.2509849102859154e-12,7.680581558535071e-13,4.611834350531692e-13,2.72745983123332e-13,1.5993030853603326e-13,9.310308369122698e-14,5.3446637372334915e-14,3.0407146135905155e-14,1.6676143760958887e-14,3.1034476985682845e-09,2.008437946659993e-09,1.3975934396624664e-09,9.861123072017284e-10,6.93938068210031e-10,4.863267972815515e-10,3.398990661907457e-10,2.3527430336825317e-10,1.6080326689625827e-10,1.0786447029750732e-10,7.040932218072943e-11,4.517996687654575e-11,2.8341621448203454e-11,1.7345895644795678e-11,1.0403831216121597e-11,6.077910794643803e-12,3.4618629241420215e-12,1.923880714149718e-12,1.046118211071018e-12
0.0,51,51.0,0.0,30.0,0.0,0.0,0.0,0.0,-13.0,0.0,2.0,0.0,0.0,0.0,1.3418469608848081e-10,1.2096532004125474e-10,1.0729819645198955e-10,9.348323986986524e-11,7.98264306440004e-11,6.70036463770959e-11,5.522114816842096e-11,4.435097039016397e-11,3.464665533082483e-11,2.6463109524737612e-11,1.9713065064491037e-11,1.4300458737969705e-11,1.0150457786223993e-11,7.029639231226598e-12,4.745193183748958e-12,3.1237544496303388e-12,2.010352374744041e-12,1.2624689829441652e-12,7.743023204001646e-13,4.643408764446106e-13,2.742185430442529e-13,1.6057854915546806e-13,9.340095225538135e-14,5.35946637296645e-14,3.050789443071267e-14,1.6746844836720946e-14,3.1631636386971026e-09,2.062735819621512e-09,1.4379103936481545e-09,1.0147811944820329e-09,7.137905848938204e-10,4.998434989111781e-10,3.4898620501467874e-10,2.4128625219604784e-10,1.647092987934582e-10,1.1034066213009545e-10,7.19296289845961e-11,4.6093391079126804e-11,2.8876829408651863e-11,1.765047916707335e-11,1.0573528603882448e-11,6.169620461490222e-12,3.5101553885347256e-12,1.948676859994818e-12,1.0586997757278882e-12
0.0,52,52.0,0.0,30.0,0.0,0.0,0.0,0.0,-13.0,0.0,2.0,0.0,0.0,0.0,1.3728820221486506e-10,1.2370202795152544e-10,1.0966694607140885e-10,9.548727101632611e-11,8.148162782508026e-11,6.83423332018508e-11,5.6280654135704474e-11,4.516370479316685e-11,3.5249714335041886e-11,2.6899205805058128e-11,2.0019141351012045e-11,1.450877754554704e-11,1.0288760225637595e-11,7.118940819575157e-12,4.801215673530488e-12,3.157959097778886e-12,2.0306667793001126e-12,1.2741283936714744e-12,7.806746250370709e-13,4.675916212707388e-13,2.7575021483715074e-13,1.6125621093571889e-13,9.370813249578824e-14,5.374210721233679e-14,3.060402382820985e-14,1.6813418869747357e-14,3.2283584717150136e-09,2.1201111302169934e-09,1.4801460915714265e-09,1.0446963952712272e-09,7.344459532078105e-10,5.138716257228739e-10,3.583962286364071e-10,2.474979340265085e-10,1.6873674448451327e-10,1.1288859498142074e-10,7.349080828975207e-11,4.7029577516309207e-11,2.94243515046961e-11,1.7961523700682588e-11,1.0746533677403378e-11,6.262965221694312e-12,3.5592239471463312e-12,1.973818897557228e-12,1.071420555789998e-12
0.0,53,53.0,0.0,30.0,0.0,0.0,0.0,0.0,-13.0,0.0,2.0,0.0,0.0,0.0,1.4048633781131136e-10,1.2651983845158888e-10,1.1210362854636785e-10,9.75467062153986e-11,8.318073912699086e-11,6.971497563334163e-11,5.736576820538477e-11,4.599505760344457e-11,3.586579968085375e-11,2.7344145602758222e-11,2.033102123507928e-11,1.47207724794557e-11,1.0429326100749684e-11,7.209592810736745e-12,4.858018917071808e-12,3.1926089728782966e-12,2.0512415589370905e-12,1.2859558924919839e-12,7.871677179281457e-13,4.709309698626116e-13,2.7733964056049804e-13,1.6196413583931432e-13,9.402605344724454e-14,5.389019937011804e-14,3.06963393333004e-14,1.687625718087432e-14,3.2992242938720527e-09,2.180691308652315e-09,1.5243928621559562e-09,1.075918135802846e-09,7.559416504877821e-10,5.284336382100571e-10,3.6814245532307964e-10,2.539170781258812e-10,1.7288996042620374e-10,1.155106664082735e-10,7.509411789370256e-11,4.798917275650675e-11,2.9984510208800596e-11,1.8279185130936783e-11,1.0922920865516595e-11,6.3579805429496345e-12,3.6090873109264476e-12,1.999318452086941e-12,1.0842874550583092e-12
0.0,54,54.0,0.0,30.0,0.0,0.0,0.0,0.0,-13.0,0.0,2.0,0.0,0.0,0.0,1.4378253894907015e-10,1.294216119306399e-10,1.1461054780585647e-10,9.966335314482102e-11,8.492513134956426e-11,7.112258016884584e-11,5.847720770226988e-11,4.68455212234976e-11,3.6495235382329605e-11,2.7798132974098004e-11,2.0648829032505074e-11,1.493651593179322e-11,1.0572195938483865e-11,7.301616776900995e-12,4.915612975034044e-12,3.2277067357250137e-12,2.072073943192063e-12,1.2979453467465228e-12,7.937748750248298e-13,4.743542641786304e-13,2.7898515589168906e-13,1.6270282806842713e-13,9.435592832682889e-14,5.4040054663651425e-14,3.078561810058372e-14,1.6935748426223018e-14,3.3759667195779387e-09,2.2446156521509888e-09,1.5707496216231061e-09,1.1085103430566553e-09,7.783172472099155e-10,5.435531526511965e-10,3.782388290219617e-10,2.605517535670979e-10,1.7717347843664277e-10,1.18209361685608e-10,7.674085786753006e-11,4.897284277050189e-11,3.0557636646638564e-11,1.860362286155198e-11,1.1102765844192028e-11,6.4547019505006546e-12,3.659763632748463e-12,2.0251865302733202e-12,1.0973072647817805e-12
