Line_number,Fiducial,Easting,Northing,Height,Elevation,tx_pitch,tx_roll,tx_yaw,txrx_dx,txrx_dy,txrx_dz,rx_pitch,rx_roll,rx_yaw,PX,PZ,S0X_time_1.086e-05,S0X_time_3.256e-05,S0X_time_5.426e-05,S0X_time_8.680e-05,S0X_time_1.411e-04,S0X_time_2.279e-04,S0X_time_3.689e-04,S0X_time_5.860e-04,S0X_time_9.115e-04,S0X_time_1.411e-03,S0X_time_2.192e-03,S0X_time_3.418e-03,S0X_time_5.339e-03,S0X_time_8.301e-03,S0X_time_1.338e-02,S0Z_time_1.086e-05,S0Z_time_3.256e-05,S0Z_time_5.426e-05,S0Z_time_8.680e-05,S0Z_time_1.411e-04,S0Z_time_2.279e-04,S0Z_time_3.689e-04,S0Z_time_5.860e-04,S0Z_time_9.115e-04,S0Z_time_1.411e-03,S0Z_time_2.192e-03,S0Z_time_3.418e-03,S0Z_time_5.339e-03,S0Z_time_8.301e-03,S0Z_time_1.338e-02
0.0,0.0,0.0,0.0,120.0,0.0,0.0,0.0,0.0,-107.0,0.0,-45.0,0.0,0.0,0.0,34.27253218749016,17.55503396713325,4.55507091378393,2.6614780984778004,2.1661282081322164,1.7385015607716638,1.2569695911398853,0.7925545774770884,0.41893806610374845,0.18669652518984783,0.07214521208115054,0.023895038061658977,0.0067756254251079935,0.0016995695378235164,0.00039581386076630325,7.95739059607212e-05,-7.888196591800626e-05,6.94309820696241,4.923554299800357,4.272214195324315,3.677741694239269,2.944567685197243,2.130389386365052,1.348163102344405,0.7469236829993159,0.3693182944186925,0.16154840972344628,0.062436156213363535,0.021718673757460158,0.006969608305367837,0.0020946302736124674,0.00038614509653894314
0.0,1.0,1.0,0.0,120.0,0.0,0.0,0.0,0.0,-107.0,0.0,-45.0,0.0,0.0,0.0,34.27253218749016,17.55503396713325,4.559648192402374,2.681545426187949,2.2007461457528734,1.80697406511973,1.3644580009228917,0.9129996532238436,0.5193676681262083,0.25085697961838355,0.1049139399785853,0.037408336596050314,0.011306267469209272,0.0029696538143409524,0.0007056311742729002,0.00014747903235855507,-7.224155900930896e-05,6.947091422900399,4.945938276140527,4.31453589545364,3.7712144161809866,3.1140515030287133,2.354601389213081,1.5756792278755636,0.928915729514444,0.48835583589933806,0.22620239282237461,0.09189838597934563,0.03324746030251391,0.010965349346157697,0.003360650453958078,0.0007140719335214938
0.0,2.0,2.0,0.0,120.0,0.0,0.0,0.0,0.0,-107.0,0.0,-45.0,0.0,0.0,0.0,34.27253218749016,17.55503396713325,4.56452804794861,2.7010814350177923,2.2257250170337732,1.8491399810371298,1.4372155724732292,1.0051510533856662,0.60527885519908,0.31189752271230786,0.1393587294226607,0.05299442011557673,0.0169852525413175,0.004675256639942341,0.0011441286719847767,0.00024741517245741837,-5.882941669398925e-05,6.951303971133036,4.967792853361732,4.345462785471523,3.8279302120941767,3.225436752533213,2.5194989699071098,1.7603056249745934,1.090743492596742,0.6035958405039714,0.29390610197427003,0.12497762539611315,0.04696150974746776,0.01593447949403289,0.00498718381802713,0.001152056658785799
0.0,3.0,3.0,0.0,120.0,0.0,0.0,0.0,0.0,-107.0,0.0,-45.0,0.0,0.0,0.0,34.27253218749016,17.55503396713325,4.569729253348667,2.7210184454756696,2.247999715034722,1.8781969233207445,1.486828930715482,1.0749837781173017,0.6772854090516544,0.36799056674012987,0.17386815579684886,0.06994686549190934,0.023649229693013012,0.0068120801781810835,0.0017228393261192682,0.0003846569679994537,-3.719371106771998e-05,6.955748101859413,4.9900463236847115,4.373280430345675,3.8669337811627025,3.2997833926162854,2.6408051020305345,1.9090796824141436,1.2320332560595206,0.7119457219395532,0.36215855318445517,0.16051810213118436,0.06252243982345179,0.021822981832284257,0.006978924672528864,0.0017068803807466508
0.0,4.0,4.0,0.0,120.0,0.0,0.0,0.0,0.0,-107.0,0.0,-45.0,0.0,0.0,0.0,34.27253218749016,17.55503396713325,4.575270385303931,2.7415006771194563,2.2698714551182997,1.9014138967215466,1.5217101387511933,1.1276070787178913,0.7368581990514563,0.41839914051153726,0.20734074025309138,0.0876411717111356,0.031103723852411447,0.009354251818702312,0.002447106238763047,0.0005633999385304218,-5.9914599037796854e-06,6.96043706173284,5.0128341145789355,4.400612875970659,3.898233002003497,3.351318136860414,2.730096210801185,2.0284503303843153,1.3540268495851546,0.8118820196647712,0.42917418573508287,0.19750967677413742,0.07957157584278145,0.02855153628661832,0.00933022682882286,0.0023825197296597845
0.0,5.0,5.0,0.0,120.0,0.0,0.0,0.0,0.0,-107.0,0.0,-45.0,0.0,0.0,0.0,34.27253218749016,17.55503396713325,4.581170892056876,2.7625526196617693,2.2919752953477883,1.9223880972991267,1.5477890378594965,1.1673042990537166,0.7856887051673039,0.46301496353000743,0.23907903555667082,0.1055659292054649,0.039149585953437385,0.012261199861686396,0.0033167567316845442,0.0007866590576339567,3.5957355162182794e-05,6.965386027544989,5.036177435480632,4.428150003917067,3.926594014226682,3.389562189302242,2.7961843608213712,2.123894889531178,1.4585874542094628,0.9028559780412775,0.4937437311842164,0.23511331833501617,0.09775835312827814,0.03602538221328005,0.012027237822160404,0.003180479376002147
0.0,6.0,6.0,0.0,120.0,0.0,0.0,0.0,0.0,-107.0,0.0,-45.0,0.0,0.0,0.0,34.27253218749016,17.55503396713325,4.587451273615126,2.784185475065828,2.3144562951944843,1.9427122401174852,1.5689826302638687,1.1976259104043594,0.8254494674012116,0.5020699778218867,0.2686814927028399,0.12332411232110833,0.04759920698599463,0.01548367033091723,0.0043270357862896115,0.0010562619365967684,8.963899457245476e-05,6.970612111088217,5.0600853594046535,4.4560399477924815,3.954056708768982,3.4205599190947225,2.845896727194489,2.200004884653232,1.5477203204744439,0.9848993002652087,0.5550954417155435,0.2726576130747682,0.11675720040025014,0.04414200316841065,0.015049854683218749,0.0041001288359253495
0.0,7.0,7.0,0.0,120.0,0.0,0.0,0.0,0.0,-107.0,0.0,-45.0,0.0,0.0,0.0,34.27253218749016,17.55503396713325,4.594133096624297,2.8064086253122498,2.3373436264759073,1.9630197701163858,1.5876887509241078,1.2214249210355386,0.8577172489525537,0.5359678575081871,0.29595321940707564,0.14062080769249036,0.056285147980474515,0.01896850526332507,0.00546961789587667,0.0013729117964197104,0.00015583138077117188,6.976134229778892,5.084565450059428,4.484309475748616,3.9814063794857,3.4478942884010886,2.8844556195952675,2.260665620538058,1.6233626513736896,1.0583727773295135,0.612777889200645,0.3096217185979263,0.13627635981851335,0.05279688589979481,0.018373455655468704,0.005139029513654433
0.0,8.0,8.0,0.0,120.0,0.0,0.0,0.0,0.0,-107.0,0.0,-45.0,0.0,0.0,0.0,34.27253218749016,17.55503396713325,4.60123901671466,2.829230755080494,2.360645638832287,1.983537921613542,1.6052695798747394,1.2408896893994257,0.8839424183898115,0.5651925966242012,0.3208384938470125,0.15724642640593933,0.06506366557003386,0.0226621722934051,0.006733580852250735,0.001736296813114675,0.00023510115008157405,6.981973003225222,5.109625018701653,4.512965068647571,4.008915318067379,3.473545597408258,2.9157196758165176,2.3091887220085217,1.6873121202358659,1.123809843880294,0.666568227129988,0.3456134209685556,0.15606134094921892,0.06188765954774022,0.02197038810546928,0.0062932439353682165
0.0,9.0,9.0,0.0,120.0,0.0,0.0,0.0,0.0,-107.0,0.0,-45.0,0.0,0.0,0.0,34.27253218749016,17.55503396713325,4.608792811712343,2.8526603118482043,2.3843681151027454,2.0043411729567806,1.6224465616425188,1.2576138268490877,0.9054240859157315,0.5902615693320726,0.3433725242244553,0.17305981243584598,0.07381507638761767,0.02651320198825481,0.008106275779314541,0.002145226301614594,0.00032780907199396914,6.9881506647243805,5.135271593992125,4.5420110083632,4.036669504852811,3.4985372551616822,2.942416783345456,2.3483797354745533,1.741217809128135,1.1818225991421811,0.7164031205095159,0.3803468849567686,0.17589497747298707,0.07131692617364101,0.02581121310365683,0.007557622130319577
0.0,10.0,10.0,0.0,120.0,0.0,0.0,0.0,0.0,-107.0,0.0,-45.0,0.0,0.0,0.0,34.27253218749016,17.55503396713325,4.616819410497579,2.876705699619421,2.4085165212531283,2.0254533818760034,1.639577514736617,1.272699975387435,0.9232883059399338,0.6117001642288757,0.3636487443629935,0.18797309943676496,0.08244234402724258,0.030473741736642614,0.009574064464647165,0.0025977784195226274,0.0004341212966873917,6.994690974021233,5.16151299477224,4.571451407727614,4.064695553576587,3.5233654853248333,2.966388879921915,2.380570637548398,1.7865894144719696,1.2330488804714628,0.7623278522477029,0.41362230788937543,0.19559545943817683,0.08099407026772763,0.029865720162444643,0.008926062154244263
0.0,11.0,11.0,0.0,120.0,0.0,0.0,0.0,0.0,-107.0,0.0,-45.0,0.0,0.0,0.0,34.27253218749016,17.55503396713325,4.625344914375637,2.9013752939300352,2.4330961832092775,2.0468839866302226,1.6568293906345923,1.2868753400067627,0.9384762439759317,0.6300248025430485,0.3817976446846447,0.20193896427062366,0.0908687916783567,0.034500435232006556,0.011122918331082487,0.003091447930970815,0.0005540245023814718,7.001619136146006,5.1883572212603415,4.601290433425595,4.093004021169411,3.548257019714318,2.9888257946413703,2.4076480825043807,1.8248042123633483,1.2781251290224993,0.804459523030352,0.4453083114575175,0.21501327404182174,0.09083629496384615,0.03410373303032921,0.010391743502103522
0.0,12.0,12.0,0.0,120.0,0.0,0.0,0.0,0.0,-107.0,0.0,-45.0,0.0,0.0,0.0,34.27253218749016,17.55503396713325,4.63439661218297,2.926677408724076,2.4581124429324994,2.0686391002614597,1.674276102904771,1.3005987189620196,0.9517460899748094,0.6457288856369392,0.39797329920647156,0.21494039728780398,0.09903548411093022,0.03855481415586422,0.012738886290707411,0.003623286098314597,0.0006873435359822074,7.00896173048576,5.215812340531578,4.631532534467847,4.1216020834460965,3.573310484352736,3.0104647989557614,2.4310928078249847,1.8571070323153023,1.3176737189784895,0.842961128653133,0.4753271701588703,0.23402767415374995,0.10076908748146296,0.03849573142065831,0.011947333376527161
0.0,13.0,13.0,0.0,120.0,0.0,0.0,0.0,0.0,-107.0,0.0,-45.0,0.0,0.0,0.0,34.27253218749016,17.55503396713325,4.644002992887497,2.952620271368992,2.48357080128827,2.090724320592751,1.6919494794533096,1.3141479578446462,0.9636874202279729,0.6592707272534281,0.4123444232066544,0.22698283193797328,0.1068985897357429,0.042603355466123004,0.014408445217703111,0.004190027867456741,0.0008337604746566101,7.016746554638805,5.243886180180993,4.662182347796574,4.150496466428296,3.5985681944350527,3.0317453409849473,2.4520318198739575,1.8846061266429641,1.352296892333154,0.8780239393775809,0.5036426559691787,0.2525430671280441,0.11072627444895909,0.04301331514462463,0.013585165236463118
0.0,14.0,14.0,0.0,120.0,0.0,0.0,0.0,0.0,-107.0,0.0,-45.0,0.0,0.0,0.0,34.27253218749016,17.55503396713325,4.654193752801618,2.979212016209546,2.5094769930122482,2.113145269988609,1.7098637918894504,1.3276851009455644,0.9747437933088944,0.6710642124100892,0.42508778424958116,0.23808829555971128,0.11442689864966483,0.04661732129356793,0.016118749764805568,0.004788203948007699,0.000992834265438709,7.025002636021612,5.272586453733299,4.69324494075161,4.179694010446557,3.6240495089697755,3.0529202912184594,2.471297837242282,1.908269551741987,1.3825726618885859,0.9098559828657835,0.5302501928186792,0.27048555296091537,0.12064979288303636,0.0476295366444635,0.015297394112744436
0.0,15.0,15.0,0.0,120.0,0.0,0.0,0.0,0.0,-107.0,0.0,-45.0,0.0,0.0,0.0,34.27253218749016,17.55503396713325,4.664999800389399,3.0064606847710236,2.5358370018694103,2.135907663609748,1.728026663704651,1.3413015289408194,0.9852388677537937,0.6814729494725862,0.43638276129498604,0.2482911436113922,0.12159959580611426,0.05057246528227669,0.017857799138555695,0.005414237058983131,0.0011640201657274263,7.033760131501601,5.301920617007265,4.724725672219455,4.209201676315145,3.649765383041999,3.0741307690460102,2.4894892070438464,1.9289253225840346,1.409050652006495,0.938674720947496,0.5551690215310962,0.2877997290570763,0.13048927434486138,0.052319125839900095,0.017076126510581734
0.0,16.0,16.0,0.0,120.0,0.0,0.0,0.0,0.0,-107.0,0.0,-45.0,0.0,0.0,0.0,34.27253218749016,17.55503396713325,4.67645325650665,3.0343742298252514,2.5626570558012487,2.1590173320771244,1.7464435121018638,1.3550474009370679,0.9954022475601333,0.6908080925138224,0.44640657296618796,0.2576349279701258,0.1284043386894643,0.05444866320760208,0.019614537815471615,0.006064522622140343,0.00134668843515794,7.043050260679151,5.331895809934103,4.75663012538708,4.239026544414979,3.67572405772138,3.0954538277815637,2.5070248381889937,1.9472666098672786,1.4322475217243973,0.9647023491692132,0.5784360948894687,0.30444581008599503,0.1402015164937419,0.05705862819495656,0.01891352866563712
0.0,17.0,17.0,0.0,120.0,0.0,0.0,0.0,0.0,-107.0,0.0,-45.0,0.0,0.0,0.0,34.27253218749016,17.55503396713325,4.688587450184323,3.0629605211167115,2.589943620596538,2.1824802496522704,1.7651191744971833,1.3689498715530708,1.0053926386121035,0.6993294189541756,0.4553301159262948,0.2661700105635093,0.1348356509480614,0.05822950754517847,0.021378905431094095,0.006735494756052445,0.001540141888767216,7.0529052418942895,5.362518807655906,4.788964051790009,4.269175818504732,3.7019330410642772,3.116931348366309,2.524191062126964,1.9638615986855088,1.4526424409113416,0.9881625449109958,0.6001014292912455,0.32039707451760796,0.14974989667494062,0.061826473749818846,0.020801914891983513
0.0,18.0,18.0,0.0,120.0,0.0,0.0,0.0,0.0,-107.0,0.0,-45.0,0.0,0.0,0.0,34.27253218749016,17.55503396713325,4.701436909592385,3.0922273529879107,2.6177033980484214,2.206302557367188,1.7840584245506745,1.3830238294800967,1.0153171617714942,0.7072488889908147,0.4633145209248549,0.27395163341157897,0.14089361373227938,0.06190189375123478,0.023141848685824487,0.00742367875346301,0.0017436320913616003,7.063358229796286,5.393795981115538,4.821733330529588,4.299656818829782,3.7283996835550224,3.13858673894822,2.541179374238084,1.9791667268123927,1.4706732897900427,1.0092778947302672,0.6202246392128724,0.3356376323496309,0.15910376595024203,0.06660299201527381,0.02273381831897673
0.0,19.0,19.0,0.0,120.0,0.0,0.0,0.0,0.0,-107.0,0.0,-45.0,0.0,0.0,0.0,34.27253218749016,17.55503396713325,4.715037347698008,3.122182454581348,2.6459433281240514,2.2304905748588104,1.803266103129564,1.3972779390288483,1.0252465895784086,0.7147358045797743,0.4705085414721362,0.28103826160566486,0.14658281601817172,0.06545561803268839,0.02489530557912738,0.00812573143094403,0.001956374094717512,7.0744432532916415,5.425733267648626,4.854943939392992,4.330476960919569,3.755131294085225,3.1604341459083543,2.5581154243893636,1.9935417487743132,1.486734109892043,1.0282675816558977,0.638872386962821,0.35016050099149915,0.16823784915552054,0.07137038526141505,0.024702046306900826
0.0,20.0,20.0,0.0,120.0,0.0,0.0,0.0,0.0,-107.0,0.0,-45.0,0.0,0.0,0.0,34.27253218749016,17.55503396713325,4.729425642152087,3.1528335031651156,2.674670593191223,2.2550508027740297,1.8227471399025252,1.4117178825205827,1.0352268323059155,0.7219227554431218,0.47704682368395096,0.28749010416368626,0.15191151485301477,0.06888300043782358,0.026632169984842677,0.008838470867061132,0.002177559691979057,7.086195152807012,5.45833615179778,4.888601933878231,4.361643726010866,3.7821351394152196,3.182483293458934,2.575080404589231,2.007265206120554,1.5011740682177788,1.0453451717581186,0.6561165011580519,0.3639659716908755,0.1771316671109041,0.07611267078305513,0.026699722675685322
0.0,21.0,21.0,0.0,120.0,0.0,0.0,0.0,0.0,-107.0,0.0,-45.0,0.0,0.0,0.0,34.27253218749016,17.55503396713325,4.74463980895423,3.1841881408784602,2.703892622802664,2.279989920103586,1.8425065546819213,1.4263480152577859,1.0452872667962443,0.7289117034066638,0.48304902372257674,0.29336777942643855,0.15689095529094793,0.0721785421152038,0.028346242710041984,0.009558897096383755,0.0024063691979544365,7.098649515793906,5.491609656180091,4.92271343138227,4.393164630199023,3.8094184296252145,3.204741894505485,2.5921262770762765,2.0205492132999407,1.5142979387526074,1.060716500023803,0.6720325531474117,0.37706024441370706,0.18576899065438893,0.0808156010454454,0.02872031863907872
0.0,22.0,22.0,0.0,120.0,0.0,0.0,0.0,0.0,-107.0,0.0,-45.0,0.0,0.0,0.0,34.27253218749016,17.55503396713325,4.7607189694008065,3.216253994979601,2.7336170982947054,2.3053147799686395,1.8625494597018561,1.4411721638924562,1.0554465719626671,0.7357797481231398,0.4886196722731623,0.2987311268953564,0.1615348053348726,0.07533862121821787,0.030032173766651998,0.010284205297980279,0.0026419817778468484,7.111842609312332,5.525558341952732,4.95728459905734,4.425047196905758,3.8369883095587585,3.227216779403212,2.60928627325143,2.0335528439629234,1.5263679167182624,1.074577733117768,0.686698725783094,0.38945430440214635,0.19413733207792205,0.08546656908542818,0.030757674078212463
0.0,23.0,23.0,0.0,120.0,0.0,0.0,0.0,0.0,-107.0,0.0,-45.0,0.0,0.0,0.0,34.27253218749016,17.55503396713325,4.777703309773381,3.2490387015413513,2.7638519569803237,2.3310324057946596,1.882881064006375,1.456193986373586,1.0657166910712497,0.7425842955625863,0.4938486447058985,0.30363818164759326,0.16585867047495056,0.0783612282282788,0.03168539955205684,0.011011792914421151,0.0028835843562624204,7.1258113085053045,5.5601863182887135,4.992321644597667,4.4572989345331555,3.864851854667076,3.249914385055189,2.6265819179536827,2.0463937398670473,1.537606474013066,1.0871137049076907,0.7001948562526958,0.40116300958337164,0.2022274770712792,0.09005450511255872,0.03280601056362171
0.0,24.0,24.0,0.0,120.0,0.0,0.0,0.0,0.0,-107.0,0.0,-45.0,0.0,0.0,0.0,34.27253218749016,17.55503396713325,4.795634033226482,3.282549932464155,2.7946053959714168,2.357149988592823,1.9035066777136818,1.4714171206271247,1.0761054438144533,0.7493674953511128,0.49881208051696807,0.3081443277608156,0.16987966274840202,0.08124573859785729,0.03330207786714654,0.0117392619795407,0.0031303791516984866,7.1405930198426315,5.595497260239185,5.027830809561872,4.489927319437949,3.893016067621192,3.2728409456137886,2.6440275955957206,2.059157827301353,1.5481999278339704,1.0984966036680879,0.7126015778806764,0.4122043555517492,0.2100330587516145,0.09456976893103022,0.034859937362942614
0.0,25.0,25.0,0.0,120.0,0.0,0.0,0.0,0.0,-107.0,0.0,-45.0,0.0,0.0,0.0,34.27253218749016,17.55503396713325,4.814553303377102,3.3167954256257044,2.825885875746232,2.383674885419224,1.92443171483204,1.4868452387247018,1.0866181996727087,0.7561599184462724,0.5035736006028873,0.31230163994477145,0.17361600874204386,0.083992718678726,0.03487902309203554,0.012464417745713122,0.0033815899005805914,7.156225598112838,5.631494434340829,5.0638183649364965,4.522939783582025,3.921487874178457,3.2960025557047135,2.661633435325947,2.071907207529504,1.5583024083042114,1.1088850569507325,0.7239995209490545,0.42259888454211375,0.21755017428093967,0.09900404162545408,0.03691445154819767
0.0,26.0,26.0,0.0,120.0,0.0,0.0,0.0,0.0,-107.0,0.0,-45.0,0.0,0.0,0.0,34.27253218749016,17.55503396713325,4.8345041791549805,3.351783017932615,2.8577021235733726,2.4106146188378563,1.9456616945048262,1.5024820628675024,1.0972589196923899,0.762983515532749,0.508185688858665,0.3161584126171524,0.17708668856582435,0.08660375987953445,0.03641364331768532,0.013185264509520227,0.003636466856278549,7.1727472562298145,5.668180731282587,5.100290608637547,4.556343706025758,3.9502741185118015,3.3194051859426206,2.679407082454079,2.08468639751728,1.5680399548179873,1.1184236243905075,0.734468558147165,0.4323692066578542,0.2247770436588235,0.10335021896156013,0.0389649332245238
0.0,27.0,27.0,0.0,120.0,0.0,0.0,0.0,0.0,-107.0,0.0,-45.0,0.0,0.0,0.0,34.27253218749016,17.55503396713325,4.85553054053071,3.3875206809742733,2.890063136871217,2.4379768771796133,1.9672022411780796,1.518331368273977,1.1080307862463088,0.7698539356174151,0.5126911291537751,0.3197588660628052,0.18031110319052357,0.0890813357567346,0.03790388075817098,0.013899999357764379,0.003894290668173178,7.190196466997781,5.705558704872981,5.137253864613893,4.590146407505077,3.979381558859017,3.343054684612063,2.6973547541617617,2.0975271508411355,1.5775145283454381,1.1272426778116638,0.744087096579521,0.44153960519701146,0.23171370940370234,0.10760230816752762,0.041007136822710656
0.0,28.0,28.0,0.0,120.0,0.0,0.0,0.0,0.0,-107.0,0.0,-45.0,0.0,0.0,0.0,34.27253218749016,17.55503396713325,4.877677001824597,3.424016557574567,2.922978187170632,2.4657695185112356,1.9890590878197394,1.5343969806055417,1.118936572612643,0.7767823010955535,0.5171244151845176,0.32314301169213855,0.183308770795566,0.09142867708403953,0.03934815633348414,0.01460700440531793,0.00415437527248521,7.2086118946197155,5.743630720028979,5.174714629129436,4.624355292670225,4.008816867184862,3.366956672883256,2.7154819022238046,2.1104520842390717,1.5868077915176986,1.1354586243258449,0.7529314269462516,0.45013570258482394,0.23836177499612868,0.11175532918213081,0.04303718040338049
0.0,29.0,29.0,0.0,120.0,0.0,0.0,0.0,0.0,-107.0,0.0,-45.0,0.0,0.0,0.0,34.27253218749016,17.55503396713325,4.900988825364445,3.461279004333298,2.9564568215368014,2.494000564230593,2.011238067203246,1.550682781779924,1.1299788502281194,0.7837765390738963,0.5215130750212867,0.32634665360111426,0.18609905424202267,0.09364966066487591,0.04074531892056627,0.015304837975655523,0.00441606986526672,7.228032183314019,5.782398747602993,5.212679214262593,4.658977493488898,4.0385866208890535,3.3911168042072846,2.733793423153806,2.1234774239518694,1.5959845356721345,1.1431744195209659,0.761075142467207,0.4581841686162844,0.24472417922070858,0.11580522102979988,0.04505152890833228
0.0,30.0,30.0,0.0,120.0,0.0,0.0,0.0,0.0,-107.0,0.0,-45.0,0.0,0.0,0.0,34.27253218749016,17.55503396713325,4.925511814561692,3.499316631336353,2.990508867572972,2.5226782058468764,2.033745116681083,1.567192706898094,1.141160103503164,0.790842358738483,0.5258788749726473,0.32940150086886477,0.1887009221068251,0.09574870852118192,0.04209459943787269,0.01599222508337529,0.004678760184057125,7.248495887328493,5.821864566980735,5.251153960782817,4.694020079335534,4.068697306338286,3.4155406169047713,2.7522939180228163,2.136614943859755,1.6050957384825364,1.1504803003723034,0.7685886405683483,0.46571245753064733,0.2508050029178639,0.1197487537575733,0.04704698001394322
0.0,31.0,31.0,0.0,120.0,0.0,0.0,0.0,0.0,-107.0,0.0,-45.0,0.0,0.0,0.0,34.27253218749016,17.55503396713325,4.951292199514008,3.538138342963985,3.025144436943574,2.5518108085859916,2.056586280450048,1.5839307443950863,1.152482789160438,0.7979839563181018,0.5302388835109056,0.33233536518068957,0.19113274505496494,0.09773069502011511,0.043395569656402934,0.016668047508275677,0.004941869147541701,7.270041352301182,5.862029869527245,5.290145308888738,4.729490127297354,4.099155322146961,3.4402334899852196,2.7709878123121388,2.14987336013474,1.6141812106876565,1.1574546795366414,0.7755387152476595,0.47274856507000107,0.2566093042883985,0.12358344615342369,0.0490206478643523
0.0,32.0,32.0,0.0,120.0,0.0,0.0,0.0,0.0,-107.0,0.0,-45.0,0.0,0.0,0.0,34.27253218749016,17.55503396713325,4.978376516079916,3.5777533802113872,3.060373928572297,2.581406912603466,2.0797677089247677,1.600900938530911,1.1639493649845043,0.8052045143959567,0.5346063898099689,0.33517241962796396,0.19341212835425672,0.09960086032339033,0.0446481054317729,0.01733133369848405,0.005204856971991746,7.292706550674387,5.902896266909816,5.3296597330653075,4.765394658076172,4.129966980988074,3.4652006974878753,2.7898793789304372,2.163259324591239,1.623271840796525,1.1641651425089914,0.7819882443602088,0.4793208002909126,0.2621429787055099,0.1273074893710445,0.050969945196501276
0.0,33.0,33.0,0.0,120.0,0.0,0.0,0.0,0.0,-107.0,0.0,-45.0,0.0,0.0,0.0,34.27253218749016,17.55503396713325,5.006811474691643,3.6181713619665796,3.0962080323525565,2.6114752360388858,2.1032956601451507,1.6181073907797554,1.1755623031259685,0.8125065490407639,0.5389916809477132,0.33793349702188435,0.19555578019605285,0.10136472923235978,0.04585235392171971,0.017981248698763608,0.005467220879553887,7.316528925205825,5.9444653476749,5.369703744595724,4.8017406399430405,4.161138513757694,3.4904474143338247,2.8089727618587217,2.1767781040161314,1.6323914707761975,1.1706694950956336,0.7879959718538767,0.4854575697091622,0.2674126390231799,0.13091967650875627,0.05289256574430241
0.0,34.0,34.0,0.0,120.0,0.0,0.0,0.0,0.0,-107.0,0.0,-45.0,0.0,0.0,0.0,34.27253218749016,17.55503396713325,5.0366438209889575,3.659402325170261,3.1326577330619108,2.642024678416822,2.127176501569407,1.6355542611527167,1.187324095680395,0.81989214688066,0.543402687761213,0.34063640925738503,0.19757941437401252,0.10302803503170084,0.04700870428440632,0.01861708426493854,0.005728494477183574,7.34154522329128,5.986738732955845,5.410283894083084,4.838534993377923,4.192676074564909,3.5159787221353365,2.8282719885771,2.1904340407797536,1.641558436807406,1.1770168191119432,0.7936163808449812,0.4911871733829825,0.27242551259618175,0.134419338111314,0.05478646670529779
0.0,35.0,35.0,0.0,120.0,0.0,0.0,0.0,0.0,-107.0,0.0,-45.0,0.0,0.0,0.0,34.27253218749016,17.55503396713325,5.067920183619998,3.701456766669974,3.169734320105786,2.6730643204699063,2.151416713718824,1.6532457690385707,1.1992372569038476,0.8273631240560357,0.5478455129094213,0.3432962726258864,0.1994976849477173,0.1045966482987641,0.048117761336237845,0.019238249293791154,0.005988246870298144,7.367791324162967,6.029718139827785,5.451406772551995,4.8757845924578,4.224585747957895,3.5417996146891983,2.8477809778041303,2.2042308598798326,1.650786816402582,1.183248502732753,0.7988996504037449,0.4965376137941251,0.27718935158962404,0.13780628349344504,0.05664985149734738
0.0,36.0,36.0,0.0,120.0,0.0,0.0,0.0,0.0,-107.0,0.0,-45.0,0.0,0.0,0.0,34.27253218749016,17.55503396713325,5.100686919640553,3.744345681388568,3.2074493947520235,2.704603428291069,2.176022895291654,1.6711861944837139,1.2113043228199318,0.8349211314417596,0.5523248560263613,0.3459258273549151,0.2013241498059814,0.10607651086755611,0.04918032167077197,0.01984426066783198,0.006246081604613094,7.395302070519308,6.073405458748584,5.49307905189786,4.913496322333548,4.256873599551012,3.567914988974823,2.867503522479851,2.218171884990638,1.6600874189838355,1.1893992217100096,0.8038916865482048,0.5015364190570726,0.2817123536167879,0.14108074770517778,0.05848115349939493
0.0,37.0,37.0,0.0,120.0,0.0,0.0,0.0,0.0,-107.0,0.0,-45.0,0.0,0.0,0.0,34.27253218749016,17.55503396713325,5.134989992360502,3.788080574342106,3.2458148417724115,2.7366514842656144,2.201001759557644,1.689379882675651,1.223527849277357,0.8425677230998733,0.5568443513462625,0.3485357426340352,0.20307125960225064,0.10747357523504172,0.050197351791043024,0.020434734586389627,0.006501635517605235,7.424111091233006,6.1178027861877915,5.535307559272237,4.951677186317413,4.289545743509247,3.594329629420398,2.8874432594729473,2.2322601913203837,1.6694685627603527,1.1954978536158665,0.8086342168965037,0.5062104821511916,0.28600309024409054,0.14424334389134677,0.060279020587744064
0.0,38.0,38.0,0.0,120.0,0.0,0.0,0.0,0.0,-107.0,0.0,-45.0,0.0,0.0,0.0,34.27253218749016,17.55503396713325,5.1708747763514324,3.8326735135291297,3.284842866578799,2.769218146006341,2.226360126638475,1.7078312397454734,1.2359104263395042,0.8503043920453414,0.5614068350934964,0.3511349003773697,0.20475036844271421,0.10879374968593498,0.051169967876320305,0.021009378430082975,0.006754577142700163,7.454250511681281,6.162912264181612,5.578098859228667,4.99033375281641,4.322607896615328,3.621048365237496,2.907603916290163,2.2464985346911304,1.6789367397627726,1.201568299084021,0.8131649401353903,0.5105859175198513,0.2900704413751142,0.14729502078343581,0.062042293869910746
0.0,39.0,39.0,0.0,120.0,0.0,0.0,0.0,0.0,-107.0,0.0,-45.0,0.0,0.0,0.0,34.27253218749016,17.55503396713325,5.2083859088435895,3.878137151441907,3.3245459979217715,2.8023132815019554,2.2521049479919903,1.726544737582526,1.2484546636280738,0.8581326044306161,0.5660145480579367,0.3537306560510782,0.20637176212850813,0.11004284944455352,0.0520994168727549,0.021567983173795127,0.0070046055700934765,7.485750890255662,6.208736409748943,5.621459737766672,5.029472789852856,4.35606592056914,3.6480758983227157,2.927989037865785,2.2608895819616115,1.6884970241290047,1.2076302469204079,0.8175177127533685,0.5146879368468078,0.2939235341605698,0.15023702478485962,0.06376999940715664
0.0,40.0,40.0,0.0,120.0,0.0,0.0,0.0,0.0,-107.0,0.0,-45.0,0.0,0.0,0.0,34.27253218749016,17.55503396713325,5.247567136969464,3.924484747020573,3.364937089982203,2.8359469669202118,2.2782433006861917,1.745524914766223,1.2611631966625907,0.8660538125886443,0.5706692937392285,0.3563290723658935,0.20794470072594187,0.11122655393739436,0.052987058680130275,0.022110416355085385,0.007251448910515874,7.518640988316769,6.255278032960918,5.665397036766307,5.06910105359736,4.389925638244344,3.6754168726694334,2.948602091763277,2.2754358806372172,1.6981534526291782,1.2136998345425682,0.8217227697282928,0.5185407440812849,0.29757168528456485,0.15307086640234488,0.06546133169778844
0.0,41.0,41.0,0.0,120.0,0.0,0.0,0.0,0.0,-107.0,0.0,-45.0,0.0,0.0,0.0,34.27253218749016,17.55503396713325,5.28846116974864,3.9717301852663924,3.406029328997358,2.870129492057737,2.3047823907482474,1.7647763782842556,1.2740386879671959,0.8740694643682387,0.5753725572918299,0.35893512663253024,0.20947747179419374,0.11235037024390875,0.05383434926871159,0.0226366155775904,0.0074948628269141315,7.5529475917066975,6.302540261366915,5.709917657502921,5.109225294989676,4.424192840553241,3.703075880652822,2.969446474775933,2.2901398796148733,1.7079092948441905,1.2197902311543722,0.8258069656316682,0.5221674503101764,0.3010243460412437,0.1557982904721254,0.06711564029425146
0.0,42.0,42.0,0.0,120.0,0.0,0.0,0.0,0.0,-107.0,0.0,-45.0,0.0,0.0,0.0,34.27253218749016,17.55503396713325,5.331109539899124,4.019887993402524,3.447836240347915,2.9048713660635475,2.331729556662769,1.7843038053834241,1.2870838282576722,0.882181008537875,0.580125594537178,0.3615528921586443,0.21097745121039158,0.11341960265092578,0.05464282462267939,0.023146582520188214,0.007734629066588889,7.588695342806798,6.350526558156697,5.755028564448532,5.149852266423319,4.458873293352738,3.7310574694035297,2.9905255194735365,2.305003942870366,1.7177672547715568,1.225912142873611,0.8297940283509802,0.5255900081517815,0.3042910498410343,0.15842124973283553,0.06873241722242875
0.0,43.0,43.0,0.0,120.0,0.0,0.0,0.0,0.0,-107.0,0.0,-45.0,0.0,0.0,0.0,34.27253218749016,17.55503396713325,5.37555247909318,4.068973353882222,3.4903716960904383,2.940183323436824,2.3590922730107593,1.8041119455456356,1.3003013376756134,0.8903898979020011,0.58492949784685,0.3641856950736954,0.2124511688550328,0.11443932812171774,0.05541408545531583,0.02364037741278532,0.007970554010729599,7.625906587292945,6.399240734245431,5.800736789337115,5.190988728455837,4.49397274436147,3.759366147231969,3.0118425006365808,2.320030359100361,1.7277296198603758,1.2320742457248468,0.8337048180323214,0.528829164976021,0.30738136203411065,0.16094188128286877,0.07031128521367849
0.0,44.0,44.0,0.0,120.0,0.0,0.0,0.0,0.0,-107.0,0.0,-45.0,0.0,0.0,0.0,34.27253218749016,17.55503396713325,5.4218288163738455,4.119002121441914,3.533649930135722,2.9760763375516888,2.386878159899748,1.8242056228208006,1.3136939605712077,0.8986975930304028,0.5897852444429733,0.3668362484120071,0.21390437677579718,0.11541437741406553,0.05614978267226236,0.024118113935852132,0.008202467333624095,7.664601262491712,6.448687010176115,5.847049521265889,5.232641579522848,4.529497084562929,3.7880065044646627,3.033400559549643,2.3352213147879395,1.7377984030029419,1.2382835420711311,0.8375575872269567,0.5319044336761892,0.31030483207193416,0.16336248553313876,0.07185198915288876
0.0,45.0,45.0,0.0,120.0,0.0,0.0,0.0,0.0,-107.0,0.0,-45.0,0.0,0.0,0.0,34.27253218749016,17.55503396713325,5.469975878739487,4.169990816940666,3.577685531428949,3.0125616120263903,2.415094975192447,1.8445897378197935,1.3272644804082325,0.9071055593410043,0.5946937313003132,0.36950676575394253,0.21534211803883285,0.11634932138497196,0.056851603621393305,0.024579954490257058,0.008430220465045287,7.70479673981347,6.498869902876511,5.893973933823167,5.274817608398714,4.565452035840762,3.816982983493605,3.0552028795470187,2.350578971430683,1.7479753542875907,1.2445456930397398,0.8413682284760986,0.5348340804675782,0.313070948319603,0.16568550703617005,0.07335438096468941
0.0,46.0,46.0,0.0,120.0,0.0,0.0,0.0,0.0,-107.0,0.0,-45.0,0.0,0.0,0.0,34.27253218749016,17.55503396713325,5.520029356695171,4.221956616836505,3.622493511372082,3.04965063394136,2.4437505813253444,1.8652692830229824,1.3410157157918452,0.9156152692221872,0.5996558000977651,0.37219905653393326,0.2167687944596855,0.11724846217735414,0.057521259118885906,0.025026105800328824,0.008653685173432894,7.746507754779075,6.5497943141080475,5.941517285813237,5.3175234928151776,4.601843206191664,3.846299920426489,3.077252668430904,2.3661054599262297,1.7582620286422108,1.2508652731878276,0.8451505171997296,0.5376351270156646,0.3156890955515611,0.1679135171100417,0.07481841119256365
0.0,47.0,47.0,0.0,120.0,0.0,0.0,0.0,0.0,-107.0,0.0,-45.0,0.0,0.0,0.0,34.27253218749016,17.55503396713325,5.572023482266222,4.274917436236537,3.668089185397227,3.0873550654320123,2.472853063893064,1.886249309275201,1.3549505196675173,0.9242282048585206,0.6046722550870499,0.3749146052652649,0.21818823203530469,0.11811582878781735,0.05816047129535719,0.025456814805352654,0.008872752764987373,7.78974639373824,6.601465415311151,5.989686856724971,5.360766114249753,4.638676349731121,3.875961728862592,3.0995530301283925,2.381802833353625,1.76865987877807,1.2572459665378788,0.8489163446289808,0.5403233654142278,0.31816851541616525,0.1700491978842343,0.07624412368547961
0.0,48.0,48.0,0.0,120.0,0.0,0.0,0.0,0.0,-107.0,0.0,-45.0,0.0,0.0,0.0,34.27253218749016,17.55503396713325,5.625990851522887,4.328891863218674,3.714488281042401,3.1256868559762814,2.5024106442267224,1.9075349579753424,1.3690717791679279,0.9329458582041892,0.609743875566526,0.37765463692912377,0.21960374332820262,0.11895517642256222,0.0587709623292191,0.025872364793820737,0.009087332498674891,7.834522039032103,6.6538887548647345,6.038490065860534,5.404552376779238,4.675957229869756,3.9059728176062207,3.1221070407779066,2.3976730990589097,1.7791702581100888,1.263690751416941,0.8526759308506694,0.5429133849883337,0.32051827023949164,0.17209532731058608,0.0776316461465513
0.0,49.0,49.0,0.0,120.0,0.0,0.0,0.0,0.0,-107.0,0.0,-45.0,0.0,0.0,0.0,34.27253218749016,17.55503396713325,5.681962485717747,4.383899181119648,3.761706931300685,3.1646582261469285,2.532431700684394,1.9291314577631564,1.3833824183614583,0.9417697315737775,0.6148714246037728,0.38042017050754107,0.22101818598840842,0.11976998921916462,0.059354444077125014,0.02627307175246019,0.00929735051107089,7.8808413980443,6.707070216222194,6.08793443487694,5.448889227487584,4.71369163137126,3.9363375941454803,3.1449177538053754,2.4137182240588406,1.789794442046745,1.2702020438255228,0.8564380236783268,0.5454186084841318,0.32274721025194386,0.17405476509430115,0.07898118285777905
0.0,50.0,50.0,0.0,120.0,0.0,0.0,0.0,0.0,-107.0,0.0,-45.0,0.0,0.0,0.0,34.27253218749016,17.55503396713325,5.73996790237389,4.439959378188767,3.8097616787487802,3.2042816696368264,2.5629247779959745,1.9510441253412507,1.3978853999603824,0.9507013384265398,0.6200556550695495,0.38321206248216294,0.22243401704562493,0.1205634858081856,0.059912608636868155,0.026659280900335192,0.009502748748079186,7.928708561437687,6.761015997906048,6.138027583214268,5.493783667847373,4.751885366497319,3.9670604701624264,3.167988204853926,2.4299401400484535,1.80053364348375,1.2767818136508722,0.8602100809703515,0.5478513360754275,0.32486394442104066,0.17593043933675445,0.08029300809557112
0.0,51.0,51.0,0.0,120.0,0.0,0.0,0.0,0.0,-107.0,0.0,-45.0,0.0,0.0,0.0,34.27253218749016,17.55503396713325,5.80003517421063,4.497093139807321,3.858669499336977,3.2445700011303344,2.59389858892772,1.9732783600769135,1.412583728964956,0.9597422042519665,0.6252973136314214,0.38603104199105,0.22385334273106094,0.12133862723430482,0.06044711986037053,0.027031363385590035,0.009703483938107204,7.978125114410478,6.815732637998343,6.188777272843776,5.539242771808336,4.790544247297791,3.998145880844401,3.191321411860916,2.446340749658441,1.8113890238545844,1.2834316783417268,0.8639984362800858,0.550222795537233,0.3268768149858909,0.177725333768826,0.08156746034647917
0.0,52.0,52.0,0.0,120.0,0.0,0.0,0.0,0.0,-107.0,0.0,-45.0,0.0,0.0,0.0,34.27253218749016,17.55503396713325,5.8621910824094305,4.555321881958266,3.908447826376108,3.2855363500685955,2.6253620050926885,1.995839656961025,1.4274804506224215,0.9688938681285515,0.630597143561308,0.38887773894860217,0.22527796379920836,0.12209812676922899,0.0609596058261368,0.02738971312774493,0.009899526716791545,8.029090288042939,6.8712269967722195,6.240191386708128,5.585273660713647,4.829674108114596,4.02959828881297,3.2149203803978597,2.4629219301988776,1.822361701960474,1.2901529777922798,0.8678084481705156,0.5525431970436119,0.32879387572806623,0.17944247549308923,0.08280493678035063
0.0,53.0,53.0,0.0,120.0,0.0,0.0,0.0,0.0,-107.0,0.0,-45.0,0.0,0.0,0.0,34.27253218749016,17.55503396713325,5.926461425108472,4.614667809749466,3.959114488052374,3.3271939917685995,2.6573240886834544,2.01873363081093,1.4425786401340022,0.978157885060967,0.6359558890333794,0.3917527050709429,0.22670941678796108,0.1228444611191574,0.06145165227058416,0.027734743800302913,0.0100908605148768,8.081601043354997,6.92750610535664,6.292277815051048,5.631883554983832,4.869281049847175,4.061422250583339,3.2387882116312126,2.4796854493271754,1.8334527480078788,1.2969468532837964,0.8716446278191526,0.5548217920348562,0.33062287404494134,0.181084923021446,0.08400589046395184
0.0,54.0,54.0,0.0,120.0,0.0,0.0,0.0,0.0,-107.0,0.0,-45.0,0.0,0.0,0.0,34.27253218749016,17.55503396713325,5.992870990567082,4.675153834260491,4.010687788924672,3.3695565842379214,2.689794090896271,2.0419659804863612,1.4578814253976793,0.9875358223683843,0.6413742932983155,0.39465643379136256,0.2281490098831903,0.12357988292933537,0.061924796943102864,0.02806688592086449,0.01027748085677937,8.135652341452733,6.9845773166688465,6.345044618407921,5.679079741461292,4.909371083557172,4.093622280477368,3.2629279393984154,2.496633118693775,1.8446632108866252,1.303814261493032,0.8755107678671649,0.5570669317626078,0.33237123640234734,0.1826557551941899,0.08517082176570011
0.0,55.0,55.0,0.0,120.0,0.0,0.0,0.0,0.0,-107.0,0.0,-45.0,0.0,0.0,0.0,34.27253218749016,17.55503396713325,6.061443842981766,4.736803622361836,4.063186506803589,3.412638100193588,2.722781458805511,2.065542513052871,1.4733919857886684,0.9970292592360137,0.6468530990521538,0.3975893747903802,0.22959785516593134,0.12430643393370461,0.06238052487949806,0.028386584070094922,0.010459394664942738,8.191237348948219,7.04244821210751,6.398499918904934,5.72686949589748,4.949950128184318,4.126202736507399,3.287342483501612,2.5137668549792993,1.855994133183009,1.3107559973242988,0.8794100514681612,0.559286127533752,0.33404605737418197,0.18415806037294422,0.08630027162630556
0.0,56.0,56.0,0.0,120.0,0.0,0.0,0.0,0.0,-107.0,0.0,-45.0,0.0,0.0,0.0,34.27253218749016,17.55503396713325,6.132203543956275,4.799641612231465,4.1166299231453625,3.4564528609689678,2.75629585074303,2.08946911278933,1.489113549691399,1.0066397911452931,0.6523930537248174,0.4005519418483615,0.23105689813567912,0.1250259583335484,0.06282026455741394,0.02869429425216215,0.010636619331558914,8.24834772154669,7.101126681121484,6.452652036960522,5.775260273015806,4.991024258862684,4.159168150272554,3.312034875170569,2.531088464878535,1.8674465184475222,1.3177727744416574,0.8833451283368642,0.5614861137056114,0.33565409232181476,0.18559492552586954,0.08739482574529012
0.0,57.0,57.0,0.0,120.0,0.0,0.0,0.0,0.0,-107.0,0.0,-45.0,0.0,0.0,0.0,34.27253218749016,17.55503396713325,6.205173398051099,4.863693048700591,4.171037881241375,3.5010155981957554,2.7903471583558366,2.113751713757179,1.505049417078,1.0163690219926182,0.6579949102019615,0.4035445222033535,0.23252694244479782,0.1257401165846215,0.06324538487192452,0.028990481351768668,0.010809182461970282,8.306973916286912,7.160620935210913,6.507509476084536,5.824259626324413,5.032599539670875,4.1925230894242365,3.3370081687871305,2.5485997438622077,1.879021350553778,1.3248652251917863,0.8873182017578567,0.5636729065862168,0.33720175283213205,0.18696942641066597,0.08845510761973933
0.0,58.0,58.0,0.0,120.0,0.0,0.0,0.0,0.0,-107.0,0.0,-45.0,0.0,0.0,0.0,34.27253218749016,17.55503396713325,6.280376824209366,4.928983964270311,4.22643063478167,3.546341176134516,2.8249453357818046,2.13839651726925,1.521202880353015,1.0262185943444286,0.6636594176472004,0.4065674854859787,0.2340086712587593,0.12645039915786144,0.06365719288182133,0.029275616714697802,0.010977119562659957,8.36710517551379,7.220939202836095,6.563080674624879,5.873875134112157,5.074682264217278,4.226272210693755,3.362265380367119,2.5663024990349723,1.8907195934015768,1.332033918165821,0.8913310981650212,0.5658518626846152,0.3386951051728874,0.18828461805770555,0.08948177389909805
0.0,59.0,59.0,0.0,120.0,0.0,0.0,0.0,0.0,-107.0,0.0,-45.0,0.0,0.0,0.0,34.27253218749016,17.55503396713325,6.357837473629281,4.995541196301478,4.282829024942511,3.5924449170052264,2.8601006271457865,2.1634097613059797,1.5375773076073422,1.0361901597037722,0.6693873324243718,0.4096211860616696,0.2355026667130355,0.12715813987125232,0.06405693230026419,0.029550175865590552,0.0111404750602216,8.428730081664996,7.282090057395141,6.619374303479192,5.92411453405854,5.11727872922827,4.2604201762007445,3.387809572931678,2.5841985254734157,1.9025421981169037,1.3392793716523228,0.8953853268261844,0.5680277350203705,0.3401398713328434,0.18954352579228353,0.09047551298866581
0.0,60.0,60.0,0.0,120.0,0.0,0.0,0.0,0.0,-107.0,0.0,-45.0,0.0,0.0,0.0,34.27253218749016,17.55503396713325,6.437579567846269,5.063392409229032,4.340254449203528,3.639342512329293,2.895823492813879,2.1887977992795644,1.554176118020122,1.0462853889286559,0.6751794151184102,0.41270596776726975,0.2370094260144595,0.12786452897921038,0.06444578262863565,0.029814636346811363,0.01129930117865917,8.491836718345105,7.344082309236261,6.676399161270612,5.9749856739031,5.160395308202546,4.294971691750855,3.4136438295699087,2.6022896181081823,1.9144901033799315,1.3466020643594845,0.8994821312031948,0.5702047268533188,0.34154143245326823,0.19074913680950983,0.09143704147943661
0.0,61.0,61.0,0.0,120.0,0.0,0.0,0.0,0.0,-107.0,0.0,-45.0,0.0,0.0,0.0,34.27253218749016,17.55503396713325,6.519628182507128,5.132566114368461,4.39872887559648,3.687050037130317,2.9321246153107023,2.2145671019066238,1.5710027832521773,1.0565059728741246,0.6810364309535673,0.4158221668333188,0.23852937540003472,0.1285706257217937,0.06482485889410437,0.03006947569131244,0.011453657364930007,8.556412904138929,7.406925013207244,6.734164172168168,6.026496512819551,5.2040384551456125,4.329931509228688,3.439771256193193,2.6205775737350567,1.9265642374502745,1.354002443551623,0.903622532769148,0.5723865426379315,0.34290483434505803,0.1919043923384926,0.09236710130197748
0.0,62.0,62.0,0.0,120.0,0.0,0.0,0.0,0.0,-107.0,0.0,-45.0,0.0,0.0,0.0,34.27253218749016,17.55503396713325,6.604009531531778,5.203091701153808,4.458274859631383,3.7355839692781383,2.969014908233988,2.2407242547002366,1.5880608282352402,1.066853623983203,0.6869591498409565,0.4189701141608671,0.24006288203954015,0.1292773702788629,0.06519521192394516,0.030315169530040917,0.011603609767744936,8.62244640680121,7.470627485362461,6.7926783849622465,6.078655118070398,5.24821470236703,4.3653044255571265,3.4661949882043945,2.6390641911382953,1.9387655205923253,1.361480931136006,0.9078073682759642,0.5745764359678956,0.3442347948301322,0.19301218041716667,0.09326645691249466
0.0,63.0,63.0,0.0,120.0,0.0,0.0,0.0,0.0,-107.0,0.0,-45.0,0.0,0.0,0.0,34.27253218749016,17.55503396713325,6.6907513213822325,5.274999578736451,4.518915664348718,3.7849613023609647,3.0065055593997876,2.267275871985543,1.605353829394522,1.0773300920074271,0.6929483413225441,0.4221501377579503,0.24161026422894943,0.129985595000214,0.06555782911661165,0.030552189829573907,0.011749231543643098,8.689925205222591,7.535199360181066,6.8519509712401545,6.131469599105729,5.292930541527314,4.4010952272627755,3.492918276421558,2.657751236454241,1.9510948792617406,1.3690379248322133,0.9120373220637299,0.5767772542453136,0.34553571266189836,0.19407532930239726,0.09413589166816128
0.0,64.0,64.0,0.0,120.0,0.0,0.0,0.0,0.0,-107.0,0.0,-45.0,0.0,0.0,0.0,34.27253218749016,17.55503396713325,6.779882733895329,5.348320897630974,4.580674900761096,3.8351992098288465,3.0446078837578097,2.2942288650374105,1.6228854518723836,1.0879371043803356,0.6990047963825499,0.4253625604370909,0.24317179987232296,0.13069603518978715,0.0659136355225857,0.03078100330235773,0.01189059894130464,8.758837399346135,7.600650456593956,6.911991205264093,6.184948265434378,5.338192801376422,4.437308908983837,3.5199442251747004,2.6766405543625713,1.9635532098992587,1.376673813218425,0.9163129498927713,0.5789914808555764,0.34681167765461507,0.19509660148943106,0.09497620769421923
0.0,65.0,65.0,0.0,120.0,0.0,0.0,0.0,0.0,-107.0,0.0,-45.0,0.0,0.0,0.0,34.27253218749016,17.55503396713325,6.871434888204815,5.423087938800745,4.643576897043864,3.886315406146839,3.0833335121731413,2.321590193774365,1.640659396455906,1.0986764344680198,0.70512930375857,0.4286077051372247,0.2447477335153535,0.13140933884440656,0.06626349542284349,0.031002069901756357,0.01202779394060897,8.829171683528385,7.6669909723198755,6.972808541767898,6.2390994928219214,5.384008298241879,4.473950444237032,3.547276047915312,2.695733967970044,1.9761414151747838,1.3843889679203938,0.9206347037522934,0.5812212731132153,0.34806648203263796,0.19607868841703724,0.09578822114763859
0.0,66.0,66.0,0.0,120.0,0.0,0.0,0.0,0.0,-107.0,0.0,-45.0,0.0,0.0,0.0,34.27253218749016,17.55503396713325,6.965440970572174,5.499334094603698,4.707646588750786,3.938328023178843,3.1226943304601567,2.34936694533387,1.6586794282782902,1.109549889380079,0.7113226591571863,0.43188588896450614,0.24633828490278545,0.1321260750894187,0.06660821424862824,0.031215841516256483,0.012160902437158016,8.900917502596933,7.734231447591637,7.034412676670663,6.293931841948353,5.430384079798376,4.511025060671484,3.5749172073677795,2.71503341016563,1.9888602267214732,1.3921837608262788,0.9250029633858246,0.5834684945311837,0.3493036316562012,0.19702420694144002,0.09657276766647452
0.0,67.0,67.0,0.0,120.0,0.0,0.0,0.0,0.0,-107.0,0.0,-45.0,0.0,0.0,0.0,34.27253218749016,17.55503396713325,7.061936512678946,5.5770939931952315,4.772909574559528,3.991255628659812,3.1627025022359336,2.377566339276498,1.6769493617194495,1.120559280115323,0.7175856639259579,0.4351974381260601,0.24794364706028044,0.13284674473389352,0.06694854023795392,0.03142276070483876,0.01229001308895802,8.974065325179218,7.802382618249525,7.096813428694786,6.349453816631338,5.477327048450726,4.548537709274645,3.6028708116260075,2.7345406493661666,2.001710672761295,1.4000585335630809,0.9294180133315546,0.5857347561862111,0.3505263611350542,0.1979356921066037,0.09733068025969764
0.0,68.0,68.0,0.0,120.0,0.0,0.0,0.0,0.0,-107.0,0.0,-45.0,0.0,0.0,0.0,34.27253218749016,17.55503396713325,7.160959726117052,5.656403555081556,4.839392151470725,4.045117203962447,3.2033704631616833,2.4061957283824156,1.6954730750392157,1.131706448479142,0.7239191267823527,0.43854267594427637,0.24956399643076316,0.13357178615997672,0.06728516700941228,0.03162325968634592,0.01241521713356564,9.048607054933345,7.871455394705967,7.16002091380891,6.40567408352601,5.524844278314784,4.586493524228147,3.631140132026488,2.7542575253577968,2.014693681563038,1.4080136264823377,0.9338800883857274,0.5880214384297314,0.35173764498086685,0.19881559645685634,0.09806280444378003
0.0,69.0,69.0,0.0,120.0,0.0,0.0,0.0,0.0,-107.0,0.0,-45.0,0.0,0.0,0.0,34.27253218749016,17.55503396713325,7.262552046764036,5.737300012962798,4.907121403476716,4.099932146328307,3.2447109275500856,2.4352626032801887,1.7142545087831178,1.1429932630113158,0.7303238637650445,0.44192192539980923,0.2511994952601942,0.1343015826882519,0.06761873588676043,0.031817759396897266,0.012536608212570848,9.124536407021338,7.941460691014175,7.224045545692758,6.462601459861676,5.572942956530827,4.624897749591335,3.659728517184217,2.774185910340834,2.027810150023868,1.4160493751552994,0.9383893785713058,0.5903297188520803,0.3529402113964048,0.19966628676926215,0.0987699934819108
0.0,70.0,70.0,0.0,120.0,0.0,0.0,0.0,0.0,-107.0,0.0,-45.0,0.0,0.0,0.0,34.27253218749016,17.55503396713325,7.36675888454215,5.819821816354291,4.97612531071464,4.155720279657889,3.286736890156338,2.4647745977951447,1.733297665428785,1.154421617391226,0.7368006983727341,0.44533551038360786,0.25285029396046704,0.13503646911255315,0.06794983836222349,0.03200666868056407,0.012654282610387292,9.201849146100315,8.012409251499092,7.288898007843068,6.520244931977208,5.621630353627017,4.66375570686737,3.688639353979715,2.7943276911607806,2.041060976155098,1.424166109175226,0.942946035199123,0.5926605969452486,0.35413655599562166,0.20049004161708642,0.09945310485033686
0.0,71.0,71.0,0.0,120.0,0.0,0.0,0.0,0.0,-107.0,0.0,-45.0,0.0,0.0,0.0,34.27253218749016,17.55503396713325,7.473630507097439,5.904008410375993,5.046432859417139,4.2125018706914235,3.3294615878508314,2.494739445954982,1.7526066085621583,1.1659934569375663,0.743350447712871,0.44878376060323116,0.254516532262432,0.13577673769522747,0.06827901863040761,0.032190383594704795,0.012768338912218848,9.280542931131496,8.084311506735913,7.35458910389236,6.5786136305646306,5.67091377005839,4.703072797083917,3.717876129900022,2.814684751830086,2.0544470598580813,1.4323641532630642,0.9475501783491863,0.5950149155069532,0.3553289554071947,0.20128904969276634,0.10011299672134487
0.0,72.0,72.0,0.0,120.0,0.0,0.0,0.0,0.0,-107.0,0.0,-45.0,0.0,0.0,0.0,34.27253218749016,17.55503396713325,7.583222655039592,5.989899864066346,5.1180740720382,4.2702976829979935,3.372898538278896,2.525165072639409,1.7721854845675844,1.1777107286033406,0.7499739468909684,0.4522670038243828,0.256198343244052,0.13652264292009608,0.0686067762421284,0.03236928686494754,0.012878878380874379,9.360616809551065,8.15717781968116,7.421129707710022,6.6377169824935445,5.720800635993524,4.742854520596203,3.7474423370904164,2.835258995100821,2.067969308995599,1.4406438259361898,0.9522019024532152,0.597393380272488,0.35651948057969035,0.20206540870548642,0.10075052607209173
0.0,73.0,73.0,0.0,120.0,0.0,0.0,0.0,0.0,-107.0,0.0,-45.0,0.0,0.0,0.0,34.27253218749016,17.55503396713325,7.69559654016861,6.077536645274034,5.191079981849236,4.329129096580721,3.417061587109211,2.5560596431062765,1.7920384973125558,1.1895753669905023,0.7566720615392974,0.45578556185701397,0.25789585571841206,0.1372744060575619,0.06893356869505834,0.032543747452978805,0.0129860041708222,9.442070326639769,8.231019059720222,7.4885306213927745,6.69756478329966,5.771298552411198,4.78310645055573,3.777341415721288,2.8560523751581455,2.081628632731946,1.4490054424656906,0.9569012800229196,0.5997965775164891,0.3577100098716047,0.20282112475568612,0.10136654631286995
0.0,74.0,74.0,0.0,120.0,0.0,0.0,0.0,0.0,-107.0,0.0,-45.0,0.0,0.0,0.0,34.27253218749016,17.55503396713325,7.810817787744666,6.166959817866426,5.265482426966765,4.389018160595353,3.461964804229494,2.587431432485911,1.8121699079118545,1.2015893662154458,0.7634456489296246,0.45933976369192187,0.2596091922579091,0.1380322199283286,0.06925981395031086,0.03271412017484781,0.013089817357476358,9.524902779653258,8.305847267001349,7.556802212509679,6.758166979741068,5.822415167744364,4.8238342296263115,3.8075769245327664,2.8770668468072604,2.0954259424305612,1.457449316073784,0.9616483666268213,0.6022249888141179,0.35890224207605614,0.20355811212639205,0.10196190459635004
0.0,75.0,75.0,0.0,120.0,0.0,0.0,0.0,0.0,-107.0,0.0,-45.0,0.0,0.0,0.0,34.27253218749016,17.55503396713325,7.928954595565387,6.25821190113626,5.341313670332171,4.449987668008665,3.5076225236314063,2.6192888877605185,1.8325840456593008,1.2137547468751657,0.7702955749931492,0.4629299400791686,0.2613384716557296,0.13879625231829687,0.06958589300870516,0.032880745470361836,0.013190416489356597,9.609114496985228,8.381676550048198,7.625954498098285,6.819533659033807,5.874158267851703,4.865043571525552,3.838152473590778,2.8983043847293906,2.1093621542718473,1.4659757576744785,0.9664432037321231,0.6046790048856812,0.36009770880429376,0.20427819356720572,0.10253744465612454
0.0,76.0,76.0,0.0,120.0,0.0,0.0,0.0,0.0,-107.0,0.0,-45.0,0.0,0.0,0.0,34.27253218749016,17.55503396713325,8.05007752791214,6.351338481738572,5.418606013950935,4.512061156773104,3.5540493575861296,2.651640627248802,1.8532853115656813,1.22607355632581,0.7772227144135694,0.46655642368561595,0.26308380974492124,0.13956664926248438,0.06991215239323265,0.03304394925108335,0.013287899933270406,9.694710698961602,8.458523141840628,7.695997499395629,6.8816749107109185,5.92653580410406,4.906740254285664,3.869071727006267,2.919766984624153,2.1234381899875903,1.4745850764669444,0.9712858212819792,0.607158937636435,0.36129778649722727,0.20498310095582997,0.10309401031343966
0.0,77.0,77.0,0.0,120.0,0.0,0.0,0.0,0.0,-107.0,0.0,-45.0,0.0,0.0,0.0,34.27253218749016,17.55503396713325,8.174263764301543,6.446389787873251,5.497391692561537,4.575262806155313,3.6012602226314074,2.6844954348690684,1.8742781827158255,1.238547869026597,0.7842279507049268,0.47021954924283044,0.26484532006043704,0.1403435379476689,0.07023890655880165,0.03320404283425051,0.013382373474240431,9.781705356199456,8.536403864341391,7.76694201018727,6.944600695895091,5.979555918141443,4.948930113920565,3.9003384044498874,2.9414566644692095,2.1376549776284195,1.4832775805056613,0.9761762398129623,0.6096650307692728,0.3625037079496466,0.2056744763213348,0.10363244632968009
0.0,78.0,78.0,0.0,120.0,0.0,0.0,0.0,0.0,-107.0,0.0,-45.0,0.0,0.0,0.0,34.27253218749016,17.55503396713325,8.301604132500842,6.5434206324447155,5.5777034331272874,4.639617236146453,3.6492703750792437,2.7178622481866186,1.8955672168828654,1.2511797870200805,0.7913121762869705,0.4739196536820879,0.26662311437572045,0.14112702926969878,0.0705664402174112,0.03336132295558832,0.013473957663316419,9.870119074210074,8.615333062433823,7.83880054128539,7.008320822565559,6.033226957740372,4.991619041974978,3.9319562807567947,2.9633754658754983,2.15201345237776,1.4920535772530703,0.981114472205886,0.6121974691152925,0.363716573315441,0.206353873194111,0.10415358756207511
